{"en": [{"Id": "3412", "pgp": 0, "GoBack": 1, "SID": 15560, "NameZh": "Cishan Bus Transfer Station", "RouteId": 8026, "SeqNo": 1, "Terminal": 0, "DistrictId": 1, "Latitude": 22.883651, "Longitude": 120.484555, "IVRNo": 9717, "EXTVoiceNo": 13412, "traveltime": 0, "holidayTraveltime": 0}, {"Id": "2422", "pgp": 0, "GoBack": 1, "SID": 19208, "NameZh": "Cishan Hospital", "RouteId": 8026, "SeqNo": 2, "Terminal": 0, "DistrictId": 1, "Latitude": 22.881017, "Longitude": 120.482871, "IVRNo": 32422, "EXTVoiceNo": 32422, "traveltime": 0, "holidayTraveltime": 0}, {"Id": "9718", "pgp": 0, "GoBack": 1, "SID": 15561, "NameZh": "Yanping Rd. (Cishan District Office)", "RouteId": 8026, "SeqNo": 3, "Terminal": 0, "DistrictId": 1, "Latitude": 22.88761, "Longitude": 120.483247, "IVRNo": 9718, "EXTVoiceNo": 9718, "traveltime": 0, "holidayTraveltime": 0}, {"Id": "9374", "pgp": 0, "GoBack": 1, "SID": 2669, "NameZh": "Cishan Market", "RouteId": 8026, "SeqNo": 4, "Terminal": 0, "DistrictId": 1, "Latitude": 22.8899, "Longitude": 120.48332, "IVRNo": 9953, "EXTVoiceNo": 9374, "traveltime": 0, "holidayTraveltime": 0}, {"Id": "1197", "pgp": 0, "GoBack": 1, "SID": 17276, "NameZh": "Jhonghua Rd. Intersection (Ci)", "RouteId": 8026, "SeqNo": 5, "Terminal": 0, "DistrictId": 1, "Latitude": 22.89278, "Longitude": 120.4833, "IVRNo": 1180, "EXTVoiceNo": 21197, "traveltime": 0, "holidayTraveltime": 0}, {"Id": "1828", "pgp": 0, "GoBack": 1, "SID": 15564, "NameZh": "Cishan North Station", "RouteId": 8026, "SeqNo": 6, "Terminal": 0, "DistrictId": 1, "Latitude": 22.896043, "Longitude": 120.483457, "IVRNo": 9142, "EXTVoiceNo": 11828, "traveltime": 0, "holidayTraveltime": 0}, {"Id": "3413", "pgp": 0, "GoBack": 1, "SID": 14049, "NameZh": "Ci Shan Agricultural and Industrial Senior High School", "RouteId": 8026, "SeqNo": 7, "Terminal": 0, "DistrictId": 1, "Latitude": 22.90194, "Longitude": 120.483244, "IVRNo": 1255, "EXTVoiceNo": 13413, "traveltime": 0, "holidayTraveltime": 0}, {"Id": "0200", "pgp": 0, "GoBack": 1, "SID": 15566, "NameZh": "Lioujhangli", "RouteId": 8026, "SeqNo": 8, "Terminal": 0, "DistrictId": 1, "Latitude": 22.90867, "Longitude": 120.49043, "IVRNo": 10391, "EXTVoiceNo": 20200, "traveltime": 0, "holidayTraveltime": 0}, {"Id": "9372", "pgp": 0, "GoBack": 1, "SID": 2610, "NameZh": "Longshanlin Community", "RouteId": 8026, "SeqNo": 9, "Terminal": 0, "DistrictId": 1, "Latitude": 22.912333, "Longitude": 120.493057, "IVRNo": 9054, "EXTVoiceNo": 9372, "traveltime": 0, "holidayTraveltime": 0}, {"Id": "1575", "pgp": 0, "GoBack": 1, "SID": 15567, "NameZh": "Yuanfu Village", "RouteId": 8026, "SeqNo": 10, "Terminal": 0, "DistrictId": 1, "Latitude": 22.91598, "Longitude": 120.49455, "IVRNo": 11575, "EXTVoiceNo": 11575, "traveltime": 0, "holidayTraveltime": 0}, {"Id": "0057", "pgp": 0, "GoBack": 1, "SID": 15568, "NameZh": "Kouaijhuangnei", "RouteId": 8026, "SeqNo": 11, "Terminal": 0, "DistrictId": 1, "Latitude": 22.920286, "Longitude": 120.496293, "IVRNo": 10126, "EXTVoiceNo": 20057, "traveltime": 0, "holidayTraveltime": 0}, {"Id": "0056", "pgp": 0, "GoBack": 1, "SID": 15569, "NameZh": "Kouai", "RouteId": 8026, "SeqNo": 12, "Terminal": 0, "DistrictId": 1, "Latitude": 22.92235, "Longitude": 120.49714, "IVRNo": 10124, "EXTVoiceNo": 20056, "traveltime": 0, "holidayTraveltime": 0}, {"Id": "3382", "pgp": 0, "GoBack": 1, "SID": 15570, "NameZh": "Yuantan Farmers` Association", "RouteId": 8026, "SeqNo": 13, "Terminal": 0, "DistrictId": 1, "Latitude": 22.92693, "Longitude": 120.50024, "IVRNo": 13382, "EXTVoiceNo": 13382, "traveltime": 0, "holidayTraveltime": 0}, {"Id": "1577", "pgp": 0, "GoBack": 1, "SID": 18372, "NameZh": "Yuanfu Junior High School", "RouteId": 8026, "SeqNo": 14, "Terminal": 0, "DistrictId": 1, "Latitude": 22.92815, "Longitude": 120.50092, "IVRNo": 9747, "EXTVoiceNo": 11577, "traveltime": 0, "holidayTraveltime": 0}, {"Id": "0882", "pgp": 0, "GoBack": 1, "SID": 15571, "NameZh": "Yuantan Farm", "RouteId": 8026, "SeqNo": 15, "Terminal": 0, "DistrictId": 1, "Latitude": 22.92939, "Longitude": 120.50205, "IVRNo": 809, "EXTVoiceNo": 882, "traveltime": 0, "holidayTraveltime": 0}, {"Id": "3381", "pgp": 0, "GoBack": 1, "SID": 15572, "NameZh": "Yuantan", "RouteId": 8026, "SeqNo": 16, "Terminal": 0, "DistrictId": 1, "Latitude": 22.93279, "Longitude": 120.50358, "IVRNo": 11580, "EXTVoiceNo": 13381, "traveltime": 0, "holidayTraveltime": 0}, {"Id": "0164", "pgp": 0, "GoBack": 1, "SID": 15573, "NameZh": "Jhongai", "RouteId": 8026, "SeqNo": 17, "Terminal": 0, "DistrictId": 1, "Latitude": 22.93943, "Longitude": 120.50671, "IVRNo": 10313, "EXTVoiceNo": 20164, "traveltime": 0, "holidayTraveltime": 0}, {"Id": "3347", "pgp": 0, "GoBack": 1, "SID": 15574, "NameZh": "Pujianglin", "RouteId": 8026, "SeqNo": 18, "Terminal": 0, "DistrictId": 1, "Latitude": 22.94907, "Longitude": 120.51104, "IVRNo": 11222, "EXTVoiceNo": 13347, "traveltime": 0, "holidayTraveltime": 0}, {"Id": "0087", "pgp": 0, "GoBack": 1, "SID": 15575, "NameZh": "Dalin (Cijia Rd. Section 4)", "RouteId": 8026, "SeqNo": 19, "Terminal": 0, "DistrictId": 1, "Latitude": 22.95954, "Longitude": 120.51578, "IVRNo": 10169, "EXTVoiceNo": 20087, "traveltime": 0, "holidayTraveltime": 0}, {"Id": "1834", "pgp": 0, "GoBack": 1, "SID": 15576, "NameZh": "Cijia 2nd Rd.", "RouteId": 8026, "SeqNo": 20, "Terminal": 0, "DistrictId": 1, "Latitude": 22.96078, "Longitude": 120.51791, "IVRNo": 11834, "EXTVoiceNo": 11834, "traveltime": 0, "holidayTraveltime": 0}, {"Id": "3313", "pgp": 0, "GoBack": 1, "SID": 15577, "NameZh": "Cihzihliao", "RouteId": 8026, "SeqNo": 21, "Terminal": 0, "DistrictId": 1, "Latitude": 22.961253, "Longitude": 120.528647, "IVRNo": 10874, "EXTVoiceNo": 13313, "traveltime": 0, "holidayTraveltime": 0}, {"Id": "3311", "pgp": 0, "GoBack": 1, "SID": 15578, "NameZh": "Shanlin Farmers` Association", "RouteId": 8026, "SeqNo": 22, "Terminal": 0, "DistrictId": 1, "Latitude": 22.96433, "Longitude": 120.53214, "IVRNo": 10854, "EXTVoiceNo": 13311, "traveltime": 0, "holidayTraveltime": 0}, {"Id": "6078", "pgp": 0, "GoBack": 1, "SID": 13815, "NameZh": "Daai Village", "RouteId": 8026, "SeqNo": 23, "Terminal": 0, "DistrictId": 1, "Latitude": 22.967, "Longitude": 120.54338, "IVRNo": 9744, "EXTVoiceNo": 26078, "traveltime": 0, "holidayTraveltime": 0}, {"Id": "0233", "pgp": 0, "GoBack": 1, "SID": 15579, "NameZh": "Yuemei", "RouteId": 8026, "SeqNo": 24, "Terminal": 0, "DistrictId": 1, "Latitude": 22.96754, "Longitude": 120.5337, "IVRNo": 10461, "EXTVoiceNo": 20233, "traveltime": 0, "holidayTraveltime": 0}, {"Id": "4039", "pgp": 0, "GoBack": 1, "SID": 15580, "NameZh": "Taiwan Power Company (Shanlin)", "RouteId": 8026, "SeqNo": 25, "Terminal": 0, "DistrictId": 1, "Latitude": 22.96992, "Longitude": 120.536115, "IVRNo": 4039, "EXTVoiceNo": 4039, "traveltime": 0, "holidayTraveltime": 0}, {"Id": "3310", "pgp": 0, "GoBack": 1, "SID": 15581, "NameZh": "Shanlin Junior High School", "RouteId": 8026, "SeqNo": 26, "Terminal": 0, "DistrictId": 1, "Latitude": 22.97074, "Longitude": 120.53877, "IVRNo": 10852, "EXTVoiceNo": 13310, "traveltime": 0, "holidayTraveltime": 0}, {"Id": "3309", "pgp": 0, "GoBack": 1, "SID": 15583, "NameZh": "Shanlin District Office (Health Center)", "RouteId": 8026, "SeqNo": 27, "Terminal": 0, "DistrictId": 1, "Latitude": 22.97191, "Longitude": 120.53996, "IVRNo": 13309, "EXTVoiceNo": 13309, "traveltime": 0, "holidayTraveltime": 0}, {"Id": "6099", "pgp": 0, "GoBack": 1, "SID": 12607, "NameZh": "Shanlin Police Station", "RouteId": 8026, "SeqNo": 28, "Terminal": 0, "DistrictId": 1, "Latitude": 22.974386, "Longitude": 120.541646, "IVRNo": 13308, "EXTVoiceNo": 26099, "traveltime": 0, "holidayTraveltime": 0}, {"Id": "6073", "pgp": 0, "GoBack": 1, "SID": 14026, "NameZh": "Shangping Village", "RouteId": 8026, "SeqNo": 29, "Terminal": 0, "DistrictId": 1, "Latitude": 22.976241, "Longitude": 120.542885, "IVRNo": 9818, "EXTVoiceNo": 26073, "traveltime": 0, "holidayTraveltime": 0}, {"Id": "3332", "pgp": 0, "GoBack": 1, "SID": 15586, "NameZh": "Nanhe", "RouteId": 8026, "SeqNo": 30, "Terminal": 0, "DistrictId": 1, "Latitude": 22.97769, "Longitude": 120.54453, "IVRNo": 11074, "EXTVoiceNo": 13332, "traveltime": 0, "holidayTraveltime": 0}, {"Id": "1246", "pgp": 0, "GoBack": 1, "SID": 15938, "NameZh": "Hudi Bridge (Shanlin)", "RouteId": 8026, "SeqNo": 31, "Terminal": 0, "DistrictId": 1, "Latitude": 22.98129, "Longitude": 120.55347, "IVRNo": 1246, "EXTVoiceNo": 1246, "traveltime": 0, "holidayTraveltime": 0}, {"Id": "3406", "pgp": 0, "GoBack": 1, "SID": 15939, "NameZh": "Edingliao", "RouteId": 8026, "SeqNo": 32, "Terminal": 0, "DistrictId": 1, "Latitude": 22.98286, "Longitude": 120.55574, "IVRNo": 1253, "EXTVoiceNo": 13406, "traveltime": 0, "holidayTraveltime": 0}, {"Id": "0435", "pgp": 0, "GoBack": 1, "SID": 15587, "NameZh": "Shanlin Village", "RouteId": 8026, "SeqNo": 33, "Terminal": 0, "DistrictId": 1, "Latitude": 22.998667, "Longitude": 120.549881, "IVRNo": 1256, "EXTVoiceNo": 435, "traveltime": 0, "holidayTraveltime": 0}, {"Id": "0850", "pgp": 0, "GoBack": 1, "SID": 15588, "NameZh": "Shanlinjiao", "RouteId": 8026, "SeqNo": 34, "Terminal": 0, "DistrictId": 1, "Latitude": 22.999043, "Longitude": 120.557845, "IVRNo": 10850, "EXTVoiceNo": 10850, "traveltime": 0, "holidayTraveltime": 0}, {"Id": "1224", "pgp": 0, "GoBack": 1, "SID": 15589, "NameZh": "Neiwan", "RouteId": 8026, "SeqNo": 35, "Terminal": 0, "DistrictId": 1, "Latitude": 23.0068, "Longitude": 120.56979, "IVRNo": 10389, "EXTVoiceNo": 21224, "traveltime": 0, "holidayTraveltime": 0}, {"Id": "0885", "pgp": 0, "GoBack": 1, "SID": 15590, "NameZh": "Baishueicyuan", "RouteId": 8026, "SeqNo": 36, "Terminal": 0, "DistrictId": 1, "Latitude": 23.01704, "Longitude": 120.5547, "IVRNo": 885, "EXTVoiceNo": 885, "traveltime": 0, "holidayTraveltime": 0}, {"Id": "0467", "pgp": 0, "GoBack": 1, "SID": 15591, "NameZh": "Muzih Elementary School", "RouteId": 8026, "SeqNo": 37, "Terminal": 0, "DistrictId": 1, "Latitude": 23.01948, "Longitude": 120.54632, "IVRNo": 10467, "EXTVoiceNo": 10467, "traveltime": 0, "holidayTraveltime": 0}, {"Id": "0465", "pgp": 0, "GoBack": 1, "SID": 15592, "NameZh": "Muzih", "RouteId": 8026, "SeqNo": 38, "Terminal": 0, "DistrictId": 1, "Latitude": 23.02108, "Longitude": 120.54394, "IVRNo": 10465, "EXTVoiceNo": 10465, "traveltime": 0, "holidayTraveltime": 0}, {"Id": "2421", "pgp": 0, "GoBack": 1, "SID": 19206, "NameZh": "Syuanlong Temple", "RouteId": 8026, "SeqNo": 39, "Terminal": 1, "DistrictId": 1, "Latitude": 23.033599, "Longitude": 120.537395, "IVRNo": 32421, "EXTVoiceNo": 32421, "traveltime": 0, "holidayTraveltime": 0}, {"Id": "2421", "pgp": 0, "GoBack": 2, "SID": 19207, "NameZh": "Syuanlong Temple", "RouteId": 8026, "SeqNo": 1, "Terminal": 0, "DistrictId": 1, "Latitude": 23.033474, "Longitude": 120.53742, "IVRNo": 32421, "EXTVoiceNo": 32421, "traveltime": 0, "holidayTraveltime": 0}, {"Id": "0465", "pgp": 0, "GoBack": 2, "SID": 15593, "NameZh": "Muzih", "RouteId": 8026, "SeqNo": 2, "Terminal": 0, "DistrictId": 1, "Latitude": 23.02112, "Longitude": 120.54388, "IVRNo": 10465, "EXTVoiceNo": 10465, "traveltime": 0, "holidayTraveltime": 0}, {"Id": "0467", "pgp": 0, "GoBack": 2, "SID": 15594, "NameZh": "Muzih Elementary School", "RouteId": 8026, "SeqNo": 3, "Terminal": 0, "DistrictId": 1, "Latitude": 23.019387, "Longitude": 120.546285, "IVRNo": 10467, "EXTVoiceNo": 10467, "traveltime": 0, "holidayTraveltime": 0}, {"Id": "0885", "pgp": 0, "GoBack": 2, "SID": 15595, "NameZh": "Baishueicyuan", "RouteId": 8026, "SeqNo": 4, "Terminal": 0, "DistrictId": 1, "Latitude": 23.01702, "Longitude": 120.55464, "IVRNo": 885, "EXTVoiceNo": 885, "traveltime": 0, "holidayTraveltime": 0}, {"Id": "1224", "pgp": 0, "GoBack": 2, "SID": 15596, "NameZh": "Neiwan", "RouteId": 8026, "SeqNo": 5, "Terminal": 0, "DistrictId": 1, "Latitude": 23.00674, "Longitude": 120.5697, "IVRNo": 10389, "EXTVoiceNo": 21224, "traveltime": 0, "holidayTraveltime": 0}, {"Id": "0850", "pgp": 0, "GoBack": 2, "SID": 15597, "NameZh": "Shanlinjiao", "RouteId": 8026, "SeqNo": 6, "Terminal": 0, "DistrictId": 1, "Latitude": 22.99916, "Longitude": 120.55784, "IVRNo": 10850, "EXTVoiceNo": 10850, "traveltime": 0, "holidayTraveltime": 0}, {"Id": "0435", "pgp": 0, "GoBack": 2, "SID": 15598, "NameZh": "Shanlin Village", "RouteId": 8026, "SeqNo": 7, "Terminal": 0, "DistrictId": 1, "Latitude": 22.99879, "Longitude": 120.54987, "IVRNo": 1256, "EXTVoiceNo": 435, "traveltime": 0, "holidayTraveltime": 0}, {"Id": "3406", "pgp": 0, "GoBack": 2, "SID": 13808, "NameZh": "Edingliao", "RouteId": 8026, "SeqNo": 8, "Terminal": 0, "DistrictId": 1, "Latitude": 22.983012, "Longitude": 120.555847, "IVRNo": 1253, "EXTVoiceNo": 13406, "traveltime": 0, "holidayTraveltime": 0}, {"Id": "1246", "pgp": 0, "GoBack": 2, "SID": 16055, "NameZh": "Hudi Bridge (Shanlin)", "RouteId": 8026, "SeqNo": 9, "Terminal": 0, "DistrictId": 1, "Latitude": 22.98144, "Longitude": 120.55344, "IVRNo": 1246, "EXTVoiceNo": 1246, "traveltime": 0, "holidayTraveltime": 0}, {"Id": "3332", "pgp": 0, "GoBack": 2, "SID": 15599, "NameZh": "Nanhe", "RouteId": 8026, "SeqNo": 10, "Terminal": 0, "DistrictId": 1, "Latitude": 22.97786, "Longitude": 120.54456, "IVRNo": 11074, "EXTVoiceNo": 13332, "traveltime": 0, "holidayTraveltime": 0}, {"Id": "6073", "pgp": 0, "GoBack": 2, "SID": 13933, "NameZh": "Shangping Village", "RouteId": 8026, "SeqNo": 11, "Terminal": 0, "DistrictId": 1, "Latitude": 22.97615, "Longitude": 120.54286, "IVRNo": 9818, "EXTVoiceNo": 26073, "traveltime": 0, "holidayTraveltime": 0}, {"Id": "6099", "pgp": 0, "GoBack": 2, "SID": 12618, "NameZh": "Shanlin Police Station", "RouteId": 8026, "SeqNo": 12, "Terminal": 0, "DistrictId": 1, "Latitude": 22.97454, "Longitude": 120.541725, "IVRNo": 13308, "EXTVoiceNo": 26099, "traveltime": 0, "holidayTraveltime": 0}, {"Id": "3309", "pgp": 0, "GoBack": 2, "SID": 15602, "NameZh": "Shanlin District Office (Health Center)", "RouteId": 8026, "SeqNo": 13, "Terminal": 0, "DistrictId": 1, "Latitude": 22.9721, "Longitude": 120.53993, "IVRNo": 13309, "EXTVoiceNo": 13309, "traveltime": 0, "holidayTraveltime": 0}, {"Id": "3310", "pgp": 0, "GoBack": 2, "SID": 15604, "NameZh": "Shanlin Junior High School", "RouteId": 8026, "SeqNo": 14, "Terminal": 0, "DistrictId": 1, "Latitude": 22.97079, "Longitude": 120.53863, "IVRNo": 10852, "EXTVoiceNo": 13310, "traveltime": 0, "holidayTraveltime": 0}, {"Id": "4039", "pgp": 0, "GoBack": 2, "SID": 15605, "NameZh": "Taiwan Power Company (Shanlin)", "RouteId": 8026, "SeqNo": 15, "Terminal": 0, "DistrictId": 1, "Latitude": 22.97001, "Longitude": 120.53609, "IVRNo": 4039, "EXTVoiceNo": 4039, "traveltime": 0, "holidayTraveltime": 0}, {"Id": "0233", "pgp": 0, "GoBack": 2, "SID": 15606, "NameZh": "Yuemei", "RouteId": 8026, "SeqNo": 16, "Terminal": 0, "DistrictId": 1, "Latitude": 22.96748, "Longitude": 120.53365, "IVRNo": 10461, "EXTVoiceNo": 20233, "traveltime": 0, "holidayTraveltime": 0}, {"Id": "6078", "pgp": 0, "GoBack": 2, "SID": 13929, "NameZh": "Daai Village", "RouteId": 8026, "SeqNo": 17, "Terminal": 0, "DistrictId": 1, "Latitude": 22.967, "Longitude": 120.54338, "IVRNo": 9744, "EXTVoiceNo": 26078, "traveltime": 0, "holidayTraveltime": 0}, {"Id": "3311", "pgp": 0, "GoBack": 2, "SID": 15607, "NameZh": "Shanlin Farmers` Association", "RouteId": 8026, "SeqNo": 18, "Terminal": 0, "DistrictId": 1, "Latitude": 22.96433, "Longitude": 120.53207, "IVRNo": 10854, "EXTVoiceNo": 13311, "traveltime": 0, "holidayTraveltime": 0}, {"Id": "3313", "pgp": 0, "GoBack": 2, "SID": 15608, "NameZh": "Cihzihliao", "RouteId": 8026, "SeqNo": 19, "Terminal": 0, "DistrictId": 1, "Latitude": 22.96138, "Longitude": 120.52864, "IVRNo": 10874, "EXTVoiceNo": 13313, "traveltime": 0, "holidayTraveltime": 0}, {"Id": "1834", "pgp": 0, "GoBack": 2, "SID": 15609, "NameZh": "Cijia 2nd Rd.", "RouteId": 8026, "SeqNo": 20, "Terminal": 0, "DistrictId": 1, "Latitude": 22.96084, "Longitude": 120.51788, "IVRNo": 11834, "EXTVoiceNo": 11834, "traveltime": 0, "holidayTraveltime": 0}, {"Id": "0087", "pgp": 0, "GoBack": 2, "SID": 15610, "NameZh": "Dalin (Cijia Rd. Section 4)", "RouteId": 8026, "SeqNo": 21, "Terminal": 0, "DistrictId": 1, "Latitude": 22.959592, "Longitude": 120.515662, "IVRNo": 10169, "EXTVoiceNo": 20087, "traveltime": 0, "holidayTraveltime": 0}, {"Id": "3347", "pgp": 0, "GoBack": 2, "SID": 15611, "NameZh": "Pujianglin", "RouteId": 8026, "SeqNo": 22, "Terminal": 0, "DistrictId": 1, "Latitude": 22.9491, "Longitude": 120.51094, "IVRNo": 11222, "EXTVoiceNo": 13347, "traveltime": 0, "holidayTraveltime": 0}, {"Id": "0164", "pgp": 0, "GoBack": 2, "SID": 15612, "NameZh": "Jhongai", "RouteId": 8026, "SeqNo": 23, "Terminal": 0, "DistrictId": 1, "Latitude": 22.93937, "Longitude": 120.50656, "IVRNo": 10313, "EXTVoiceNo": 20164, "traveltime": 0, "holidayTraveltime": 0}, {"Id": "3381", "pgp": 0, "GoBack": 2, "SID": 15613, "NameZh": "Yuantan", "RouteId": 8026, "SeqNo": 24, "Terminal": 0, "DistrictId": 1, "Latitude": 22.93259, "Longitude": 120.50328, "IVRNo": 11580, "EXTVoiceNo": 13381, "traveltime": 0, "holidayTraveltime": 0}, {"Id": "0882", "pgp": 0, "GoBack": 2, "SID": 15614, "NameZh": "Yuantan Farm", "RouteId": 8026, "SeqNo": 25, "Terminal": 0, "DistrictId": 1, "Latitude": 22.92932, "Longitude": 120.50185, "IVRNo": 809, "EXTVoiceNo": 882, "traveltime": 0, "holidayTraveltime": 0}, {"Id": "1577", "pgp": 0, "GoBack": 2, "SID": 18283, "NameZh": "Yuanfu Junior High School", "RouteId": 8026, "SeqNo": 26, "Terminal": 0, "DistrictId": 1, "Latitude": 22.9281, "Longitude": 120.50101, "IVRNo": 9747, "EXTVoiceNo": 11577, "traveltime": 0, "holidayTraveltime": 0}, {"Id": "3382", "pgp": 0, "GoBack": 2, "SID": 15615, "NameZh": "Yuantan Farmers` Association", "RouteId": 8026, "SeqNo": 27, "Terminal": 0, "DistrictId": 1, "Latitude": 22.92696, "Longitude": 120.50008, "IVRNo": 13382, "EXTVoiceNo": 13382, "traveltime": 0, "holidayTraveltime": 0}, {"Id": "0056", "pgp": 0, "GoBack": 2, "SID": 15616, "NameZh": "Kouai", "RouteId": 8026, "SeqNo": 28, "Terminal": 0, "DistrictId": 1, "Latitude": 22.9219, "Longitude": 120.49682, "IVRNo": 10124, "EXTVoiceNo": 20056, "traveltime": 0, "holidayTraveltime": 0}, {"Id": "0057", "pgp": 0, "GoBack": 2, "SID": 15617, "NameZh": "Kouaijhuangnei", "RouteId": 8026, "SeqNo": 29, "Terminal": 0, "DistrictId": 1, "Latitude": 22.92032, "Longitude": 120.4962, "IVRNo": 10126, "EXTVoiceNo": 20057, "traveltime": 0, "holidayTraveltime": 0}, {"Id": "1575", "pgp": 0, "GoBack": 2, "SID": 15618, "NameZh": "Yuanfu Village", "RouteId": 8026, "SeqNo": 30, "Terminal": 0, "DistrictId": 1, "Latitude": 22.91674, "Longitude": 120.49473, "IVRNo": 11575, "EXTVoiceNo": 11575, "traveltime": 0, "holidayTraveltime": 0}, {"Id": "9372", "pgp": 0, "GoBack": 2, "SID": 2611, "NameZh": "Longshanlin Community", "RouteId": 8026, "SeqNo": 31, "Terminal": 0, "DistrictId": 1, "Latitude": 22.912333, "Longitude": 120.493057, "IVRNo": 9054, "EXTVoiceNo": 9372, "traveltime": 0, "holidayTraveltime": 0}, {"Id": "0200", "pgp": 0, "GoBack": 2, "SID": 15619, "NameZh": "Lioujhangli", "RouteId": 8026, "SeqNo": 32, "Terminal": 0, "DistrictId": 1, "Latitude": 22.90897, "Longitude": 120.49066, "IVRNo": 10391, "EXTVoiceNo": 20200, "traveltime": 0, "holidayTraveltime": 0}, {"Id": "3413", "pgp": 0, "GoBack": 2, "SID": 14125, "NameZh": "Ci Shan Agricultural and Industrial Senior High School", "RouteId": 8026, "SeqNo": 33, "Terminal": 0, "DistrictId": 1, "Latitude": 22.90193, "Longitude": 120.4833, "IVRNo": 1255, "EXTVoiceNo": 13413, "traveltime": 0, "holidayTraveltime": 0}, {"Id": "1828", "pgp": 0, "GoBack": 2, "SID": 15621, "NameZh": "Cishan North Station", "RouteId": 8026, "SeqNo": 34, "Terminal": 0, "DistrictId": 1, "Latitude": 22.896043, "Longitude": 120.483457, "IVRNo": 9142, "EXTVoiceNo": 11828, "traveltime": 0, "holidayTraveltime": 0}, {"Id": "1197", "pgp": 0, "GoBack": 2, "SID": 17471, "NameZh": "Jhonghua Rd. Intersection (Ci)", "RouteId": 8026, "SeqNo": 35, "Terminal": 0, "DistrictId": 1, "Latitude": 22.89268, "Longitude": 120.48355, "IVRNo": 1180, "EXTVoiceNo": 21197, "traveltime": 0, "holidayTraveltime": 0}, {"Id": "9374", "pgp": 0, "GoBack": 2, "SID": 2336, "NameZh": "Cishan Market", "RouteId": 8026, "SeqNo": 36, "Terminal": 0, "DistrictId": 1, "Latitude": 22.889889, "Longitude": 120.483465, "IVRNo": 9953, "EXTVoiceNo": 9374, "traveltime": 0, "holidayTraveltime": 0}, {"Id": "9718", "pgp": 0, "GoBack": 2, "SID": 15624, "NameZh": "Yanping Rd. (Cishan District Office)", "RouteId": 8026, "SeqNo": 37, "Terminal": 0, "DistrictId": 1, "Latitude": 22.88762, "Longitude": 120.48313, "IVRNo": 9718, "EXTVoiceNo": 9718, "traveltime": 0, "holidayTraveltime": 0}, {"Id": "2422", "pgp": 0, "GoBack": 2, "SID": 19209, "NameZh": "Cishan Hospital", "RouteId": 8026, "SeqNo": 38, "Terminal": 0, "DistrictId": 1, "Latitude": 22.881017, "Longitude": 120.482871, "IVRNo": 32422, "EXTVoiceNo": 32422, "traveltime": 0, "holidayTraveltime": 0}, {"Id": "3412", "pgp": 0, "GoBack": 2, "SID": 15625, "NameZh": "Cishan Bus Transfer Station", "RouteId": 8026, "SeqNo": 39, "Terminal": 1, "DistrictId": 1, "Latitude": 22.883651, "Longitude": 120.484555, "IVRNo": 9717, "EXTVoiceNo": 13412, "traveltime": 0, "holidayTraveltime": 0}], "zh": [{"Id": "3412", "pgp": 0, "GoBack": 1, "SID": 15560, "NameZh": "\u65d7\u5c71\u8f49\u904b\u7ad9", "RouteId": 8026, "SeqNo": 1, "Terminal": 0, "DistrictId": 1, "Latitude": 22.883651, "Longitude": 120.484555, "IVRNo": 9717, "EXTVoiceNo": 13412, "traveltime": 0, "holidayTraveltime": 0}, {"Id": "2422", "pgp": 0, "GoBack": 1, "SID": 19208, "NameZh": "\u65d7\u5c71\u91ab\u9662", "RouteId": 8026, "SeqNo": 2, "Terminal": 0, "DistrictId": 1, "Latitude": 22.881017, "Longitude": 120.482871, "IVRNo": 32422, "EXTVoiceNo": 32422, "traveltime": 0, "holidayTraveltime": 0}, {"Id": "9718", "pgp": 0, "GoBack": 1, "SID": 15561, "NameZh": "\u5ef6\u5e73\u8def(\u65d7\u5c71\u5340\u516c\u6240)", "RouteId": 8026, "SeqNo": 3, "Terminal": 0, "DistrictId": 1, "Latitude": 22.88761, "Longitude": 120.483247, "IVRNo": 9718, "EXTVoiceNo": 9718, "traveltime": 0, "holidayTraveltime": 0}, {"Id": "9374", "pgp": 0, "GoBack": 1, "SID": 2669, "NameZh": "\u65d7\u5c71\u5e02\u5834", "RouteId": 8026, "SeqNo": 4, "Terminal": 0, "DistrictId": 1, "Latitude": 22.8899, "Longitude": 120.48332, "IVRNo": 9953, "EXTVoiceNo": 9374, "traveltime": 0, "holidayTraveltime": 0}, {"Id": "1197", "pgp": 0, "GoBack": 1, "SID": 17276, "NameZh": "\u4e2d\u83ef\u8def\u53e3(\u65d7)", "RouteId": 8026, "SeqNo": 5, "Terminal": 0, "DistrictId": 1, "Latitude": 22.89278, "Longitude": 120.4833, "IVRNo": 1180, "EXTVoiceNo": 21197, "traveltime": 0, "holidayTraveltime": 0}, {"Id": "1828", "pgp": 0, "GoBack": 1, "SID": 15564, "NameZh": "\u65d7\u5c71\u5317\u7ad9", "RouteId": 8026, "SeqNo": 6, "Terminal": 0, "DistrictId": 1, "Latitude": 22.896043, "Longitude": 120.483457, "IVRNo": 9142, "EXTVoiceNo": 11828, "traveltime": 0, "holidayTraveltime": 0}, {"Id": "3413", "pgp": 0, "GoBack": 1, "SID": 14049, "NameZh": "\u65d7\u5c71\u8fb2\u5de5", "RouteId": 8026, "SeqNo": 7, "Terminal": 0, "DistrictId": 1, "Latitude": 22.90194, "Longitude": 120.483244, "IVRNo": 1255, "EXTVoiceNo": 13413, "traveltime": 0, "holidayTraveltime": 0}, {"Id": "0200", "pgp": 0, "GoBack": 1, "SID": 15566, "NameZh": "\u516d\u5f35\u7281", "RouteId": 8026, "SeqNo": 8, "Terminal": 0, "DistrictId": 1, "Latitude": 22.90867, "Longitude": 120.49043, "IVRNo": 10391, "EXTVoiceNo": 20200, "traveltime": 0, "holidayTraveltime": 0}, {"Id": "9372", "pgp": 0, "GoBack": 1, "SID": 2610, "NameZh": "\u9f8d\u5c71\u6797\u793e\u5340", "RouteId": 8026, "SeqNo": 9, "Terminal": 0, "DistrictId": 1, "Latitude": 22.912333, "Longitude": 120.493057, "IVRNo": 9054, "EXTVoiceNo": 9372, "traveltime": 0, "holidayTraveltime": 0}, {"Id": "1575", "pgp": 0, "GoBack": 1, "SID": 15567, "NameZh": "\u5713\u5bcc\u91cc", "RouteId": 8026, "SeqNo": 10, "Terminal": 0, "DistrictId": 1, "Latitude": 22.91598, "Longitude": 120.49455, "IVRNo": 11575, "EXTVoiceNo": 11575, "traveltime": 0, "holidayTraveltime": 0}, {"Id": "0057", "pgp": 0, "GoBack": 1, "SID": 15568, "NameZh": "\u53e3\u9698\u5e84\u5167", "RouteId": 8026, "SeqNo": 11, "Terminal": 0, "DistrictId": 1, "Latitude": 22.920286, "Longitude": 120.496293, "IVRNo": 10126, "EXTVoiceNo": 20057, "traveltime": 0, "holidayTraveltime": 0}, {"Id": "0056", "pgp": 0, "GoBack": 1, "SID": 15569, "NameZh": "\u53e3\u9698", "RouteId": 8026, "SeqNo": 12, "Terminal": 0, "DistrictId": 1, "Latitude": 22.92235, "Longitude": 120.49714, "IVRNo": 10124, "EXTVoiceNo": 20056, "traveltime": 0, "holidayTraveltime": 0}, {"Id": "3382", "pgp": 0, "GoBack": 1, "SID": 15570, "NameZh": "\u5713\u6f6d\u8fb2\u6703", "RouteId": 8026, "SeqNo": 13, "Terminal": 0, "DistrictId": 1, "Latitude": 22.92693, "Longitude": 120.50024, "IVRNo": 13382, "EXTVoiceNo": 13382, "traveltime": 0, "holidayTraveltime": 0}, {"Id": "1577", "pgp": 0, "GoBack": 1, "SID": 18372, "NameZh": "\u5713\u5bcc\u570b\u4e2d", "RouteId": 8026, "SeqNo": 14, "Terminal": 0, "DistrictId": 1, "Latitude": 22.92815, "Longitude": 120.50092, "IVRNo": 9747, "EXTVoiceNo": 11577, "traveltime": 0, "holidayTraveltime": 0}, {"Id": "0882", "pgp": 0, "GoBack": 1, "SID": 15571, "NameZh": "\u5713\u6f6d\u8fb2\u5834", "RouteId": 8026, "SeqNo": 15, "Terminal": 0, "DistrictId": 1, "Latitude": 22.92939, "Longitude": 120.50205, "IVRNo": 809, "EXTVoiceNo": 882, "traveltime": 0, "holidayTraveltime": 0}, {"Id": "3381", "pgp": 0, "GoBack": 1, "SID": 15572, "NameZh": "\u5713\u6f6d", "RouteId": 8026, "SeqNo": 16, "Terminal": 0, "DistrictId": 1, "Latitude": 22.93279, "Longitude": 120.50358, "IVRNo": 11580, "EXTVoiceNo": 13381, "traveltime": 0, "holidayTraveltime": 0}, {"Id": "0164", "pgp": 0, "GoBack": 1, "SID": 15573, "NameZh": "\u4e2d\u9698", "RouteId": 8026, "SeqNo": 17, "Terminal": 0, "DistrictId": 1, "Latitude": 22.93943, "Longitude": 120.50671, "IVRNo": 10313, "EXTVoiceNo": 20164, "traveltime": 0, "holidayTraveltime": 0}, {"Id": "3347", "pgp": 0, "GoBack": 1, "SID": 15574, "NameZh": "\u57d4\u59dc\u6797", "RouteId": 8026, "SeqNo": 18, "Terminal": 0, "DistrictId": 1, "Latitude": 22.94907, "Longitude": 120.51104, "IVRNo": 11222, "EXTVoiceNo": 13347, "traveltime": 0, "holidayTraveltime": 0}, {"Id": "0087", "pgp": 0, "GoBack": 1, "SID": 15575, "NameZh": "\u5927\u6797(\u65d7\u7532\u8def\u56db\u6bb5)", "RouteId": 8026, "SeqNo": 19, "Terminal": 0, "DistrictId": 1, "Latitude": 22.95954, "Longitude": 120.51578, "IVRNo": 10169, "EXTVoiceNo": 20087, "traveltime": 0, "holidayTraveltime": 0}, {"Id": "1834", "pgp": 0, "GoBack": 1, "SID": 15576, "NameZh": "\u65d7\u7532\u4e8c\u8def", "RouteId": 8026, "SeqNo": 20, "Terminal": 0, "DistrictId": 1, "Latitude": 22.96078, "Longitude": 120.51791, "IVRNo": 11834, "EXTVoiceNo": 11834, "traveltime": 0, "holidayTraveltime": 0}, {"Id": "3313", "pgp": 0, "GoBack": 1, "SID": 15577, "NameZh": "\u523a\u4ed4\u5bee", "RouteId": 8026, "SeqNo": 21, "Terminal": 0, "DistrictId": 1, "Latitude": 22.961253, "Longitude": 120.528647, "IVRNo": 10874, "EXTVoiceNo": 13313, "traveltime": 0, "holidayTraveltime": 0}, {"Id": "3311", "pgp": 0, "GoBack": 1, "SID": 15578, "NameZh": "\u6749\u6797\u8fb2\u6703", "RouteId": 8026, "SeqNo": 22, "Terminal": 0, "DistrictId": 1, "Latitude": 22.96433, "Longitude": 120.53214, "IVRNo": 10854, "EXTVoiceNo": 13311, "traveltime": 0, "holidayTraveltime": 0}, {"Id": "6078", "pgp": 0, "GoBack": 1, "SID": 13815, "NameZh": "\u5927\u611b\u6751", "RouteId": 8026, "SeqNo": 23, "Terminal": 0, "DistrictId": 1, "Latitude": 22.967, "Longitude": 120.54338, "IVRNo": 9744, "EXTVoiceNo": 26078, "traveltime": 0, "holidayTraveltime": 0}, {"Id": "0233", "pgp": 0, "GoBack": 1, "SID": 15579, "NameZh": "\u6708\u7709", "RouteId": 8026, "SeqNo": 24, "Terminal": 0, "DistrictId": 1, "Latitude": 22.96754, "Longitude": 120.5337, "IVRNo": 10461, "EXTVoiceNo": 20233, "traveltime": 0, "holidayTraveltime": 0}, {"Id": "4039", "pgp": 0, "GoBack": 1, "SID": 15580, "NameZh": "\u96fb\u529b\u516c\u53f8(\u6749\u6797)", "RouteId": 8026, "SeqNo": 25, "Terminal": 0, "DistrictId": 1, "Latitude": 22.96992, "Longitude": 120.536115, "IVRNo": 4039, "EXTVoiceNo": 4039, "traveltime": 0, "holidayTraveltime": 0}, {"Id": "3310", "pgp": 0, "GoBack": 1, "SID": 15581, "NameZh": "\u6749\u6797\u570b\u4e2d", "RouteId": 8026, "SeqNo": 26, "Terminal": 0, "DistrictId": 1, "Latitude": 22.97074, "Longitude": 120.53877, "IVRNo": 10852, "EXTVoiceNo": 13310, "traveltime": 0, "holidayTraveltime": 0}, {"Id": "3309", "pgp": 0, "GoBack": 1, "SID": 15583, "NameZh": "\u6749\u6797\u5340\u516c\u6240(\u885b\u751f\u6240)", "RouteId": 8026, "SeqNo": 27, "Terminal": 0, "DistrictId": 1, "Latitude": 22.97191, "Longitude": 120.53996, "IVRNo": 13309, "EXTVoiceNo": 13309, "traveltime": 0, "holidayTraveltime": 0}, {"Id": "6099", "pgp": 0, "GoBack": 1, "SID": 12607, "NameZh": "\u6749\u6797\u5206\u99d0\u6240", "RouteId": 8026, "SeqNo": 28, "Terminal": 0, "DistrictId": 1, "Latitude": 22.974386, "Longitude": 120.541646, "IVRNo": 13308, "EXTVoiceNo": 26099, "traveltime": 0, "holidayTraveltime": 0}, {"Id": "6073", "pgp": 0, "GoBack": 1, "SID": 14026, "NameZh": "\u4e0a\u5e73\u91cc", "RouteId": 8026, "SeqNo": 29, "Terminal": 0, "DistrictId": 1, "Latitude": 22.976241, "Longitude": 120.542885, "IVRNo": 9818, "EXTVoiceNo": 26073, "traveltime": 0, "holidayTraveltime": 0}, {"Id": "3332", "pgp": 0, "GoBack": 1, "SID": 15586, "NameZh": "\u5357\u6cb3", "RouteId": 8026, "SeqNo": 30, "Terminal": 0, "DistrictId": 1, "Latitude": 22.97769, "Longitude": 120.54453, "IVRNo": 11074, "EXTVoiceNo": 13332, "traveltime": 0, "holidayTraveltime": 0}, {"Id": "1246", "pgp": 0, "GoBack": 1, "SID": 15938, "NameZh": "\u6e56\u5e95\u6a4b(\u6749\u6797)", "RouteId": 8026, "SeqNo": 31, "Terminal": 0, "DistrictId": 1, "Latitude": 22.98129, "Longitude": 120.55347, "IVRNo": 1246, "EXTVoiceNo": 1246, "traveltime": 0, "holidayTraveltime": 0}, {"Id": "3406", "pgp": 0, "GoBack": 1, "SID": 15939, "NameZh": "\u9698\u4e01\u5bee", "RouteId": 8026, "SeqNo": 32, "Terminal": 0, "DistrictId": 1, "Latitude": 22.98286, "Longitude": 120.55574, "IVRNo": 1253, "EXTVoiceNo": 13406, "traveltime": 0, "holidayTraveltime": 0}, {"Id": "0435", "pgp": 0, "GoBack": 1, "SID": 15587, "NameZh": "\u6749\u6797\u91cc", "RouteId": 8026, "SeqNo": 33, "Terminal": 0, "DistrictId": 1, "Latitude": 22.998667, "Longitude": 120.549881, "IVRNo": 1256, "EXTVoiceNo": 435, "traveltime": 0, "holidayTraveltime": 0}, {"Id": "0850", "pgp": 0, "GoBack": 1, "SID": 15588, "NameZh": "\u6749\u6797\u89d2", "RouteId": 8026, "SeqNo": 34, "Terminal": 0, "DistrictId": 1, "Latitude": 22.999043, "Longitude": 120.557845, "IVRNo": 10850, "EXTVoiceNo": 10850, "traveltime": 0, "holidayTraveltime": 0}, {"Id": "1224", "pgp": 0, "GoBack": 1, "SID": 15589, "NameZh": "\u5167\u7063", "RouteId": 8026, "SeqNo": 35, "Terminal": 0, "DistrictId": 1, "Latitude": 23.0068, "Longitude": 120.56979, "IVRNo": 10389, "EXTVoiceNo": 21224, "traveltime": 0, "holidayTraveltime": 0}, {"Id": "0885", "pgp": 0, "GoBack": 1, "SID": 15590, "NameZh": "\u767d\u6c34\u6cc9", "RouteId": 8026, "SeqNo": 36, "Terminal": 0, "DistrictId": 1, "Latitude": 23.01704, "Longitude": 120.5547, "IVRNo": 885, "EXTVoiceNo": 885, "traveltime": 0, "holidayTraveltime": 0}, {"Id": "0467", "pgp": 0, "GoBack": 1, "SID": 15591, "NameZh": "\u6728\u6893\u570b\u5c0f", "RouteId": 8026, "SeqNo": 37, "Terminal": 0, "DistrictId": 1, "Latitude": 23.01948, "Longitude": 120.54632, "IVRNo": 10467, "EXTVoiceNo": 10467, "traveltime": 0, "holidayTraveltime": 0}, {"Id": "0465", "pgp": 0, "GoBack": 1, "SID": 15592, "NameZh": "\u6728\u6893", "RouteId": 8026, "SeqNo": 38, "Terminal": 0, "DistrictId": 1, "Latitude": 23.02108, "Longitude": 120.54394, "IVRNo": 10465, "EXTVoiceNo": 10465, "traveltime": 0, "holidayTraveltime": 0}, {"Id": "2421", "pgp": 0, "GoBack": 1, "SID": 19206, "NameZh": "\u7384\u9f8d\u5bae", "RouteId": 8026, "SeqNo": 39, "Terminal": 1, "DistrictId": 1, "Latitude": 23.033599, "Longitude": 120.537395, "IVRNo": 32421, "EXTVoiceNo": 32421, "traveltime": 0, "holidayTraveltime": 0}, {"Id": "2421", "pgp": 0, "GoBack": 2, "SID": 19207, "NameZh": "\u7384\u9f8d\u5bae", "RouteId": 8026, "SeqNo": 1, "Terminal": 0, "DistrictId": 1, "Latitude": 23.033474, "Longitude": 120.53742, "IVRNo": 32421, "EXTVoiceNo": 32421, "traveltime": 0, "holidayTraveltime": 0}, {"Id": "0465", "pgp": 0, "GoBack": 2, "SID": 15593, "NameZh": "\u6728\u6893", "RouteId": 8026, "SeqNo": 2, "Terminal": 0, "DistrictId": 1, "Latitude": 23.02112, "Longitude": 120.54388, "IVRNo": 10465, "EXTVoiceNo": 10465, "traveltime": 0, "holidayTraveltime": 0}, {"Id": "0467", "pgp": 0, "GoBack": 2, "SID": 15594, "NameZh": "\u6728\u6893\u570b\u5c0f", "RouteId": 8026, "SeqNo": 3, "Terminal": 0, "DistrictId": 1, "Latitude": 23.019387, "Longitude": 120.546285, "IVRNo": 10467, "EXTVoiceNo": 10467, "traveltime": 0, "holidayTraveltime": 0}, {"Id": "0885", "pgp": 0, "GoBack": 2, "SID": 15595, "NameZh": "\u767d\u6c34\u6cc9", "RouteId": 8026, "SeqNo": 4, "Terminal": 0, "DistrictId": 1, "Latitude": 23.01702, "Longitude": 120.55464, "IVRNo": 885, "EXTVoiceNo": 885, "traveltime": 0, "holidayTraveltime": 0}, {"Id": "1224", "pgp": 0, "GoBack": 2, "SID": 15596, "NameZh": "\u5167\u7063", "RouteId": 8026, "SeqNo": 5, "Terminal": 0, "DistrictId": 1, "Latitude": 23.00674, "Longitude": 120.5697, "IVRNo": 10389, "EXTVoiceNo": 21224, "traveltime": 0, "holidayTraveltime": 0}, {"Id": "0850", "pgp": 0, "GoBack": 2, "SID": 15597, "NameZh": "\u6749\u6797\u89d2", "RouteId": 8026, "SeqNo": 6, "Terminal": 0, "DistrictId": 1, "Latitude": 22.99916, "Longitude": 120.55784, "IVRNo": 10850, "EXTVoiceNo": 10850, "traveltime": 0, "holidayTraveltime": 0}, {"Id": "0435", "pgp": 0, "GoBack": 2, "SID": 15598, "NameZh": "\u6749\u6797\u91cc", "RouteId": 8026, "SeqNo": 7, "Terminal": 0, "DistrictId": 1, "Latitude": 22.99879, "Longitude": 120.54987, "IVRNo": 1256, "EXTVoiceNo": 435, "traveltime": 0, "holidayTraveltime": 0}, {"Id": "3406", "pgp": 0, "GoBack": 2, "SID": 13808, "NameZh": "\u9698\u4e01\u5bee", "RouteId": 8026, "SeqNo": 8, "Terminal": 0, "DistrictId": 1, "Latitude": 22.983012, "Longitude": 120.555847, "IVRNo": 1253, "EXTVoiceNo": 13406, "traveltime": 0, "holidayTraveltime": 0}, {"Id": "1246", "pgp": 0, "GoBack": 2, "SID": 16055, "NameZh": "\u6e56\u5e95\u6a4b(\u6749\u6797)", "RouteId": 8026, "SeqNo": 9, "Terminal": 0, "DistrictId": 1, "Latitude": 22.98144, "Longitude": 120.55344, "IVRNo": 1246, "EXTVoiceNo": 1246, "traveltime": 0, "holidayTraveltime": 0}, {"Id": "3332", "pgp": 0, "GoBack": 2, "SID": 15599, "NameZh": "\u5357\u6cb3", "RouteId": 8026, "SeqNo": 10, "Terminal": 0, "DistrictId": 1, "Latitude": 22.97786, "Longitude": 120.54456, "IVRNo": 11074, "EXTVoiceNo": 13332, "traveltime": 0, "holidayTraveltime": 0}, {"Id": "6073", "pgp": 0, "GoBack": 2, "SID": 13933, "NameZh": "\u4e0a\u5e73\u91cc", "RouteId": 8026, "SeqNo": 11, "Terminal": 0, "DistrictId": 1, "Latitude": 22.97615, "Longitude": 120.54286, "IVRNo": 9818, "EXTVoiceNo": 26073, "traveltime": 0, "holidayTraveltime": 0}, {"Id": "6099", "pgp": 0, "GoBack": 2, "SID": 12618, "NameZh": "\u6749\u6797\u5206\u99d0\u6240", "RouteId": 8026, "SeqNo": 12, "Terminal": 0, "DistrictId": 1, "Latitude": 22.97454, "Longitude": 120.541725, "IVRNo": 13308, "EXTVoiceNo": 26099, "traveltime": 0, "holidayTraveltime": 0}, {"Id": "3309", "pgp": 0, "GoBack": 2, "SID": 15602, "NameZh": "\u6749\u6797\u5340\u516c\u6240(\u885b\u751f\u6240)", "RouteId": 8026, "SeqNo": 13, "Terminal": 0, "DistrictId": 1, "Latitude": 22.9721, "Longitude": 120.53993, "IVRNo": 13309, "EXTVoiceNo": 13309, "traveltime": 0, "holidayTraveltime": 0}, {"Id": "3310", "pgp": 0, "GoBack": 2, "SID": 15604, "NameZh": "\u6749\u6797\u570b\u4e2d", "RouteId": 8026, "SeqNo": 14, "Terminal": 0, "DistrictId": 1, "Latitude": 22.97079, "Longitude": 120.53863, "IVRNo": 10852, "EXTVoiceNo": 13310, "traveltime": 0, "holidayTraveltime": 0}, {"Id": "4039", "pgp": 0, "GoBack": 2, "SID": 15605, "NameZh": "\u96fb\u529b\u516c\u53f8(\u6749\u6797)", "RouteId": 8026, "SeqNo": 15, "Terminal": 0, "DistrictId": 1, "Latitude": 22.97001, "Longitude": 120.53609, "IVRNo": 4039, "EXTVoiceNo": 4039, "traveltime": 0, "holidayTraveltime": 0}, {"Id": "0233", "pgp": 0, "GoBack": 2, "SID": 15606, "NameZh": "\u6708\u7709", "RouteId": 8026, "SeqNo": 16, "Terminal": 0, "DistrictId": 1, "Latitude": 22.96748, "Longitude": 120.53365, "IVRNo": 10461, "EXTVoiceNo": 20233, "traveltime": 0, "holidayTraveltime": 0}, {"Id": "6078", "pgp": 0, "GoBack": 2, "SID": 13929, "NameZh": "\u5927\u611b\u6751", "RouteId": 8026, "SeqNo": 17, "Terminal": 0, "DistrictId": 1, "Latitude": 22.967, "Longitude": 120.54338, "IVRNo": 9744, "EXTVoiceNo": 26078, "traveltime": 0, "holidayTraveltime": 0}, {"Id": "3311", "pgp": 0, "GoBack": 2, "SID": 15607, "NameZh": "\u6749\u6797\u8fb2\u6703", "RouteId": 8026, "SeqNo": 18, "Terminal": 0, "DistrictId": 1, "Latitude": 22.96433, "Longitude": 120.53207, "IVRNo": 10854, "EXTVoiceNo": 13311, "traveltime": 0, "holidayTraveltime": 0}, {"Id": "3313", "pgp": 0, "GoBack": 2, "SID": 15608, "NameZh": "\u523a\u4ed4\u5bee", "RouteId": 8026, "SeqNo": 19, "Terminal": 0, "DistrictId": 1, "Latitude": 22.96138, "Longitude": 120.52864, "IVRNo": 10874, "EXTVoiceNo": 13313, "traveltime": 0, "holidayTraveltime": 0}, {"Id": "1834", "pgp": 0, "GoBack": 2, "SID": 15609, "NameZh": "\u65d7\u7532\u4e8c\u8def", "RouteId": 8026, "SeqNo": 20, "Terminal": 0, "DistrictId": 1, "Latitude": 22.96084, "Longitude": 120.51788, "IVRNo": 11834, "EXTVoiceNo": 11834, "traveltime": 0, "holidayTraveltime": 0}, {"Id": "0087", "pgp": 0, "GoBack": 2, "SID": 15610, "NameZh": "\u5927\u6797(\u65d7\u7532\u8def\u56db\u6bb5)", "RouteId": 8026, "SeqNo": 21, "Terminal": 0, "DistrictId": 1, "Latitude": 22.959592, "Longitude": 120.515662, "IVRNo": 10169, "EXTVoiceNo": 20087, "traveltime": 0, "holidayTraveltime": 0}, {"Id": "3347", "pgp": 0, "GoBack": 2, "SID": 15611, "NameZh": "\u57d4\u59dc\u6797", "RouteId": 8026, "SeqNo": 22, "Terminal": 0, "DistrictId": 1, "Latitude": 22.9491, "Longitude": 120.51094, "IVRNo": 11222, "EXTVoiceNo": 13347, "traveltime": 0, "holidayTraveltime": 0}, {"Id": "0164", "pgp": 0, "GoBack": 2, "SID": 15612, "NameZh": "\u4e2d\u9698", "RouteId": 8026, "SeqNo": 23, "Terminal": 0, "DistrictId": 1, "Latitude": 22.93937, "Longitude": 120.50656, "IVRNo": 10313, "EXTVoiceNo": 20164, "traveltime": 0, "holidayTraveltime": 0}, {"Id": "3381", "pgp": 0, "GoBack": 2, "SID": 15613, "NameZh": "\u5713\u6f6d", "RouteId": 8026, "SeqNo": 24, "Terminal": 0, "DistrictId": 1, "Latitude": 22.93259, "Longitude": 120.50328, "IVRNo": 11580, "EXTVoiceNo": 13381, "traveltime": 0, "holidayTraveltime": 0}, {"Id": "0882", "pgp": 0, "GoBack": 2, "SID": 15614, "NameZh": "\u5713\u6f6d\u8fb2\u5834", "RouteId": 8026, "SeqNo": 25, "Terminal": 0, "DistrictId": 1, "Latitude": 22.92932, "Longitude": 120.50185, "IVRNo": 809, "EXTVoiceNo": 882, "traveltime": 0, "holidayTraveltime": 0}, {"Id": "1577", "pgp": 0, "GoBack": 2, "SID": 18283, "NameZh": "\u5713\u5bcc\u570b\u4e2d", "RouteId": 8026, "SeqNo": 26, "Terminal": 0, "DistrictId": 1, "Latitude": 22.9281, "Longitude": 120.50101, "IVRNo": 9747, "EXTVoiceNo": 11577, "traveltime": 0, "holidayTraveltime": 0}, {"Id": "3382", "pgp": 0, "GoBack": 2, "SID": 15615, "NameZh": "\u5713\u6f6d\u8fb2\u6703", "RouteId": 8026, "SeqNo": 27, "Terminal": 0, "DistrictId": 1, "Latitude": 22.92696, "Longitude": 120.50008, "IVRNo": 13382, "EXTVoiceNo": 13382, "traveltime": 0, "holidayTraveltime": 0}, {"Id": "0056", "pgp": 0, "GoBack": 2, "SID": 15616, "NameZh": "\u53e3\u9698", "RouteId": 8026, "SeqNo": 28, "Terminal": 0, "DistrictId": 1, "Latitude": 22.9219, "Longitude": 120.49682, "IVRNo": 10124, "EXTVoiceNo": 20056, "traveltime": 0, "holidayTraveltime": 0}, {"Id": "0057", "pgp": 0, "GoBack": 2, "SID": 15617, "NameZh": "\u53e3\u9698\u5e84\u5167", "RouteId": 8026, "SeqNo": 29, "Terminal": 0, "DistrictId": 1, "Latitude": 22.92032, "Longitude": 120.4962, "IVRNo": 10126, "EXTVoiceNo": 20057, "traveltime": 0, "holidayTraveltime": 0}, {"Id": "1575", "pgp": 0, "GoBack": 2, "SID": 15618, "NameZh": "\u5713\u5bcc\u91cc", "RouteId": 8026, "SeqNo": 30, "Terminal": 0, "DistrictId": 1, "Latitude": 22.91674, "Longitude": 120.49473, "IVRNo": 11575, "EXTVoiceNo": 11575, "traveltime": 0, "holidayTraveltime": 0}, {"Id": "9372", "pgp": 0, "GoBack": 2, "SID": 2611, "NameZh": "\u9f8d\u5c71\u6797\u793e\u5340", "RouteId": 8026, "SeqNo": 31, "Terminal": 0, "DistrictId": 1, "Latitude": 22.912333, "Longitude": 120.493057, "IVRNo": 9054, "EXTVoiceNo": 9372, "traveltime": 0, "holidayTraveltime": 0}, {"Id": "0200", "pgp": 0, "GoBack": 2, "SID": 15619, "NameZh": "\u516d\u5f35\u7281", "RouteId": 8026, "SeqNo": 32, "Terminal": 0, "DistrictId": 1, "Latitude": 22.90897, "Longitude": 120.49066, "IVRNo": 10391, "EXTVoiceNo": 20200, "traveltime": 0, "holidayTraveltime": 0}, {"Id": "3413", "pgp": 0, "GoBack": 2, "SID": 14125, "NameZh": "\u65d7\u5c71\u8fb2\u5de5", "RouteId": 8026, "SeqNo": 33, "Terminal": 0, "DistrictId": 1, "Latitude": 22.90193, "Longitude": 120.4833, "IVRNo": 1255, "EXTVoiceNo": 13413, "traveltime": 0, "holidayTraveltime": 0}, {"Id": "1828", "pgp": 0, "GoBack": 2, "SID": 15621, "NameZh": "\u65d7\u5c71\u5317\u7ad9", "RouteId": 8026, "SeqNo": 34, "Terminal": 0, "DistrictId": 1, "Latitude": 22.896043, "Longitude": 120.483457, "IVRNo": 9142, "EXTVoiceNo": 11828, "traveltime": 0, "holidayTraveltime": 0}, {"Id": "1197", "pgp": 0, "GoBack": 2, "SID": 17471, "NameZh": "\u4e2d\u83ef\u8def\u53e3(\u65d7)", "RouteId": 8026, "SeqNo": 35, "Terminal": 0, "DistrictId": 1, "Latitude": 22.89268, "Longitude": 120.48355, "IVRNo": 1180, "EXTVoiceNo": 21197, "traveltime": 0, "holidayTraveltime": 0}, {"Id": "9374", "pgp": 0, "GoBack": 2, "SID": 2336, "NameZh": "\u65d7\u5c71\u5e02\u5834", "RouteId": 8026, "SeqNo": 36, "Terminal": 0, "DistrictId": 1, "Latitude": 22.889889, "Longitude": 120.483465, "IVRNo": 9953, "EXTVoiceNo": 9374, "traveltime": 0, "holidayTraveltime": 0}, {"Id": "9718", "pgp": 0, "GoBack": 2, "SID": 15624, "NameZh": "\u5ef6\u5e73\u8def(\u65d7\u5c71\u5340\u516c\u6240)", "RouteId": 8026, "SeqNo": 37, "Terminal": 0, "DistrictId": 1, "Latitude": 22.88762, "Longitude": 120.48313, "IVRNo": 9718, "EXTVoiceNo": 9718, "traveltime": 0, "holidayTraveltime": 0}, {"Id": "2422", "pgp": 0, "GoBack": 2, "SID": 19209, "NameZh": "\u65d7\u5c71\u91ab\u9662", "RouteId": 8026, "SeqNo": 38, "Terminal": 0, "DistrictId": 1, "Latitude": 22.881017, "Longitude": 120.482871, "IVRNo": 32422, "EXTVoiceNo": 32422, "traveltime": 0, "holidayTraveltime": 0}, {"Id": "3412", "pgp": 0, "GoBack": 2, "SID": 15625, "NameZh": "\u65d7\u5c71\u8f49\u904b\u7ad9", "RouteId": 8026, "SeqNo": 39, "Terminal": 1, "DistrictId": 1, "Latitude": 22.883651, "Longitude": 120.484555, "IVRNo": 9717, "EXTVoiceNo": 13412, "traveltime": 0, "holidayTraveltime": 0}]}