{"en": [{"Id": "0345", "pgp": 0, "GoBack": 1, "SID": 18091, "NameZh": "Jiasian Station", "RouteId": 8032, "SeqNo": 1, "Terminal": 0, "DistrictId": 1, "Latitude": 23.08259, "Longitude": 120.58777, "IVRNo": 10704, "EXTVoiceNo": 20345, "traveltime": 0, "holidayTraveltime": 0}, {"Id": "0346", "pgp": 0, "GoBack": 1, "SID": 18092, "NameZh": "Jiasian Bridge", "RouteId": 8032, "SeqNo": 2, "Terminal": 0, "DistrictId": 1, "Latitude": 23.0799, "Longitude": 120.58358, "IVRNo": 10705, "EXTVoiceNo": 20346, "traveltime": 0, "holidayTraveltime": 0}, {"Id": "0376", "pgp": 0, "GoBack": 1, "SID": 18093, "NameZh": "Gongguan (Jiasian)", "RouteId": 8032, "SeqNo": 3, "Terminal": 0, "DistrictId": 1, "Latitude": 23.07677, "Longitude": 120.58215, "IVRNo": 456, "EXTVoiceNo": 376, "traveltime": 0, "holidayTraveltime": 0}, {"Id": "9371", "pgp": 0, "GoBack": 1, "SID": 2615, "NameZh": "Conservation Center", "RouteId": 8032, "SeqNo": 4, "Terminal": 0, "DistrictId": 1, "Latitude": 23.074575, "Longitude": 120.581174, "IVRNo": 9056, "EXTVoiceNo": 9371, "traveltime": 0, "holidayTraveltime": 0}, {"Id": "3393", "pgp": 0, "GoBack": 1, "SID": 18094, "NameZh": "Sinrong Lane", "RouteId": 8032, "SeqNo": 5, "Terminal": 0, "DistrictId": 1, "Latitude": 23.07029, "Longitude": 120.5785, "IVRNo": 11662, "EXTVoiceNo": 13393, "traveltime": 0, "holidayTraveltime": 0}, {"Id": "0891", "pgp": 0, "GoBack": 1, "SID": 18095, "NameZh": "Tiancuo (Near Jiasian)", "RouteId": 8032, "SeqNo": 6, "Terminal": 0, "DistrictId": 1, "Latitude": 23.06387, "Longitude": 120.57262, "IVRNo": 817, "EXTVoiceNo": 891, "traveltime": 0, "holidayTraveltime": 0}, {"Id": "0069", "pgp": 0, "GoBack": 1, "SID": 18096, "NameZh": "Daciouyuan", "RouteId": 8032, "SeqNo": 7, "Terminal": 0, "DistrictId": 1, "Latitude": 23.05959, "Longitude": 120.56629, "IVRNo": 10143, "EXTVoiceNo": 20069, "traveltime": 0, "holidayTraveltime": 0}, {"Id": "0256", "pgp": 0, "GoBack": 1, "SID": 18097, "NameZh": "Sianlin Lane", "RouteId": 8032, "SeqNo": 8, "Terminal": 0, "DistrictId": 1, "Latitude": 23.05776, "Longitude": 120.56086, "IVRNo": 10511, "EXTVoiceNo": 20256, "traveltime": 0, "holidayTraveltime": 0}, {"Id": "3443", "pgp": 0, "GoBack": 1, "SID": 18098, "NameZh": "Baolong", "RouteId": 8032, "SeqNo": 9, "Terminal": 0, "DistrictId": 1, "Latitude": 23.05069, "Longitude": 120.5573, "IVRNo": 12083, "EXTVoiceNo": 13443, "traveltime": 0, "holidayTraveltime": 0}, {"Id": "3362", "pgp": 0, "GoBack": 1, "SID": 18099, "NameZh": "Paozihliao", "RouteId": 8032, "SeqNo": 10, "Terminal": 0, "DistrictId": 1, "Latitude": 23.04842, "Longitude": 120.5544, "IVRNo": 13362, "EXTVoiceNo": 13362, "traveltime": 0, "holidayTraveltime": 0}, {"Id": "0890", "pgp": 0, "GoBack": 1, "SID": 18100, "NameZh": "Chishan Water Plant", "RouteId": 8032, "SeqNo": 11, "Terminal": 0, "DistrictId": 1, "Latitude": 23.04279, "Longitude": 120.55004, "IVRNo": 815, "EXTVoiceNo": 890, "traveltime": 0, "holidayTraveltime": 0}, {"Id": "0020", "pgp": 0, "GoBack": 1, "SID": 18101, "NameZh": "Bajhang Li", "RouteId": 8032, "SeqNo": 12, "Terminal": 0, "DistrictId": 1, "Latitude": 23.03835, "Longitude": 120.55233, "IVRNo": 10041, "EXTVoiceNo": 20020, "traveltime": 0, "holidayTraveltime": 0}, {"Id": "0898", "pgp": 0, "GoBack": 1, "SID": 18102, "NameZh": "Guanpu", "RouteId": 8032, "SeqNo": 13, "Terminal": 0, "DistrictId": 1, "Latitude": 23.03237, "Longitude": 120.56197, "IVRNo": 10898, "EXTVoiceNo": 10898, "traveltime": 0, "holidayTraveltime": 0}, {"Id": "3366", "pgp": 0, "GoBack": 1, "SID": 18103, "NameZh": "Dingpu", "RouteId": 8032, "SeqNo": 14, "Terminal": 0, "DistrictId": 1, "Latitude": 23.02818, "Longitude": 120.56276, "IVRNo": 11449, "EXTVoiceNo": 13366, "traveltime": 0, "holidayTraveltime": 0}, {"Id": "3389", "pgp": 0, "GoBack": 1, "SID": 18104, "NameZh": "Sindingpu", "RouteId": 8032, "SeqNo": 15, "Terminal": 0, "DistrictId": 1, "Latitude": 23.02341, "Longitude": 120.56203, "IVRNo": 11646, "EXTVoiceNo": 13389, "traveltime": 0, "holidayTraveltime": 0}, {"Id": "0026", "pgp": 0, "GoBack": 1, "SID": 18105, "NameZh": "Shihjhangli", "RouteId": 8032, "SeqNo": 16, "Terminal": 0, "DistrictId": 1, "Latitude": 23.02231, "Longitude": 120.5631, "IVRNo": 10062, "EXTVoiceNo": 20026, "traveltime": 0, "holidayTraveltime": 0}, {"Id": "0039", "pgp": 0, "GoBack": 1, "SID": 18106, "NameZh": "Siashihjhangli", "RouteId": 8032, "SeqNo": 17, "Terminal": 0, "DistrictId": 1, "Latitude": 23.01974, "Longitude": 120.56764, "IVRNo": 10088, "EXTVoiceNo": 20039, "traveltime": 0, "holidayTraveltime": 0}, {"Id": "0246", "pgp": 0, "GoBack": 1, "SID": 18107, "NameZh": "Crater", "RouteId": 8032, "SeqNo": 18, "Terminal": 0, "DistrictId": 1, "Latitude": 23.01801, "Longitude": 120.5721, "IVRNo": 10493, "EXTVoiceNo": 20246, "traveltime": 0, "holidayTraveltime": 0}, {"Id": "0245", "pgp": 0, "GoBack": 1, "SID": 18108, "NameZh": "Volcano", "RouteId": 8032, "SeqNo": 19, "Terminal": 0, "DistrictId": 1, "Latitude": 23.01026, "Longitude": 120.57812, "IVRNo": 10491, "EXTVoiceNo": 20245, "traveltime": 0, "holidayTraveltime": 0}, {"Id": "0889", "pgp": 0, "GoBack": 1, "SID": 18109, "NameZh": "Cishan Sincuo", "RouteId": 8032, "SeqNo": 20, "Terminal": 0, "DistrictId": 1, "Latitude": 23.0037, "Longitude": 120.57538, "IVRNo": 889, "EXTVoiceNo": 889, "traveltime": 0, "holidayTraveltime": 0}, {"Id": "0124", "pgp": 0, "GoBack": 1, "SID": 18110, "NameZh": "Siaofenwei", "RouteId": 8032, "SeqNo": 21, "Terminal": 0, "DistrictId": 1, "Latitude": 22.99923, "Longitude": 120.57324, "IVRNo": 10241, "EXTVoiceNo": 20124, "traveltime": 0, "holidayTraveltime": 0}, {"Id": "0132", "pgp": 0, "GoBack": 1, "SID": 18111, "NameZh": "Shanwei", "RouteId": 8032, "SeqNo": 22, "Terminal": 0, "DistrictId": 1, "Latitude": 22.99731, "Longitude": 120.57136, "IVRNo": 10251, "EXTVoiceNo": 20132, "traveltime": 0, "holidayTraveltime": 0}, {"Id": "1266", "pgp": 0, "GoBack": 1, "SID": 18112, "NameZh": "Chating", "RouteId": 8032, "SeqNo": 23, "Terminal": 0, "DistrictId": 1, "Latitude": 22.99359, "Longitude": 120.56879, "IVRNo": 11266, "EXTVoiceNo": 11266, "traveltime": 0, "holidayTraveltime": 0}, {"Id": "0888", "pgp": 0, "GoBack": 1, "SID": 18113, "NameZh": "Cishan Sinjhuang", "RouteId": 8032, "SeqNo": 24, "Terminal": 0, "DistrictId": 1, "Latitude": 22.989697, "Longitude": 120.566095, "IVRNo": 813, "EXTVoiceNo": 888, "traveltime": 0, "holidayTraveltime": 0}, {"Id": "1075", "pgp": 0, "GoBack": 1, "SID": 18114, "NameZh": "Jhong St.", "RouteId": 8032, "SeqNo": 25, "Terminal": 0, "DistrictId": 1, "Latitude": 22.98858, "Longitude": 120.56488, "IVRNo": 10311, "EXTVoiceNo": 21075, "traveltime": 0, "holidayTraveltime": 0}, {"Id": "1252", "pgp": 0, "GoBack": 1, "SID": 18115, "NameZh": "Yirong", "RouteId": 8032, "SeqNo": 26, "Terminal": 0, "DistrictId": 1, "Latitude": 22.98792, "Longitude": 120.56354, "IVRNo": 11252, "EXTVoiceNo": 11252, "traveltime": 0, "holidayTraveltime": 0}, {"Id": "3385", "pgp": 0, "GoBack": 1, "SID": 18116, "NameZh": "Sinjhuang Elementary School", "RouteId": 8032, "SeqNo": 27, "Terminal": 0, "DistrictId": 1, "Latitude": 22.98727, "Longitude": 120.56174, "IVRNo": 11624, "EXTVoiceNo": 13385, "traveltime": 0, "holidayTraveltime": 0}, {"Id": "3392", "pgp": 0, "GoBack": 1, "SID": 18117, "NameZh": "Sinaidingliao", "RouteId": 8032, "SeqNo": 28, "Terminal": 0, "DistrictId": 1, "Latitude": 22.98431, "Longitude": 120.55706, "IVRNo": 11660, "EXTVoiceNo": 13392, "traveltime": 0, "holidayTraveltime": 0}, {"Id": "3406", "pgp": 0, "GoBack": 1, "SID": 18118, "NameZh": "Edingliao", "RouteId": 8032, "SeqNo": 29, "Terminal": 0, "DistrictId": 1, "Latitude": 22.983034, "Longitude": 120.555779, "IVRNo": 1253, "EXTVoiceNo": 13406, "traveltime": 0, "holidayTraveltime": 0}, {"Id": "1246", "pgp": 0, "GoBack": 1, "SID": 18119, "NameZh": "Hudi Bridge (Shanlin)", "RouteId": 8032, "SeqNo": 30, "Terminal": 0, "DistrictId": 1, "Latitude": 22.98144, "Longitude": 120.55344, "IVRNo": 1246, "EXTVoiceNo": 1246, "traveltime": 0, "holidayTraveltime": 0}, {"Id": "3332", "pgp": 0, "GoBack": 1, "SID": 18120, "NameZh": "Nanhe", "RouteId": 8032, "SeqNo": 31, "Terminal": 0, "DistrictId": 1, "Latitude": 22.97786, "Longitude": 120.54456, "IVRNo": 11074, "EXTVoiceNo": 13332, "traveltime": 0, "holidayTraveltime": 0}, {"Id": "6073", "pgp": 0, "GoBack": 1, "SID": 13933, "NameZh": "Shangping Village", "RouteId": 8032, "SeqNo": 32, "Terminal": 0, "DistrictId": 1, "Latitude": 22.97615, "Longitude": 120.54286, "IVRNo": 9818, "EXTVoiceNo": 26073, "traveltime": 0, "holidayTraveltime": 0}, {"Id": "6099", "pgp": 0, "GoBack": 1, "SID": 12618, "NameZh": "Shanlin Police Station", "RouteId": 8032, "SeqNo": 33, "Terminal": 0, "DistrictId": 1, "Latitude": 22.97454, "Longitude": 120.541725, "IVRNo": 13308, "EXTVoiceNo": 26099, "traveltime": 0, "holidayTraveltime": 0}, {"Id": "3309", "pgp": 0, "GoBack": 1, "SID": 15602, "NameZh": "Shanlin District Office (Health Center)", "RouteId": 8032, "SeqNo": 34, "Terminal": 0, "DistrictId": 1, "Latitude": 22.9721, "Longitude": 120.53993, "IVRNo": 13309, "EXTVoiceNo": 13309, "traveltime": 0, "holidayTraveltime": 0}, {"Id": "3310", "pgp": 0, "GoBack": 1, "SID": 18124, "NameZh": "Shanlin Junior High School", "RouteId": 8032, "SeqNo": 35, "Terminal": 0, "DistrictId": 1, "Latitude": 22.97079, "Longitude": 120.53863, "IVRNo": 10852, "EXTVoiceNo": 13310, "traveltime": 0, "holidayTraveltime": 0}, {"Id": "4039", "pgp": 0, "GoBack": 1, "SID": 18125, "NameZh": "Taiwan Power Company (Shanlin)", "RouteId": 8032, "SeqNo": 36, "Terminal": 0, "DistrictId": 1, "Latitude": 22.97001, "Longitude": 120.53609, "IVRNo": 4039, "EXTVoiceNo": 4039, "traveltime": 0, "holidayTraveltime": 0}, {"Id": "0233", "pgp": 0, "GoBack": 1, "SID": 18126, "NameZh": "Yuemei", "RouteId": 8032, "SeqNo": 37, "Terminal": 0, "DistrictId": 1, "Latitude": 22.96748, "Longitude": 120.53365, "IVRNo": 10461, "EXTVoiceNo": 20233, "traveltime": 0, "holidayTraveltime": 0}, {"Id": "3311", "pgp": 0, "GoBack": 1, "SID": 18127, "NameZh": "Shanlin Farmers` Association", "RouteId": 8032, "SeqNo": 38, "Terminal": 0, "DistrictId": 1, "Latitude": 22.96433, "Longitude": 120.53207, "IVRNo": 10854, "EXTVoiceNo": 13311, "traveltime": 0, "holidayTraveltime": 0}, {"Id": "3313", "pgp": 0, "GoBack": 1, "SID": 18128, "NameZh": "Cihzihliao", "RouteId": 8032, "SeqNo": 39, "Terminal": 0, "DistrictId": 1, "Latitude": 22.96138, "Longitude": 120.52864, "IVRNo": 10874, "EXTVoiceNo": 13313, "traveltime": 0, "holidayTraveltime": 0}, {"Id": "1834", "pgp": 0, "GoBack": 1, "SID": 18129, "NameZh": "Cijia 2nd Rd.", "RouteId": 8032, "SeqNo": 40, "Terminal": 0, "DistrictId": 1, "Latitude": 22.96084, "Longitude": 120.51788, "IVRNo": 11834, "EXTVoiceNo": 11834, "traveltime": 0, "holidayTraveltime": 0}, {"Id": "0087", "pgp": 0, "GoBack": 1, "SID": 18130, "NameZh": "Dalin (Cijia Rd. Section 4)", "RouteId": 8032, "SeqNo": 41, "Terminal": 0, "DistrictId": 1, "Latitude": 22.959592, "Longitude": 120.515662, "IVRNo": 10169, "EXTVoiceNo": 20087, "traveltime": 0, "holidayTraveltime": 0}, {"Id": "3347", "pgp": 0, "GoBack": 1, "SID": 18131, "NameZh": "Pujianglin", "RouteId": 8032, "SeqNo": 42, "Terminal": 0, "DistrictId": 1, "Latitude": 22.9491, "Longitude": 120.51094, "IVRNo": 11222, "EXTVoiceNo": 13347, "traveltime": 0, "holidayTraveltime": 0}, {"Id": "0164", "pgp": 0, "GoBack": 1, "SID": 18132, "NameZh": "Jhongai", "RouteId": 8032, "SeqNo": 43, "Terminal": 0, "DistrictId": 1, "Latitude": 22.93937, "Longitude": 120.50656, "IVRNo": 10313, "EXTVoiceNo": 20164, "traveltime": 0, "holidayTraveltime": 0}, {"Id": "3381", "pgp": 0, "GoBack": 1, "SID": 18133, "NameZh": "Yuantan", "RouteId": 8032, "SeqNo": 44, "Terminal": 0, "DistrictId": 1, "Latitude": 22.93259, "Longitude": 120.50328, "IVRNo": 11580, "EXTVoiceNo": 13381, "traveltime": 0, "holidayTraveltime": 0}, {"Id": "0882", "pgp": 0, "GoBack": 1, "SID": 18134, "NameZh": "Yuantan Farm", "RouteId": 8032, "SeqNo": 45, "Terminal": 0, "DistrictId": 1, "Latitude": 22.92932, "Longitude": 120.50185, "IVRNo": 809, "EXTVoiceNo": 882, "traveltime": 0, "holidayTraveltime": 0}, {"Id": "1577", "pgp": 0, "GoBack": 1, "SID": 18135, "NameZh": "Yuanfu Junior High School", "RouteId": 8032, "SeqNo": 46, "Terminal": 0, "DistrictId": 1, "Latitude": 22.92815, "Longitude": 120.50092, "IVRNo": 9747, "EXTVoiceNo": 11577, "traveltime": 0, "holidayTraveltime": 0}, {"Id": "3382", "pgp": 0, "GoBack": 1, "SID": 18136, "NameZh": "Yuantan Farmers` Association", "RouteId": 8032, "SeqNo": 47, "Terminal": 0, "DistrictId": 1, "Latitude": 22.92696, "Longitude": 120.50008, "IVRNo": 13382, "EXTVoiceNo": 13382, "traveltime": 0, "holidayTraveltime": 0}, {"Id": "0056", "pgp": 0, "GoBack": 1, "SID": 18138, "NameZh": "Kouai", "RouteId": 8032, "SeqNo": 48, "Terminal": 0, "DistrictId": 1, "Latitude": 22.9219, "Longitude": 120.49682, "IVRNo": 10124, "EXTVoiceNo": 20056, "traveltime": 0, "holidayTraveltime": 0}, {"Id": "0057", "pgp": 0, "GoBack": 1, "SID": 18139, "NameZh": "Kouaijhuangnei", "RouteId": 8032, "SeqNo": 49, "Terminal": 0, "DistrictId": 1, "Latitude": 22.92032, "Longitude": 120.4962, "IVRNo": 10126, "EXTVoiceNo": 20057, "traveltime": 0, "holidayTraveltime": 0}, {"Id": "1575", "pgp": 0, "GoBack": 1, "SID": 18140, "NameZh": "Yuanfu Village", "RouteId": 8032, "SeqNo": 50, "Terminal": 0, "DistrictId": 1, "Latitude": 22.91674, "Longitude": 120.49473, "IVRNo": 11575, "EXTVoiceNo": 11575, "traveltime": 0, "holidayTraveltime": 0}, {"Id": "9372", "pgp": 0, "GoBack": 1, "SID": 2611, "NameZh": "Longshanlin Community", "RouteId": 8032, "SeqNo": 51, "Terminal": 0, "DistrictId": 1, "Latitude": 22.912333, "Longitude": 120.493057, "IVRNo": 9054, "EXTVoiceNo": 9372, "traveltime": 0, "holidayTraveltime": 0}, {"Id": "0200", "pgp": 0, "GoBack": 1, "SID": 18141, "NameZh": "Lioujhangli", "RouteId": 8032, "SeqNo": 52, "Terminal": 0, "DistrictId": 1, "Latitude": 22.90897, "Longitude": 120.49066, "IVRNo": 10391, "EXTVoiceNo": 20200, "traveltime": 0, "holidayTraveltime": 0}, {"Id": "3413", "pgp": 0, "GoBack": 1, "SID": 14049, "NameZh": "Ci Shan Agricultural and Industrial Senior High School", "RouteId": 8032, "SeqNo": 53, "Terminal": 0, "DistrictId": 1, "Latitude": 22.90194, "Longitude": 120.483244, "IVRNo": 1255, "EXTVoiceNo": 13413, "traveltime": 0, "holidayTraveltime": 0}, {"Id": "1828", "pgp": 0, "GoBack": 1, "SID": 18143, "NameZh": "Cishan North Station", "RouteId": 8032, "SeqNo": 54, "Terminal": 0, "DistrictId": 1, "Latitude": 22.896043, "Longitude": 120.483457, "IVRNo": 9142, "EXTVoiceNo": 11828, "traveltime": 0, "holidayTraveltime": 0}, {"Id": "1197", "pgp": 0, "GoBack": 1, "SID": 18144, "NameZh": "Jhonghua Rd. Intersection (Ci)", "RouteId": 8032, "SeqNo": 55, "Terminal": 0, "DistrictId": 1, "Latitude": 22.89268, "Longitude": 120.48355, "IVRNo": 1180, "EXTVoiceNo": 21197, "traveltime": 0, "holidayTraveltime": 0}, {"Id": "9374", "pgp": 0, "GoBack": 1, "SID": 18145, "NameZh": "Cishan Market", "RouteId": 8032, "SeqNo": 56, "Terminal": 0, "DistrictId": 1, "Latitude": 22.8899, "Longitude": 120.48332, "IVRNo": 9953, "EXTVoiceNo": 9374, "traveltime": 0, "holidayTraveltime": 0}, {"Id": "9718", "pgp": 0, "GoBack": 1, "SID": 18146, "NameZh": "Yanping Rd. (Cishan District Office)", "RouteId": 8032, "SeqNo": 57, "Terminal": 0, "DistrictId": 1, "Latitude": 22.88762, "Longitude": 120.48313, "IVRNo": 9718, "EXTVoiceNo": 9718, "traveltime": 0, "holidayTraveltime": 0}, {"Id": "3412", "pgp": 0, "GoBack": 1, "SID": 18147, "NameZh": "Cishan Bus Transfer Station", "RouteId": 8032, "SeqNo": 58, "Terminal": 0, "DistrictId": 1, "Latitude": 22.883651, "Longitude": 120.484555, "IVRNo": 9717, "EXTVoiceNo": 13412, "traveltime": 0, "holidayTraveltime": 0}, {"Id": "2114", "pgp": 0, "GoBack": 1, "SID": 18149, "NameZh": "Dechang Rd. (Jhongsyue Rd. Intersection)", "RouteId": 8032, "SeqNo": 59, "Terminal": 0, "DistrictId": 1, "Latitude": 22.88162, "Longitude": 120.48203, "IVRNo": 2114, "EXTVoiceNo": 2114, "traveltime": 0, "holidayTraveltime": 0}, {"Id": "0168", "pgp": 0, "GoBack": 1, "SID": 16086, "NameZh": "Jhongsyue Rd.", "RouteId": 8032, "SeqNo": 60, "Terminal": 0, "DistrictId": 1, "Latitude": 22.88282, "Longitude": 120.47867, "IVRNo": 10321, "EXTVoiceNo": 20168, "traveltime": 0, "holidayTraveltime": 0}, {"Id": "3337", "pgp": 0, "GoBack": 1, "SID": 12453, "NameZh": "Ciouliang Mountain", "RouteId": 8032, "SeqNo": 61, "Terminal": 0, "DistrictId": 1, "Latitude": 22.87956, "Longitude": 120.47664, "IVRNo": 3258, "EXTVoiceNo": 13337, "traveltime": 0, "holidayTraveltime": 0}, {"Id": "3430", "pgp": 0, "GoBack": 1, "SID": 12622, "NameZh": "Toulin Lane Intersection", "RouteId": 8032, "SeqNo": 62, "Terminal": 0, "DistrictId": 1, "Latitude": 22.87667, "Longitude": 120.47531, "IVRNo": 3273, "EXTVoiceNo": 13430, "traveltime": 0, "holidayTraveltime": 0}, {"Id": "1000", "pgp": 0, "GoBack": 1, "SID": 16090, "NameZh": "Huaci Villa", "RouteId": 8032, "SeqNo": 63, "Terminal": 0, "DistrictId": 1, "Latitude": 22.873129, "Longitude": 120.474145, "IVRNo": 11000, "EXTVoiceNo": 11000, "traveltime": 0, "holidayTraveltime": 0}, {"Id": "3417", "pgp": 0, "GoBack": 1, "SID": 16091, "NameZh": "Cinan 1st Rd.", "RouteId": 8032, "SeqNo": 64, "Terminal": 0, "DistrictId": 1, "Latitude": 22.86984, "Longitude": 120.47295, "IVRNo": 11842, "EXTVoiceNo": 13417, "traveltime": 0, "holidayTraveltime": 0}, {"Id": "3315", "pgp": 0, "GoBack": 1, "SID": 16092, "NameZh": "Hechang", "RouteId": 8032, "SeqNo": 65, "Terminal": 0, "DistrictId": 1, "Latitude": 22.86462, "Longitude": 120.47055, "IVRNo": 10888, "EXTVoiceNo": 13315, "traveltime": 0, "holidayTraveltime": 0}, {"Id": "0984", "pgp": 0, "GoBack": 1, "SID": 16093, "NameZh": "Wulu", "RouteId": 8032, "SeqNo": 66, "Terminal": 0, "DistrictId": 1, "Latitude": 22.86116, "Longitude": 120.46857, "IVRNo": 10984, "EXTVoiceNo": 10984, "traveltime": 0, "holidayTraveltime": 0}, {"Id": "3423", "pgp": 0, "GoBack": 1, "SID": 16094, "NameZh": "Weiguang Village", "RouteId": 8032, "SeqNo": 67, "Terminal": 0, "DistrictId": 1, "Latitude": 22.85679, "Longitude": 120.46857, "IVRNo": 11935, "EXTVoiceNo": 13423, "traveltime": 0, "holidayTraveltime": 0}, {"Id": "0062", "pgp": 0, "GoBack": 1, "SID": 16095, "NameZh": "Dashan", "RouteId": 8032, "SeqNo": 68, "Terminal": 0, "DistrictId": 1, "Latitude": 22.85314, "Longitude": 120.46789, "IVRNo": 10136, "EXTVoiceNo": 20062, "traveltime": 0, "holidayTraveltime": 0}, {"Id": "3460", "pgp": 0, "GoBack": 1, "SID": 12460, "NameZh": "Cingshuei Temple (Sijhou)", "RouteId": 8032, "SeqNo": 69, "Terminal": 0, "DistrictId": 1, "Latitude": 22.8506, "Longitude": 120.46688, "IVRNo": 803, "EXTVoiceNo": 13460, "traveltime": 0, "holidayTraveltime": 0}, {"Id": "1704", "pgp": 0, "GoBack": 1, "SID": 16097, "NameZh": "Sijhou Elementary School", "RouteId": 8032, "SeqNo": 70, "Terminal": 0, "DistrictId": 1, "Latitude": 22.84735, "Longitude": 120.46552, "IVRNo": 11704, "EXTVoiceNo": 11704, "traveltime": 0, "holidayTraveltime": 0}, {"Id": "1702", "pgp": 0, "GoBack": 1, "SID": 16098, "NameZh": "Sijhou", "RouteId": 8032, "SeqNo": 71, "Terminal": 0, "DistrictId": 1, "Latitude": 22.84269, "Longitude": 120.46421, "IVRNo": 11702, "EXTVoiceNo": 11702, "traveltime": 0, "holidayTraveltime": 0}, {"Id": "0129", "pgp": 0, "GoBack": 1, "SID": 2609, "NameZh": "7-11 Sijhou Store", "RouteId": 8032, "SeqNo": 72, "Terminal": 0, "DistrictId": 1, "Latitude": 22.839791, "Longitude": 120.463181, "IVRNo": 129, "EXTVoiceNo": 129, "traveltime": 0, "holidayTraveltime": 0}, {"Id": "0208", "pgp": 0, "GoBack": 1, "SID": 16100, "NameZh": "Gongyuanzih", "RouteId": 8032, "SeqNo": 73, "Terminal": 0, "DistrictId": 1, "Latitude": 22.83775, "Longitude": 120.46265, "IVRNo": 10402, "EXTVoiceNo": 20208, "traveltime": 0, "holidayTraveltime": 0}, {"Id": "0095", "pgp": 0, "GoBack": 1, "SID": 16101, "NameZh": "Dajhou Junior High School", "RouteId": 8032, "SeqNo": 74, "Terminal": 0, "DistrictId": 1, "Latitude": 22.835888, "Longitude": 120.462384, "IVRNo": 10183, "EXTVoiceNo": 20095, "traveltime": 0, "holidayTraveltime": 0}, {"Id": "1606", "pgp": 0, "GoBack": 1, "SID": 16102, "NameZh": "Singuang Village", "RouteId": 8032, "SeqNo": 75, "Terminal": 0, "DistrictId": 1, "Latitude": 22.8323, "Longitude": 120.46258, "IVRNo": 11606, "EXTVoiceNo": 11606, "traveltime": 0, "holidayTraveltime": 0}, {"Id": "0076", "pgp": 0, "GoBack": 1, "SID": 7854, "NameZh": "Dajhuwei", "RouteId": 8032, "SeqNo": 76, "Terminal": 0, "DistrictId": 1, "Latitude": 22.82444, "Longitude": 120.46229, "IVRNo": 9148, "EXTVoiceNo": 20076, "traveltime": 0, "holidayTraveltime": 0}, {"Id": "0900", "pgp": 0, "GoBack": 1, "SID": 16104, "NameZh": "Shanghe", "RouteId": 8032, "SeqNo": 77, "Terminal": 0, "DistrictId": 1, "Latitude": 22.8148, "Longitude": 120.46155, "IVRNo": 10900, "EXTVoiceNo": 10900, "traveltime": 0, "holidayTraveltime": 0}, {"Id": "3434", "pgp": 0, "GoBack": 1, "SID": 18168, "NameZh": "Congzaikeng", "RouteId": 8032, "SeqNo": 78, "Terminal": 0, "DistrictId": 1, "Latitude": 22.80936, "Longitude": 120.46149, "IVRNo": 13434, "EXTVoiceNo": 13434, "traveltime": 0, "holidayTraveltime": 0}, {"Id": "3333", "pgp": 0, "GoBack": 1, "SID": 16106, "NameZh": "Nansheng Lake", "RouteId": 8032, "SeqNo": 79, "Terminal": 0, "DistrictId": 1, "Latitude": 22.79996, "Longitude": 120.45902, "IVRNo": 11086, "EXTVoiceNo": 13333, "traveltime": 0, "holidayTraveltime": 0}, {"Id": "5005", "pgp": 0, "GoBack": 1, "SID": 16152, "NameZh": "Kaohsiung Veterans General Hospital", "RouteId": 8032, "SeqNo": 80, "Terminal": 0, "DistrictId": 1, "Latitude": 22.677426, "Longitude": 120.322335, "IVRNo": 5005, "EXTVoiceNo": 5005, "traveltime": 0, "holidayTraveltime": 0}, {"Id": "5206", "pgp": 0, "GoBack": 1, "SID": 6184, "NameZh": "Dajhong Rd. Intersection (Minzu 1st Rd.)", "RouteId": 8032, "SeqNo": 81, "Terminal": 0, "DistrictId": 1, "Latitude": 22.677836, "Longitude": 120.31871, "IVRNo": 2210, "EXTVoiceNo": 5206, "traveltime": 0, "holidayTraveltime": 0}, {"Id": "8974", "pgp": 0, "GoBack": 1, "SID": 16915, "NameZh": "Caigong Rd. Intersection (Minzu 1st Rd.)", "RouteId": 8032, "SeqNo": 82, "Terminal": 0, "DistrictId": 1, "Latitude": 22.67438, "Longitude": 120.31814, "IVRNo": 1043, "EXTVoiceNo": 8974, "traveltime": 0, "holidayTraveltime": 0}, {"Id": "5208", "pgp": 0, "GoBack": 1, "SID": 16154, "NameZh": "Wenzao Ursuline University of Languages  (Minzu 1st Rd.)", "RouteId": 8032, "SeqNo": 83, "Terminal": 0, "DistrictId": 1, "Latitude": 22.670754, "Longitude": 120.317407, "IVRNo": 453, "EXTVoiceNo": 5208, "traveltime": 0, "holidayTraveltime": 0}, {"Id": "5408", "pgp": 0, "GoBack": 1, "SID": 4635, "NameZh": "Tiansiang Rd. Intersection (Minzu 1st Rd..)", "RouteId": 8032, "SeqNo": 84, "Terminal": 0, "DistrictId": 1, "Latitude": 22.667395, "Longitude": 120.316844, "IVRNo": 2213, "EXTVoiceNo": 5408, "traveltime": 0, "holidayTraveltime": 0}, {"Id": "7032", "pgp": 0, "GoBack": 1, "SID": 8245, "NameZh": "Minzu Yucheng Rd. Intersection", "RouteId": 8032, "SeqNo": 85, "Terminal": 0, "DistrictId": 1, "Latitude": 22.664938, "Longitude": 120.316375, "IVRNo": 2214, "EXTVoiceNo": 7032, "traveltime": 0, "holidayTraveltime": 0}, {"Id": "5213", "pgp": 0, "GoBack": 1, "SID": 3927, "NameZh": "Minzu Rd. (Mingcheng Rd. Intersection)", "RouteId": 8032, "SeqNo": 86, "Terminal": 0, "DistrictId": 1, "Latitude": 22.661294, "Longitude": 120.316005, "IVRNo": 43, "EXTVoiceNo": 5213, "traveltime": 0, "holidayTraveltime": 0}, {"Id": "1164", "pgp": 0, "GoBack": 1, "SID": 18221, "NameZh": "Minzu Dashun Rd. Intersection", "RouteId": 8032, "SeqNo": 87, "Terminal": 0, "DistrictId": 1, "Latitude": 22.657673, "Longitude": 120.315572, "IVRNo": 4030, "EXTVoiceNo": 21164, "traveltime": 0, "holidayTraveltime": 0}, {"Id": "5215", "pgp": 0, "GoBack": 1, "SID": 18222, "NameZh": "Longfong Temple", "RouteId": 8032, "SeqNo": 88, "Terminal": 0, "DistrictId": 1, "Latitude": 22.65314, "Longitude": 120.31518, "IVRNo": 5215, "EXTVoiceNo": 5215, "traveltime": 0, "holidayTraveltime": 0}, {"Id": "3447", "pgp": 0, "GoBack": 1, "SID": 13870, "NameZh": "Wanzihnei", "RouteId": 8032, "SeqNo": 89, "Terminal": 0, "DistrictId": 1, "Latitude": 22.648719, "Longitude": 120.314835, "IVRNo": 5216, "EXTVoiceNo": 13447, "traveltime": 0, "holidayTraveltime": 0}, {"Id": "7377", "pgp": 0, "GoBack": 1, "SID": 1474, "NameZh": "Vegetable & Fruit Company", "RouteId": 8032, "SeqNo": 90, "Terminal": 0, "DistrictId": 1, "Latitude": 22.644961, "Longitude": 120.314312, "IVRNo": 232, "EXTVoiceNo": 7377, "traveltime": 0, "holidayTraveltime": 0}, {"Id": "0234", "pgp": 0, "GoBack": 1, "SID": 18225, "NameZh": "Gaoyi, Kaohsiung Medical University (Shihcyuan Rd.)", "RouteId": 8032, "SeqNo": 91, "Terminal": 0, "DistrictId": 1, "Latitude": 22.64503, "Longitude": 120.30943, "IVRNo": 234, "EXTVoiceNo": 234, "traveltime": 0, "holidayTraveltime": 0}, {"Id": "0235", "pgp": 0, "GoBack": 1, "SID": 1729, "NameZh": "Sanmin Junior High School", "RouteId": 8032, "SeqNo": 92, "Terminal": 0, "DistrictId": 1, "Latitude": 22.645219, "Longitude": 120.305816, "IVRNo": 235, "EXTVoiceNo": 235, "traveltime": 0, "holidayTraveltime": 0}, {"Id": "2839", "pgp": 0, "GoBack": 1, "SID": 1563, "NameZh": "Sanmin Park (Boai Rd. Intersection)", "RouteId": 8032, "SeqNo": 93, "Terminal": 0, "DistrictId": 1, "Latitude": 22.645442, "Longitude": 120.304389, "IVRNo": 236, "EXTVoiceNo": 2839, "traveltime": 0, "holidayTraveltime": 0}, {"Id": "1445", "pgp": 0, "GoBack": 1, "SID": 5115, "NameZh": "Jhongshan 1st Rd. Intersection", "RouteId": 8032, "SeqNo": 94, "Terminal": 0, "DistrictId": 1, "Latitude": 22.634639, "Longitude": 120.302707, "IVRNo": 1445, "EXTVoiceNo": 1445, "traveltime": 0, "holidayTraveltime": 0}, {"Id": "9368", "pgp": 0, "GoBack": 1, "SID": 8806, "NameZh": "Kaohsiung Station (Nanhua Rd.)", "RouteId": 8032, "SeqNo": 95, "Terminal": 1, "DistrictId": 1, "Latitude": 22.63768, "Longitude": 120.30396, "IVRNo": 9034, "EXTVoiceNo": 9368, "traveltime": 0, "holidayTraveltime": 0}, {"Id": "9368", "pgp": 0, "GoBack": 2, "SID": 2146, "NameZh": "Kaohsiung Station (Nanhua Rd.)", "RouteId": 8032, "SeqNo": 1, "Terminal": 0, "DistrictId": 1, "Latitude": 22.638135, "Longitude": 120.303514, "IVRNo": 9034, "EXTVoiceNo": 9368, "traveltime": 0, "holidayTraveltime": 0}, {"Id": "1445", "pgp": 0, "GoBack": 2, "SID": 17848, "NameZh": "Jhongshan 1st Rd. Intersection", "RouteId": 8032, "SeqNo": 2, "Terminal": 0, "DistrictId": 1, "Latitude": 22.634573, "Longitude": 120.303617, "IVRNo": 1445, "EXTVoiceNo": 1445, "traveltime": 0, "holidayTraveltime": 0}, {"Id": "2839", "pgp": 0, "GoBack": 2, "SID": 2776, "NameZh": "Sanmin Park (Boai Rd. Intersection)", "RouteId": 8032, "SeqNo": 3, "Terminal": 0, "DistrictId": 1, "Latitude": 22.645369, "Longitude": 120.303658, "IVRNo": 236, "EXTVoiceNo": 2839, "traveltime": 0, "holidayTraveltime": 0}, {"Id": "0235", "pgp": 0, "GoBack": 2, "SID": 1554, "NameZh": "Sanmin Junior High School", "RouteId": 8032, "SeqNo": 4, "Terminal": 0, "DistrictId": 1, "Latitude": 22.64525, "Longitude": 120.305916, "IVRNo": 235, "EXTVoiceNo": 235, "traveltime": 0, "holidayTraveltime": 0}, {"Id": "0234", "pgp": 0, "GoBack": 2, "SID": 15832, "NameZh": "Gaoyi, Kaohsiung Medical University (Shihcyuan Rd.)", "RouteId": 8032, "SeqNo": 5, "Terminal": 0, "DistrictId": 1, "Latitude": 22.64487, "Longitude": 120.31066, "IVRNo": 234, "EXTVoiceNo": 234, "traveltime": 0, "holidayTraveltime": 0}, {"Id": "7377", "pgp": 0, "GoBack": 2, "SID": 1476, "NameZh": "Vegetable & Fruit Company", "RouteId": 8032, "SeqNo": 6, "Terminal": 0, "DistrictId": 1, "Latitude": 22.645044, "Longitude": 120.314582, "IVRNo": 232, "EXTVoiceNo": 7377, "traveltime": 0, "holidayTraveltime": 0}, {"Id": "3447", "pgp": 0, "GoBack": 2, "SID": 13870, "NameZh": "Wanzihnei", "RouteId": 8032, "SeqNo": 7, "Terminal": 0, "DistrictId": 1, "Latitude": 22.648719, "Longitude": 120.314835, "IVRNo": 5216, "EXTVoiceNo": 13447, "traveltime": 0, "holidayTraveltime": 0}, {"Id": "5215", "pgp": 0, "GoBack": 2, "SID": 15835, "NameZh": "Longfong Temple", "RouteId": 8032, "SeqNo": 8, "Terminal": 0, "DistrictId": 1, "Latitude": 22.65306, "Longitude": 120.31534, "IVRNo": 5215, "EXTVoiceNo": 5215, "traveltime": 0, "holidayTraveltime": 0}, {"Id": "1164", "pgp": 0, "GoBack": 2, "SID": 15836, "NameZh": "Minzu Dashun Rd. Intersection", "RouteId": 8032, "SeqNo": 9, "Terminal": 0, "DistrictId": 1, "Latitude": 22.657316, "Longitude": 120.315714, "IVRNo": 4030, "EXTVoiceNo": 21164, "traveltime": 0, "holidayTraveltime": 0}, {"Id": "5213", "pgp": 0, "GoBack": 2, "SID": 3888, "NameZh": "Minzu Rd. (Mingcheng Rd. Intersection)", "RouteId": 8032, "SeqNo": 10, "Terminal": 0, "DistrictId": 1, "Latitude": 22.661627, "Longitude": 120.315775, "IVRNo": 43, "EXTVoiceNo": 5213, "traveltime": 0, "holidayTraveltime": 0}, {"Id": "7032", "pgp": 0, "GoBack": 2, "SID": 17962, "NameZh": "Minzu Yucheng Rd. Intersection", "RouteId": 8032, "SeqNo": 11, "Terminal": 0, "DistrictId": 1, "Latitude": 22.664705, "Longitude": 120.316426, "IVRNo": 2214, "EXTVoiceNo": 7032, "traveltime": 0, "holidayTraveltime": 0}, {"Id": "5408", "pgp": 0, "GoBack": 2, "SID": 10555, "NameZh": "Tiansiang Rd. Intersection (Minzu 1st Rd..)", "RouteId": 8032, "SeqNo": 12, "Terminal": 0, "DistrictId": 1, "Latitude": 22.667715, "Longitude": 120.316828, "IVRNo": 2213, "EXTVoiceNo": 5408, "traveltime": 0, "holidayTraveltime": 0}, {"Id": "5208", "pgp": 0, "GoBack": 2, "SID": 17964, "NameZh": "Wenzao Ursuline University of Languages  (Minzu 1st Rd.)", "RouteId": 8032, "SeqNo": 13, "Terminal": 0, "DistrictId": 1, "Latitude": 22.67071, "Longitude": 120.3176, "IVRNo": 453, "EXTVoiceNo": 5208, "traveltime": 0, "holidayTraveltime": 0}, {"Id": "8974", "pgp": 0, "GoBack": 2, "SID": 16938, "NameZh": "Caigong Rd. Intersection (Minzu 1st Rd.)", "RouteId": 8032, "SeqNo": 14, "Terminal": 0, "DistrictId": 1, "Latitude": 22.67521, "Longitude": 120.31846, "IVRNo": 1043, "EXTVoiceNo": 8974, "traveltime": 0, "holidayTraveltime": 0}, {"Id": "5206", "pgp": 0, "GoBack": 2, "SID": 10552, "NameZh": "Dajhong Rd. Intersection (Minzu 1st Rd.)", "RouteId": 8032, "SeqNo": 15, "Terminal": 0, "DistrictId": 1, "Latitude": 22.677836, "Longitude": 120.31871, "IVRNo": 2210, "EXTVoiceNo": 5206, "traveltime": 0, "holidayTraveltime": 0}, {"Id": "1280", "pgp": 0, "GoBack": 2, "SID": 17966, "NameZh": "Kaohsiung Veterans General Hospital (Minzu Rd. Intersection)", "RouteId": 8032, "SeqNo": 16, "Terminal": 0, "DistrictId": 1, "Latitude": 22.678792, "Longitude": 120.319397, "IVRNo": 1280, "EXTVoiceNo": 1280, "traveltime": 0, "holidayTraveltime": 0}, {"Id": "3333", "pgp": 0, "GoBack": 2, "SID": 18012, "NameZh": "Nansheng Lake", "RouteId": 8032, "SeqNo": 17, "Terminal": 0, "DistrictId": 1, "Latitude": 22.79993, "Longitude": 120.45915, "IVRNo": 11086, "EXTVoiceNo": 13333, "traveltime": 0, "holidayTraveltime": 0}, {"Id": "3434", "pgp": 0, "GoBack": 2, "SID": 18013, "NameZh": "Congzaikeng", "RouteId": 8032, "SeqNo": 18, "Terminal": 0, "DistrictId": 1, "Latitude": 22.80962, "Longitude": 120.46171, "IVRNo": 13434, "EXTVoiceNo": 13434, "traveltime": 0, "holidayTraveltime": 0}, {"Id": "0900", "pgp": 0, "GoBack": 2, "SID": 18014, "NameZh": "Shanghe", "RouteId": 8032, "SeqNo": 19, "Terminal": 0, "DistrictId": 1, "Latitude": 22.81476, "Longitude": 120.46171, "IVRNo": 10900, "EXTVoiceNo": 10900, "traveltime": 0, "holidayTraveltime": 0}, {"Id": "0076", "pgp": 0, "GoBack": 2, "SID": 7649, "NameZh": "Dajhuwei", "RouteId": 8032, "SeqNo": 20, "Terminal": 0, "DistrictId": 1, "Latitude": 22.82826, "Longitude": 120.46246, "IVRNo": 9148, "EXTVoiceNo": 20076, "traveltime": 0, "holidayTraveltime": 0}, {"Id": "1606", "pgp": 0, "GoBack": 2, "SID": 18016, "NameZh": "Singuang Village", "RouteId": 8032, "SeqNo": 21, "Terminal": 0, "DistrictId": 1, "Latitude": 22.83239, "Longitude": 120.46272, "IVRNo": 11606, "EXTVoiceNo": 11606, "traveltime": 0, "holidayTraveltime": 0}, {"Id": "0095", "pgp": 0, "GoBack": 2, "SID": 18017, "NameZh": "Dajhou Junior High School", "RouteId": 8032, "SeqNo": 22, "Terminal": 0, "DistrictId": 1, "Latitude": 22.83587, "Longitude": 120.46255, "IVRNo": 10183, "EXTVoiceNo": 20095, "traveltime": 0, "holidayTraveltime": 0}, {"Id": "0208", "pgp": 0, "GoBack": 2, "SID": 18018, "NameZh": "Gongyuanzih", "RouteId": 8032, "SeqNo": 23, "Terminal": 0, "DistrictId": 1, "Latitude": 22.83776, "Longitude": 120.46278, "IVRNo": 10402, "EXTVoiceNo": 20208, "traveltime": 0, "holidayTraveltime": 0}, {"Id": "0129", "pgp": 0, "GoBack": 2, "SID": 2607, "NameZh": "7-11 Sijhou Store", "RouteId": 8032, "SeqNo": 24, "Terminal": 0, "DistrictId": 1, "Latitude": 22.8399, "Longitude": 120.46332, "IVRNo": 129, "EXTVoiceNo": 129, "traveltime": 0, "holidayTraveltime": 0}, {"Id": "1702", "pgp": 0, "GoBack": 2, "SID": 18020, "NameZh": "Sijhou", "RouteId": 8032, "SeqNo": 25, "Terminal": 0, "DistrictId": 1, "Latitude": 22.8439, "Longitude": 120.46453, "IVRNo": 11702, "EXTVoiceNo": 11702, "traveltime": 0, "holidayTraveltime": 0}, {"Id": "1704", "pgp": 0, "GoBack": 2, "SID": 18021, "NameZh": "Sijhou Elementary School", "RouteId": 8032, "SeqNo": 26, "Terminal": 0, "DistrictId": 1, "Latitude": 22.84751, "Longitude": 120.46574, "IVRNo": 11704, "EXTVoiceNo": 11704, "traveltime": 0, "holidayTraveltime": 0}, {"Id": "3460", "pgp": 0, "GoBack": 2, "SID": 12597, "NameZh": "Cingshuei Temple (Sijhou)", "RouteId": 8032, "SeqNo": 27, "Terminal": 0, "DistrictId": 1, "Latitude": 22.85048, "Longitude": 120.46702, "IVRNo": 803, "EXTVoiceNo": 13460, "traveltime": 0, "holidayTraveltime": 0}, {"Id": "0062", "pgp": 0, "GoBack": 2, "SID": 18023, "NameZh": "Dashan", "RouteId": 8032, "SeqNo": 28, "Terminal": 0, "DistrictId": 1, "Latitude": 22.85342, "Longitude": 120.46804, "IVRNo": 10136, "EXTVoiceNo": 20062, "traveltime": 0, "holidayTraveltime": 0}, {"Id": "3423", "pgp": 0, "GoBack": 2, "SID": 18024, "NameZh": "Weiguang Village", "RouteId": 8032, "SeqNo": 29, "Terminal": 0, "DistrictId": 1, "Latitude": 22.85706, "Longitude": 120.46878, "IVRNo": 11935, "EXTVoiceNo": 13423, "traveltime": 0, "holidayTraveltime": 0}, {"Id": "0984", "pgp": 0, "GoBack": 2, "SID": 18025, "NameZh": "Wulu", "RouteId": 8032, "SeqNo": 30, "Terminal": 0, "DistrictId": 1, "Latitude": 22.86107, "Longitude": 120.46873, "IVRNo": 10984, "EXTVoiceNo": 10984, "traveltime": 0, "holidayTraveltime": 0}, {"Id": "3315", "pgp": 0, "GoBack": 2, "SID": 18026, "NameZh": "Hechang", "RouteId": 8032, "SeqNo": 31, "Terminal": 0, "DistrictId": 1, "Latitude": 22.86437, "Longitude": 120.47059, "IVRNo": 10888, "EXTVoiceNo": 13315, "traveltime": 0, "holidayTraveltime": 0}, {"Id": "3417", "pgp": 0, "GoBack": 2, "SID": 18027, "NameZh": "Cinan 1st Rd.", "RouteId": 8032, "SeqNo": 32, "Terminal": 0, "DistrictId": 1, "Latitude": 22.86966, "Longitude": 120.47298, "IVRNo": 11842, "EXTVoiceNo": 13417, "traveltime": 0, "holidayTraveltime": 0}, {"Id": "1000", "pgp": 0, "GoBack": 2, "SID": 18028, "NameZh": "Huaci Villa", "RouteId": 8032, "SeqNo": 33, "Terminal": 0, "DistrictId": 1, "Latitude": 22.87314, "Longitude": 120.47432, "IVRNo": 11000, "EXTVoiceNo": 11000, "traveltime": 0, "holidayTraveltime": 0}, {"Id": "3430", "pgp": 0, "GoBack": 2, "SID": 15228, "NameZh": "Toulin Lane Intersection", "RouteId": 8032, "SeqNo": 34, "Terminal": 0, "DistrictId": 1, "Latitude": 22.87662, "Longitude": 120.47539, "IVRNo": 3273, "EXTVoiceNo": 13430, "traveltime": 0, "holidayTraveltime": 0}, {"Id": "3337", "pgp": 0, "GoBack": 2, "SID": 12604, "NameZh": "Ciouliang Mountain", "RouteId": 8032, "SeqNo": 35, "Terminal": 0, "DistrictId": 1, "Latitude": 22.87951, "Longitude": 120.47678, "IVRNo": 3258, "EXTVoiceNo": 13337, "traveltime": 0, "holidayTraveltime": 0}, {"Id": "0168", "pgp": 0, "GoBack": 2, "SID": 18031, "NameZh": "Jhongsyue Rd.", "RouteId": 8032, "SeqNo": 36, "Terminal": 0, "DistrictId": 1, "Latitude": 22.882569, "Longitude": 120.479105, "IVRNo": 10321, "EXTVoiceNo": 20168, "traveltime": 0, "holidayTraveltime": 0}, {"Id": "2114", "pgp": 0, "GoBack": 2, "SID": 18032, "NameZh": "Dechang Rd. (Jhongsyue Rd. Intersection)", "RouteId": 8032, "SeqNo": 37, "Terminal": 0, "DistrictId": 1, "Latitude": 22.881665, "Longitude": 120.48212, "IVRNo": 2114, "EXTVoiceNo": 2114, "traveltime": 0, "holidayTraveltime": 0}, {"Id": "3412", "pgp": 0, "GoBack": 2, "SID": 18034, "NameZh": "Cishan Bus Transfer Station", "RouteId": 8032, "SeqNo": 38, "Terminal": 0, "DistrictId": 1, "Latitude": 22.883651, "Longitude": 120.484555, "IVRNo": 9717, "EXTVoiceNo": 13412, "traveltime": 0, "holidayTraveltime": 0}, {"Id": "9718", "pgp": 0, "GoBack": 2, "SID": 18035, "NameZh": "Yanping Rd. (Cishan District Office)", "RouteId": 8032, "SeqNo": 39, "Terminal": 0, "DistrictId": 1, "Latitude": 22.88761, "Longitude": 120.483247, "IVRNo": 9718, "EXTVoiceNo": 9718, "traveltime": 0, "holidayTraveltime": 0}, {"Id": "9374", "pgp": 0, "GoBack": 2, "SID": 18036, "NameZh": "Cishan Market", "RouteId": 8032, "SeqNo": 40, "Terminal": 0, "DistrictId": 1, "Latitude": 22.889889, "Longitude": 120.483465, "IVRNo": 9953, "EXTVoiceNo": 9374, "traveltime": 0, "holidayTraveltime": 0}, {"Id": "1197", "pgp": 0, "GoBack": 2, "SID": 18037, "NameZh": "Jhonghua Rd. Intersection (Ci)", "RouteId": 8032, "SeqNo": 41, "Terminal": 0, "DistrictId": 1, "Latitude": 22.89278, "Longitude": 120.4833, "IVRNo": 1180, "EXTVoiceNo": 21197, "traveltime": 0, "holidayTraveltime": 0}, {"Id": "1828", "pgp": 0, "GoBack": 2, "SID": 18038, "NameZh": "Cishan North Station", "RouteId": 8032, "SeqNo": 42, "Terminal": 0, "DistrictId": 1, "Latitude": 22.896043, "Longitude": 120.483457, "IVRNo": 9142, "EXTVoiceNo": 11828, "traveltime": 0, "holidayTraveltime": 0}, {"Id": "3413", "pgp": 0, "GoBack": 2, "SID": 13910, "NameZh": "Ci Shan Agricultural and Industrial Senior High School", "RouteId": 8032, "SeqNo": 43, "Terminal": 0, "DistrictId": 1, "Latitude": 22.90193, "Longitude": 120.4833, "IVRNo": 1255, "EXTVoiceNo": 13413, "traveltime": 0, "holidayTraveltime": 0}, {"Id": "0200", "pgp": 0, "GoBack": 2, "SID": 18040, "NameZh": "Lioujhangli", "RouteId": 8032, "SeqNo": 44, "Terminal": 0, "DistrictId": 1, "Latitude": 22.90867, "Longitude": 120.49043, "IVRNo": 10391, "EXTVoiceNo": 20200, "traveltime": 0, "holidayTraveltime": 0}, {"Id": "9372", "pgp": 0, "GoBack": 2, "SID": 2610, "NameZh": "Longshanlin Community", "RouteId": 8032, "SeqNo": 45, "Terminal": 0, "DistrictId": 1, "Latitude": 22.912333, "Longitude": 120.493057, "IVRNo": 9054, "EXTVoiceNo": 9372, "traveltime": 0, "holidayTraveltime": 0}, {"Id": "1575", "pgp": 0, "GoBack": 2, "SID": 18041, "NameZh": "Yuanfu Village", "RouteId": 8032, "SeqNo": 46, "Terminal": 0, "DistrictId": 1, "Latitude": 22.91598, "Longitude": 120.49455, "IVRNo": 11575, "EXTVoiceNo": 11575, "traveltime": 0, "holidayTraveltime": 0}, {"Id": "0057", "pgp": 0, "GoBack": 2, "SID": 18042, "NameZh": "Kouaijhuangnei", "RouteId": 8032, "SeqNo": 47, "Terminal": 0, "DistrictId": 1, "Latitude": 22.920286, "Longitude": 120.496293, "IVRNo": 10126, "EXTVoiceNo": 20057, "traveltime": 0, "holidayTraveltime": 0}, {"Id": "0056", "pgp": 0, "GoBack": 2, "SID": 18043, "NameZh": "Kouai", "RouteId": 8032, "SeqNo": 48, "Terminal": 0, "DistrictId": 1, "Latitude": 22.92235, "Longitude": 120.49714, "IVRNo": 10124, "EXTVoiceNo": 20056, "traveltime": 0, "holidayTraveltime": 0}, {"Id": "3382", "pgp": 0, "GoBack": 2, "SID": 18045, "NameZh": "Yuantan Farmers` Association", "RouteId": 8032, "SeqNo": 49, "Terminal": 0, "DistrictId": 1, "Latitude": 22.92693, "Longitude": 120.50024, "IVRNo": 13382, "EXTVoiceNo": 13382, "traveltime": 0, "holidayTraveltime": 0}, {"Id": "1577", "pgp": 0, "GoBack": 2, "SID": 18046, "NameZh": "Yuanfu Junior High School", "RouteId": 8032, "SeqNo": 50, "Terminal": 0, "DistrictId": 1, "Latitude": 22.9281, "Longitude": 120.50101, "IVRNo": 9747, "EXTVoiceNo": 11577, "traveltime": 0, "holidayTraveltime": 0}, {"Id": "0882", "pgp": 0, "GoBack": 2, "SID": 18047, "NameZh": "Yuantan Farm", "RouteId": 8032, "SeqNo": 51, "Terminal": 0, "DistrictId": 1, "Latitude": 22.92939, "Longitude": 120.50205, "IVRNo": 809, "EXTVoiceNo": 882, "traveltime": 0, "holidayTraveltime": 0}, {"Id": "3381", "pgp": 0, "GoBack": 2, "SID": 18048, "NameZh": "Yuantan", "RouteId": 8032, "SeqNo": 52, "Terminal": 0, "DistrictId": 1, "Latitude": 22.93279, "Longitude": 120.50358, "IVRNo": 11580, "EXTVoiceNo": 13381, "traveltime": 0, "holidayTraveltime": 0}, {"Id": "0164", "pgp": 0, "GoBack": 2, "SID": 18049, "NameZh": "Jhongai", "RouteId": 8032, "SeqNo": 53, "Terminal": 0, "DistrictId": 1, "Latitude": 22.93943, "Longitude": 120.50671, "IVRNo": 10313, "EXTVoiceNo": 20164, "traveltime": 0, "holidayTraveltime": 0}, {"Id": "3347", "pgp": 0, "GoBack": 2, "SID": 18050, "NameZh": "Pujianglin", "RouteId": 8032, "SeqNo": 54, "Terminal": 0, "DistrictId": 1, "Latitude": 22.94907, "Longitude": 120.51104, "IVRNo": 11222, "EXTVoiceNo": 13347, "traveltime": 0, "holidayTraveltime": 0}, {"Id": "0087", "pgp": 0, "GoBack": 2, "SID": 18051, "NameZh": "Dalin (Cijia Rd. Section 4)", "RouteId": 8032, "SeqNo": 55, "Terminal": 0, "DistrictId": 1, "Latitude": 22.95954, "Longitude": 120.51578, "IVRNo": 10169, "EXTVoiceNo": 20087, "traveltime": 0, "holidayTraveltime": 0}, {"Id": "1834", "pgp": 0, "GoBack": 2, "SID": 18052, "NameZh": "Cijia 2nd Rd.", "RouteId": 8032, "SeqNo": 56, "Terminal": 0, "DistrictId": 1, "Latitude": 22.96078, "Longitude": 120.51791, "IVRNo": 11834, "EXTVoiceNo": 11834, "traveltime": 0, "holidayTraveltime": 0}, {"Id": "3313", "pgp": 0, "GoBack": 2, "SID": 18053, "NameZh": "Cihzihliao", "RouteId": 8032, "SeqNo": 57, "Terminal": 0, "DistrictId": 1, "Latitude": 22.961253, "Longitude": 120.528647, "IVRNo": 10874, "EXTVoiceNo": 13313, "traveltime": 0, "holidayTraveltime": 0}, {"Id": "3311", "pgp": 0, "GoBack": 2, "SID": 18054, "NameZh": "Shanlin Farmers` Association", "RouteId": 8032, "SeqNo": 58, "Terminal": 0, "DistrictId": 1, "Latitude": 22.96433, "Longitude": 120.53214, "IVRNo": 10854, "EXTVoiceNo": 13311, "traveltime": 0, "holidayTraveltime": 0}, {"Id": "0233", "pgp": 0, "GoBack": 2, "SID": 18055, "NameZh": "Yuemei", "RouteId": 8032, "SeqNo": 59, "Terminal": 0, "DistrictId": 1, "Latitude": 22.96754, "Longitude": 120.5337, "IVRNo": 10461, "EXTVoiceNo": 20233, "traveltime": 0, "holidayTraveltime": 0}, {"Id": "4039", "pgp": 0, "GoBack": 2, "SID": 18056, "NameZh": "Taiwan Power Company (Shanlin)", "RouteId": 8032, "SeqNo": 60, "Terminal": 0, "DistrictId": 1, "Latitude": 22.96992, "Longitude": 120.536115, "IVRNo": 4039, "EXTVoiceNo": 4039, "traveltime": 0, "holidayTraveltime": 0}, {"Id": "3310", "pgp": 0, "GoBack": 2, "SID": 18057, "NameZh": "Shanlin Junior High School", "RouteId": 8032, "SeqNo": 61, "Terminal": 0, "DistrictId": 1, "Latitude": 22.97074, "Longitude": 120.53877, "IVRNo": 10852, "EXTVoiceNo": 13310, "traveltime": 0, "holidayTraveltime": 0}, {"Id": "3309", "pgp": 0, "GoBack": 2, "SID": 15583, "NameZh": "Shanlin District Office (Health Center)", "RouteId": 8032, "SeqNo": 62, "Terminal": 0, "DistrictId": 1, "Latitude": 22.97191, "Longitude": 120.53996, "IVRNo": 13309, "EXTVoiceNo": 13309, "traveltime": 0, "holidayTraveltime": 0}, {"Id": "6099", "pgp": 0, "GoBack": 2, "SID": 12607, "NameZh": "Shanlin Police Station", "RouteId": 8032, "SeqNo": 63, "Terminal": 0, "DistrictId": 1, "Latitude": 22.974386, "Longitude": 120.541646, "IVRNo": 13308, "EXTVoiceNo": 26099, "traveltime": 0, "holidayTraveltime": 0}, {"Id": "6073", "pgp": 0, "GoBack": 2, "SID": 14026, "NameZh": "Shangping Village", "RouteId": 8032, "SeqNo": 64, "Terminal": 0, "DistrictId": 1, "Latitude": 22.976241, "Longitude": 120.542885, "IVRNo": 9818, "EXTVoiceNo": 26073, "traveltime": 0, "holidayTraveltime": 0}, {"Id": "3332", "pgp": 0, "GoBack": 2, "SID": 18061, "NameZh": "Nanhe", "RouteId": 8032, "SeqNo": 65, "Terminal": 0, "DistrictId": 1, "Latitude": 22.97769, "Longitude": 120.54453, "IVRNo": 11074, "EXTVoiceNo": 13332, "traveltime": 0, "holidayTraveltime": 0}, {"Id": "1246", "pgp": 0, "GoBack": 2, "SID": 18062, "NameZh": "Hudi Bridge (Shanlin)", "RouteId": 8032, "SeqNo": 66, "Terminal": 0, "DistrictId": 1, "Latitude": 22.98129, "Longitude": 120.55347, "IVRNo": 1246, "EXTVoiceNo": 1246, "traveltime": 0, "holidayTraveltime": 0}, {"Id": "3406", "pgp": 0, "GoBack": 2, "SID": 18063, "NameZh": "Edingliao", "RouteId": 8032, "SeqNo": 67, "Terminal": 0, "DistrictId": 1, "Latitude": 22.98286, "Longitude": 120.55574, "IVRNo": 1253, "EXTVoiceNo": 13406, "traveltime": 0, "holidayTraveltime": 0}, {"Id": "3392", "pgp": 0, "GoBack": 2, "SID": 18064, "NameZh": "Sinaidingliao", "RouteId": 8032, "SeqNo": 68, "Terminal": 0, "DistrictId": 1, "Latitude": 22.98454, "Longitude": 120.55741, "IVRNo": 11660, "EXTVoiceNo": 13392, "traveltime": 0, "holidayTraveltime": 0}, {"Id": "3385", "pgp": 0, "GoBack": 2, "SID": 18065, "NameZh": "Sinjhuang Elementary School", "RouteId": 8032, "SeqNo": 69, "Terminal": 0, "DistrictId": 1, "Latitude": 22.9871, "Longitude": 120.56155, "IVRNo": 11624, "EXTVoiceNo": 13385, "traveltime": 0, "holidayTraveltime": 0}, {"Id": "1252", "pgp": 0, "GoBack": 2, "SID": 18066, "NameZh": "Yirong", "RouteId": 8032, "SeqNo": 70, "Terminal": 0, "DistrictId": 1, "Latitude": 22.98783, "Longitude": 120.56356, "IVRNo": 11252, "EXTVoiceNo": 11252, "traveltime": 0, "holidayTraveltime": 0}, {"Id": "1075", "pgp": 0, "GoBack": 2, "SID": 18067, "NameZh": "Jhong St.", "RouteId": 8032, "SeqNo": 71, "Terminal": 0, "DistrictId": 1, "Latitude": 22.98858, "Longitude": 120.56495, "IVRNo": 10311, "EXTVoiceNo": 21075, "traveltime": 0, "holidayTraveltime": 0}, {"Id": "0888", "pgp": 0, "GoBack": 2, "SID": 18068, "NameZh": "Cishan Sinjhuang", "RouteId": 8032, "SeqNo": 72, "Terminal": 0, "DistrictId": 1, "Latitude": 22.98958, "Longitude": 120.56624, "IVRNo": 813, "EXTVoiceNo": 888, "traveltime": 0, "holidayTraveltime": 0}, {"Id": "1266", "pgp": 0, "GoBack": 2, "SID": 18069, "NameZh": "Chating", "RouteId": 8032, "SeqNo": 73, "Terminal": 0, "DistrictId": 1, "Latitude": 22.99355, "Longitude": 120.56889, "IVRNo": 11266, "EXTVoiceNo": 11266, "traveltime": 0, "holidayTraveltime": 0}, {"Id": "0132", "pgp": 0, "GoBack": 2, "SID": 18070, "NameZh": "Shanwei", "RouteId": 8032, "SeqNo": 74, "Terminal": 0, "DistrictId": 1, "Latitude": 22.99736, "Longitude": 120.57147, "IVRNo": 10251, "EXTVoiceNo": 20132, "traveltime": 0, "holidayTraveltime": 0}, {"Id": "0124", "pgp": 0, "GoBack": 2, "SID": 18071, "NameZh": "Siaofenwei", "RouteId": 8032, "SeqNo": 75, "Terminal": 0, "DistrictId": 1, "Latitude": 22.999139, "Longitude": 120.573266, "IVRNo": 10241, "EXTVoiceNo": 20124, "traveltime": 0, "holidayTraveltime": 0}, {"Id": "0889", "pgp": 0, "GoBack": 2, "SID": 18072, "NameZh": "Cishan Sincuo", "RouteId": 8032, "SeqNo": 76, "Terminal": 0, "DistrictId": 1, "Latitude": 23.00367, "Longitude": 120.57548, "IVRNo": 889, "EXTVoiceNo": 889, "traveltime": 0, "holidayTraveltime": 0}, {"Id": "0245", "pgp": 0, "GoBack": 2, "SID": 18073, "NameZh": "Volcano", "RouteId": 8032, "SeqNo": 77, "Terminal": 0, "DistrictId": 1, "Latitude": 23.01011, "Longitude": 120.57827, "IVRNo": 10491, "EXTVoiceNo": 20245, "traveltime": 0, "holidayTraveltime": 0}, {"Id": "0246", "pgp": 0, "GoBack": 2, "SID": 18074, "NameZh": "Crater", "RouteId": 8032, "SeqNo": 78, "Terminal": 0, "DistrictId": 1, "Latitude": 23.01817, "Longitude": 120.57205, "IVRNo": 10493, "EXTVoiceNo": 20246, "traveltime": 0, "holidayTraveltime": 0}, {"Id": "0039", "pgp": 0, "GoBack": 2, "SID": 18075, "NameZh": "Siashihjhangli", "RouteId": 8032, "SeqNo": 79, "Terminal": 0, "DistrictId": 1, "Latitude": 23.01973, "Longitude": 120.5674, "IVRNo": 10088, "EXTVoiceNo": 20039, "traveltime": 0, "holidayTraveltime": 0}, {"Id": "0026", "pgp": 0, "GoBack": 2, "SID": 18076, "NameZh": "Shihjhangli", "RouteId": 8032, "SeqNo": 80, "Terminal": 0, "DistrictId": 1, "Latitude": 23.02258, "Longitude": 120.56292, "IVRNo": 10062, "EXTVoiceNo": 20026, "traveltime": 0, "holidayTraveltime": 0}, {"Id": "3389", "pgp": 0, "GoBack": 2, "SID": 18077, "NameZh": "Sindingpu", "RouteId": 8032, "SeqNo": 81, "Terminal": 0, "DistrictId": 1, "Latitude": 23.02346, "Longitude": 120.56206, "IVRNo": 11646, "EXTVoiceNo": 13389, "traveltime": 0, "holidayTraveltime": 0}, {"Id": "3366", "pgp": 0, "GoBack": 2, "SID": 18078, "NameZh": "Dingpu", "RouteId": 8032, "SeqNo": 82, "Terminal": 0, "DistrictId": 1, "Latitude": 23.02801, "Longitude": 120.56283, "IVRNo": 11449, "EXTVoiceNo": 13366, "traveltime": 0, "holidayTraveltime": 0}, {"Id": "0898", "pgp": 0, "GoBack": 2, "SID": 18079, "NameZh": "Guanpu", "RouteId": 8032, "SeqNo": 83, "Terminal": 0, "DistrictId": 1, "Latitude": 23.03264, "Longitude": 120.56174, "IVRNo": 10898, "EXTVoiceNo": 10898, "traveltime": 0, "holidayTraveltime": 0}, {"Id": "0020", "pgp": 0, "GoBack": 2, "SID": 18080, "NameZh": "Bajhang Li", "RouteId": 8032, "SeqNo": 84, "Terminal": 0, "DistrictId": 1, "Latitude": 23.03846, "Longitude": 120.55225, "IVRNo": 10041, "EXTVoiceNo": 20020, "traveltime": 0, "holidayTraveltime": 0}, {"Id": "0890", "pgp": 0, "GoBack": 2, "SID": 18081, "NameZh": "Chishan Water Plant", "RouteId": 8032, "SeqNo": 85, "Terminal": 0, "DistrictId": 1, "Latitude": 23.0427, "Longitude": 120.55011, "IVRNo": 815, "EXTVoiceNo": 890, "traveltime": 0, "holidayTraveltime": 0}, {"Id": "3362", "pgp": 0, "GoBack": 2, "SID": 18082, "NameZh": "Paozihliao", "RouteId": 8032, "SeqNo": 86, "Terminal": 0, "DistrictId": 1, "Latitude": 23.04847, "Longitude": 120.5545, "IVRNo": 13362, "EXTVoiceNo": 13362, "traveltime": 0, "holidayTraveltime": 0}, {"Id": "3443", "pgp": 0, "GoBack": 2, "SID": 18083, "NameZh": "Baolong", "RouteId": 8032, "SeqNo": 87, "Terminal": 0, "DistrictId": 1, "Latitude": 23.05066, "Longitude": 120.5574, "IVRNo": 12083, "EXTVoiceNo": 13443, "traveltime": 0, "holidayTraveltime": 0}, {"Id": "0256", "pgp": 0, "GoBack": 2, "SID": 18084, "NameZh": "Sianlin Lane", "RouteId": 8032, "SeqNo": 88, "Terminal": 0, "DistrictId": 1, "Latitude": 23.05725, "Longitude": 120.56045, "IVRNo": 10511, "EXTVoiceNo": 20256, "traveltime": 0, "holidayTraveltime": 0}, {"Id": "0069", "pgp": 0, "GoBack": 2, "SID": 18085, "NameZh": "Daciouyuan", "RouteId": 8032, "SeqNo": 89, "Terminal": 0, "DistrictId": 1, "Latitude": 23.05948, "Longitude": 120.56641, "IVRNo": 10143, "EXTVoiceNo": 20069, "traveltime": 0, "holidayTraveltime": 0}, {"Id": "0891", "pgp": 0, "GoBack": 2, "SID": 18086, "NameZh": "Tiancuo (Near Jiasian)", "RouteId": 8032, "SeqNo": 90, "Terminal": 0, "DistrictId": 1, "Latitude": 23.06348, "Longitude": 120.57251, "IVRNo": 817, "EXTVoiceNo": 891, "traveltime": 0, "holidayTraveltime": 0}, {"Id": "3393", "pgp": 0, "GoBack": 2, "SID": 18087, "NameZh": "Sinrong Lane", "RouteId": 8032, "SeqNo": 91, "Terminal": 0, "DistrictId": 1, "Latitude": 23.07028, "Longitude": 120.5787, "IVRNo": 11662, "EXTVoiceNo": 13393, "traveltime": 0, "holidayTraveltime": 0}, {"Id": "9371", "pgp": 0, "GoBack": 2, "SID": 2615, "NameZh": "Conservation Center", "RouteId": 8032, "SeqNo": 92, "Terminal": 0, "DistrictId": 1, "Latitude": 23.074575, "Longitude": 120.581174, "IVRNo": 9056, "EXTVoiceNo": 9371, "traveltime": 0, "holidayTraveltime": 0}, {"Id": "0376", "pgp": 0, "GoBack": 2, "SID": 18088, "NameZh": "Gongguan (Jiasian)", "RouteId": 8032, "SeqNo": 93, "Terminal": 0, "DistrictId": 1, "Latitude": 23.07728, "Longitude": 120.58241, "IVRNo": 456, "EXTVoiceNo": 376, "traveltime": 0, "holidayTraveltime": 0}, {"Id": "0346", "pgp": 0, "GoBack": 2, "SID": 18089, "NameZh": "Jiasian Bridge", "RouteId": 8032, "SeqNo": 94, "Terminal": 0, "DistrictId": 1, "Latitude": 23.07995, "Longitude": 120.58378, "IVRNo": 10705, "EXTVoiceNo": 20346, "traveltime": 0, "holidayTraveltime": 0}, {"Id": "0345", "pgp": 0, "GoBack": 2, "SID": 18090, "NameZh": "Jiasian Station", "RouteId": 8032, "SeqNo": 95, "Terminal": 1, "DistrictId": 1, "Latitude": 23.08259, "Longitude": 120.58777, "IVRNo": 10704, "EXTVoiceNo": 20345, "traveltime": 0, "holidayTraveltime": 0}], "zh": [{"Id": "0345", "pgp": 0, "GoBack": 1, "SID": 18091, "NameZh": "\u7532\u4ed9\u7ad9", "RouteId": 8032, "SeqNo": 1, "Terminal": 0, "DistrictId": 1, "Latitude": 23.08259, "Longitude": 120.58777, "IVRNo": 10704, "EXTVoiceNo": 20345, "traveltime": 0, "holidayTraveltime": 0}, {"Id": "0346", "pgp": 0, "GoBack": 1, "SID": 18092, "NameZh": "\u7532\u4ed9\u6a4b", "RouteId": 8032, "SeqNo": 2, "Terminal": 0, "DistrictId": 1, "Latitude": 23.0799, "Longitude": 120.58358, "IVRNo": 10705, "EXTVoiceNo": 20346, "traveltime": 0, "holidayTraveltime": 0}, {"Id": "0376", "pgp": 0, "GoBack": 1, "SID": 18093, "NameZh": "\u516c\u9928(\u7532\u4ed9)", "RouteId": 8032, "SeqNo": 3, "Terminal": 0, "DistrictId": 1, "Latitude": 23.07677, "Longitude": 120.58215, "IVRNo": 456, "EXTVoiceNo": 376, "traveltime": 0, "holidayTraveltime": 0}, {"Id": "9371", "pgp": 0, "GoBack": 1, "SID": 2615, "NameZh": "\u990a\u8b77\u4e2d\u5fc3", "RouteId": 8032, "SeqNo": 4, "Terminal": 0, "DistrictId": 1, "Latitude": 23.074575, "Longitude": 120.581174, "IVRNo": 9056, "EXTVoiceNo": 9371, "traveltime": 0, "holidayTraveltime": 0}, {"Id": "3393", "pgp": 0, "GoBack": 1, "SID": 18094, "NameZh": "\u65b0\u69ae\u5df7", "RouteId": 8032, "SeqNo": 5, "Terminal": 0, "DistrictId": 1, "Latitude": 23.07029, "Longitude": 120.5785, "IVRNo": 11662, "EXTVoiceNo": 13393, "traveltime": 0, "holidayTraveltime": 0}, {"Id": "0891", "pgp": 0, "GoBack": 1, "SID": 18095, "NameZh": "\u7530\u539d(\u8fd1\u7532\u4ed9)", "RouteId": 8032, "SeqNo": 6, "Terminal": 0, "DistrictId": 1, "Latitude": 23.06387, "Longitude": 120.57262, "IVRNo": 817, "EXTVoiceNo": 891, "traveltime": 0, "holidayTraveltime": 0}, {"Id": "0069", "pgp": 0, "GoBack": 1, "SID": 18096, "NameZh": "\u5927\u4e18\u5712", "RouteId": 8032, "SeqNo": 7, "Terminal": 0, "DistrictId": 1, "Latitude": 23.05959, "Longitude": 120.56629, "IVRNo": 10143, "EXTVoiceNo": 20069, "traveltime": 0, "holidayTraveltime": 0}, {"Id": "0256", "pgp": 0, "GoBack": 1, "SID": 18097, "NameZh": "\u4ed9\u6797\u5df7", "RouteId": 8032, "SeqNo": 8, "Terminal": 0, "DistrictId": 1, "Latitude": 23.05776, "Longitude": 120.56086, "IVRNo": 10511, "EXTVoiceNo": 20256, "traveltime": 0, "holidayTraveltime": 0}, {"Id": "3443", "pgp": 0, "GoBack": 1, "SID": 18098, "NameZh": "\u5bf6\u9686", "RouteId": 8032, "SeqNo": 9, "Terminal": 0, "DistrictId": 1, "Latitude": 23.05069, "Longitude": 120.5573, "IVRNo": 12083, "EXTVoiceNo": 13443, "traveltime": 0, "holidayTraveltime": 0}, {"Id": "3362", "pgp": 0, "GoBack": 1, "SID": 18099, "NameZh": "\u530f\u5b50\u5bee", "RouteId": 8032, "SeqNo": 10, "Terminal": 0, "DistrictId": 1, "Latitude": 23.04842, "Longitude": 120.5544, "IVRNo": 13362, "EXTVoiceNo": 13362, "traveltime": 0, "holidayTraveltime": 0}, {"Id": "0890", "pgp": 0, "GoBack": 1, "SID": 18100, "NameZh": "\u65d7\u5c71\u6c34\u5ee0", "RouteId": 8032, "SeqNo": 11, "Terminal": 0, "DistrictId": 1, "Latitude": 23.04279, "Longitude": 120.55004, "IVRNo": 815, "EXTVoiceNo": 890, "traveltime": 0, "holidayTraveltime": 0}, {"Id": "0020", "pgp": 0, "GoBack": 1, "SID": 18101, "NameZh": "\u516b\u5f35\u7281", "RouteId": 8032, "SeqNo": 12, "Terminal": 0, "DistrictId": 1, "Latitude": 23.03835, "Longitude": 120.55233, "IVRNo": 10041, "EXTVoiceNo": 20020, "traveltime": 0, "holidayTraveltime": 0}, {"Id": "0898", "pgp": 0, "GoBack": 1, "SID": 18102, "NameZh": "\u5b98\u57d4", "RouteId": 8032, "SeqNo": 13, "Terminal": 0, "DistrictId": 1, "Latitude": 23.03237, "Longitude": 120.56197, "IVRNo": 10898, "EXTVoiceNo": 10898, "traveltime": 0, "holidayTraveltime": 0}, {"Id": "3366", "pgp": 0, "GoBack": 1, "SID": 18103, "NameZh": "\u9802\u57d4", "RouteId": 8032, "SeqNo": 14, "Terminal": 0, "DistrictId": 1, "Latitude": 23.02818, "Longitude": 120.56276, "IVRNo": 11449, "EXTVoiceNo": 13366, "traveltime": 0, "holidayTraveltime": 0}, {"Id": "3389", "pgp": 0, "GoBack": 1, "SID": 18104, "NameZh": "\u65b0\u9802\u57d4", "RouteId": 8032, "SeqNo": 15, "Terminal": 0, "DistrictId": 1, "Latitude": 23.02341, "Longitude": 120.56203, "IVRNo": 11646, "EXTVoiceNo": 13389, "traveltime": 0, "holidayTraveltime": 0}, {"Id": "0026", "pgp": 0, "GoBack": 1, "SID": 18105, "NameZh": "\u5341\u5f35\u7281", "RouteId": 8032, "SeqNo": 16, "Terminal": 0, "DistrictId": 1, "Latitude": 23.02231, "Longitude": 120.5631, "IVRNo": 10062, "EXTVoiceNo": 20026, "traveltime": 0, "holidayTraveltime": 0}, {"Id": "0039", "pgp": 0, "GoBack": 1, "SID": 18106, "NameZh": "\u4e0b\u5341\u5f35\u7281", "RouteId": 8032, "SeqNo": 17, "Terminal": 0, "DistrictId": 1, "Latitude": 23.01974, "Longitude": 120.56764, "IVRNo": 10088, "EXTVoiceNo": 20039, "traveltime": 0, "holidayTraveltime": 0}, {"Id": "0246", "pgp": 0, "GoBack": 1, "SID": 18107, "NameZh": "\u706b\u5c71\u5751", "RouteId": 8032, "SeqNo": 18, "Terminal": 0, "DistrictId": 1, "Latitude": 23.01801, "Longitude": 120.5721, "IVRNo": 10493, "EXTVoiceNo": 20246, "traveltime": 0, "holidayTraveltime": 0}, {"Id": "0245", "pgp": 0, "GoBack": 1, "SID": 18108, "NameZh": "\u706b\u5c71", "RouteId": 8032, "SeqNo": 19, "Terminal": 0, "DistrictId": 1, "Latitude": 23.01026, "Longitude": 120.57812, "IVRNo": 10491, "EXTVoiceNo": 20245, "traveltime": 0, "holidayTraveltime": 0}, {"Id": "0889", "pgp": 0, "GoBack": 1, "SID": 18109, "NameZh": "\u65d7\u5c71\u65b0\u539d", "RouteId": 8032, "SeqNo": 20, "Terminal": 0, "DistrictId": 1, "Latitude": 23.0037, "Longitude": 120.57538, "IVRNo": 889, "EXTVoiceNo": 889, "traveltime": 0, "holidayTraveltime": 0}, {"Id": "0124", "pgp": 0, "GoBack": 1, "SID": 18110, "NameZh": "\u5c0f\u4efd\u5c3e", "RouteId": 8032, "SeqNo": 21, "Terminal": 0, "DistrictId": 1, "Latitude": 22.99923, "Longitude": 120.57324, "IVRNo": 10241, "EXTVoiceNo": 20124, "traveltime": 0, "holidayTraveltime": 0}, {"Id": "0132", "pgp": 0, "GoBack": 1, "SID": 18111, "NameZh": "\u5c71\u5c3e", "RouteId": 8032, "SeqNo": 22, "Terminal": 0, "DistrictId": 1, "Latitude": 22.99731, "Longitude": 120.57136, "IVRNo": 10251, "EXTVoiceNo": 20132, "traveltime": 0, "holidayTraveltime": 0}, {"Id": "1266", "pgp": 0, "GoBack": 1, "SID": 18112, "NameZh": "\u8336\u4ead", "RouteId": 8032, "SeqNo": 23, "Terminal": 0, "DistrictId": 1, "Latitude": 22.99359, "Longitude": 120.56879, "IVRNo": 11266, "EXTVoiceNo": 11266, "traveltime": 0, "holidayTraveltime": 0}, {"Id": "0888", "pgp": 0, "GoBack": 1, "SID": 18113, "NameZh": "\u65d7\u5c71\u65b0\u5e84", "RouteId": 8032, "SeqNo": 24, "Terminal": 0, "DistrictId": 1, "Latitude": 22.989697, "Longitude": 120.566095, "IVRNo": 813, "EXTVoiceNo": 888, "traveltime": 0, "holidayTraveltime": 0}, {"Id": "1075", "pgp": 0, "GoBack": 1, "SID": 18114, "NameZh": "\u4e2d\u8857", "RouteId": 8032, "SeqNo": 25, "Terminal": 0, "DistrictId": 1, "Latitude": 22.98858, "Longitude": 120.56488, "IVRNo": 10311, "EXTVoiceNo": 21075, "traveltime": 0, "holidayTraveltime": 0}, {"Id": "1252", "pgp": 0, "GoBack": 1, "SID": 18115, "NameZh": "\u76ca\u69ae", "RouteId": 8032, "SeqNo": 26, "Terminal": 0, "DistrictId": 1, "Latitude": 22.98792, "Longitude": 120.56354, "IVRNo": 11252, "EXTVoiceNo": 11252, "traveltime": 0, "holidayTraveltime": 0}, {"Id": "3385", "pgp": 0, "GoBack": 1, "SID": 18116, "NameZh": "\u65b0\u5e84\u570b\u5c0f", "RouteId": 8032, "SeqNo": 27, "Terminal": 0, "DistrictId": 1, "Latitude": 22.98727, "Longitude": 120.56174, "IVRNo": 11624, "EXTVoiceNo": 13385, "traveltime": 0, "holidayTraveltime": 0}, {"Id": "3392", "pgp": 0, "GoBack": 1, "SID": 18117, "NameZh": "\u65b0\u9698\u4e01\u5bee", "RouteId": 8032, "SeqNo": 28, "Terminal": 0, "DistrictId": 1, "Latitude": 22.98431, "Longitude": 120.55706, "IVRNo": 11660, "EXTVoiceNo": 13392, "traveltime": 0, "holidayTraveltime": 0}, {"Id": "3406", "pgp": 0, "GoBack": 1, "SID": 18118, "NameZh": "\u9698\u4e01\u5bee", "RouteId": 8032, "SeqNo": 29, "Terminal": 0, "DistrictId": 1, "Latitude": 22.983034, "Longitude": 120.555779, "IVRNo": 1253, "EXTVoiceNo": 13406, "traveltime": 0, "holidayTraveltime": 0}, {"Id": "1246", "pgp": 0, "GoBack": 1, "SID": 18119, "NameZh": "\u6e56\u5e95\u6a4b(\u6749\u6797)", "RouteId": 8032, "SeqNo": 30, "Terminal": 0, "DistrictId": 1, "Latitude": 22.98144, "Longitude": 120.55344, "IVRNo": 1246, "EXTVoiceNo": 1246, "traveltime": 0, "holidayTraveltime": 0}, {"Id": "3332", "pgp": 0, "GoBack": 1, "SID": 18120, "NameZh": "\u5357\u6cb3", "RouteId": 8032, "SeqNo": 31, "Terminal": 0, "DistrictId": 1, "Latitude": 22.97786, "Longitude": 120.54456, "IVRNo": 11074, "EXTVoiceNo": 13332, "traveltime": 0, "holidayTraveltime": 0}, {"Id": "6073", "pgp": 0, "GoBack": 1, "SID": 13933, "NameZh": "\u4e0a\u5e73\u91cc", "RouteId": 8032, "SeqNo": 32, "Terminal": 0, "DistrictId": 1, "Latitude": 22.97615, "Longitude": 120.54286, "IVRNo": 9818, "EXTVoiceNo": 26073, "traveltime": 0, "holidayTraveltime": 0}, {"Id": "6099", "pgp": 0, "GoBack": 1, "SID": 12618, "NameZh": "\u6749\u6797\u5206\u99d0\u6240", "RouteId": 8032, "SeqNo": 33, "Terminal": 0, "DistrictId": 1, "Latitude": 22.97454, "Longitude": 120.541725, "IVRNo": 13308, "EXTVoiceNo": 26099, "traveltime": 0, "holidayTraveltime": 0}, {"Id": "3309", "pgp": 0, "GoBack": 1, "SID": 15602, "NameZh": "\u6749\u6797\u5340\u516c\u6240(\u885b\u751f\u6240)", "RouteId": 8032, "SeqNo": 34, "Terminal": 0, "DistrictId": 1, "Latitude": 22.9721, "Longitude": 120.53993, "IVRNo": 13309, "EXTVoiceNo": 13309, "traveltime": 0, "holidayTraveltime": 0}, {"Id": "3310", "pgp": 0, "GoBack": 1, "SID": 18124, "NameZh": "\u6749\u6797\u570b\u4e2d", "RouteId": 8032, "SeqNo": 35, "Terminal": 0, "DistrictId": 1, "Latitude": 22.97079, "Longitude": 120.53863, "IVRNo": 10852, "EXTVoiceNo": 13310, "traveltime": 0, "holidayTraveltime": 0}, {"Id": "4039", "pgp": 0, "GoBack": 1, "SID": 18125, "NameZh": "\u96fb\u529b\u516c\u53f8(\u6749\u6797)", "RouteId": 8032, "SeqNo": 36, "Terminal": 0, "DistrictId": 1, "Latitude": 22.97001, "Longitude": 120.53609, "IVRNo": 4039, "EXTVoiceNo": 4039, "traveltime": 0, "holidayTraveltime": 0}, {"Id": "0233", "pgp": 0, "GoBack": 1, "SID": 18126, "NameZh": "\u6708\u7709", "RouteId": 8032, "SeqNo": 37, "Terminal": 0, "DistrictId": 1, "Latitude": 22.96748, "Longitude": 120.53365, "IVRNo": 10461, "EXTVoiceNo": 20233, "traveltime": 0, "holidayTraveltime": 0}, {"Id": "3311", "pgp": 0, "GoBack": 1, "SID": 18127, "NameZh": "\u6749\u6797\u8fb2\u6703", "RouteId": 8032, "SeqNo": 38, "Terminal": 0, "DistrictId": 1, "Latitude": 22.96433, "Longitude": 120.53207, "IVRNo": 10854, "EXTVoiceNo": 13311, "traveltime": 0, "holidayTraveltime": 0}, {"Id": "3313", "pgp": 0, "GoBack": 1, "SID": 18128, "NameZh": "\u523a\u4ed4\u5bee", "RouteId": 8032, "SeqNo": 39, "Terminal": 0, "DistrictId": 1, "Latitude": 22.96138, "Longitude": 120.52864, "IVRNo": 10874, "EXTVoiceNo": 13313, "traveltime": 0, "holidayTraveltime": 0}, {"Id": "1834", "pgp": 0, "GoBack": 1, "SID": 18129, "NameZh": "\u65d7\u7532\u4e8c\u8def", "RouteId": 8032, "SeqNo": 40, "Terminal": 0, "DistrictId": 1, "Latitude": 22.96084, "Longitude": 120.51788, "IVRNo": 11834, "EXTVoiceNo": 11834, "traveltime": 0, "holidayTraveltime": 0}, {"Id": "0087", "pgp": 0, "GoBack": 1, "SID": 18130, "NameZh": "\u5927\u6797(\u65d7\u7532\u8def\u56db\u6bb5)", "RouteId": 8032, "SeqNo": 41, "Terminal": 0, "DistrictId": 1, "Latitude": 22.959592, "Longitude": 120.515662, "IVRNo": 10169, "EXTVoiceNo": 20087, "traveltime": 0, "holidayTraveltime": 0}, {"Id": "3347", "pgp": 0, "GoBack": 1, "SID": 18131, "NameZh": "\u57d4\u59dc\u6797", "RouteId": 8032, "SeqNo": 42, "Terminal": 0, "DistrictId": 1, "Latitude": 22.9491, "Longitude": 120.51094, "IVRNo": 11222, "EXTVoiceNo": 13347, "traveltime": 0, "holidayTraveltime": 0}, {"Id": "0164", "pgp": 0, "GoBack": 1, "SID": 18132, "NameZh": "\u4e2d\u9698", "RouteId": 8032, "SeqNo": 43, "Terminal": 0, "DistrictId": 1, "Latitude": 22.93937, "Longitude": 120.50656, "IVRNo": 10313, "EXTVoiceNo": 20164, "traveltime": 0, "holidayTraveltime": 0}, {"Id": "3381", "pgp": 0, "GoBack": 1, "SID": 18133, "NameZh": "\u5713\u6f6d", "RouteId": 8032, "SeqNo": 44, "Terminal": 0, "DistrictId": 1, "Latitude": 22.93259, "Longitude": 120.50328, "IVRNo": 11580, "EXTVoiceNo": 13381, "traveltime": 0, "holidayTraveltime": 0}, {"Id": "0882", "pgp": 0, "GoBack": 1, "SID": 18134, "NameZh": "\u5713\u6f6d\u8fb2\u5834", "RouteId": 8032, "SeqNo": 45, "Terminal": 0, "DistrictId": 1, "Latitude": 22.92932, "Longitude": 120.50185, "IVRNo": 809, "EXTVoiceNo": 882, "traveltime": 0, "holidayTraveltime": 0}, {"Id": "1577", "pgp": 0, "GoBack": 1, "SID": 18135, "NameZh": "\u5713\u5bcc\u570b\u4e2d", "RouteId": 8032, "SeqNo": 46, "Terminal": 0, "DistrictId": 1, "Latitude": 22.92815, "Longitude": 120.50092, "IVRNo": 9747, "EXTVoiceNo": 11577, "traveltime": 0, "holidayTraveltime": 0}, {"Id": "3382", "pgp": 0, "GoBack": 1, "SID": 18136, "NameZh": "\u5713\u6f6d\u8fb2\u6703", "RouteId": 8032, "SeqNo": 47, "Terminal": 0, "DistrictId": 1, "Latitude": 22.92696, "Longitude": 120.50008, "IVRNo": 13382, "EXTVoiceNo": 13382, "traveltime": 0, "holidayTraveltime": 0}, {"Id": "0056", "pgp": 0, "GoBack": 1, "SID": 18138, "NameZh": "\u53e3\u9698", "RouteId": 8032, "SeqNo": 48, "Terminal": 0, "DistrictId": 1, "Latitude": 22.9219, "Longitude": 120.49682, "IVRNo": 10124, "EXTVoiceNo": 20056, "traveltime": 0, "holidayTraveltime": 0}, {"Id": "0057", "pgp": 0, "GoBack": 1, "SID": 18139, "NameZh": "\u53e3\u9698\u5e84\u5167", "RouteId": 8032, "SeqNo": 49, "Terminal": 0, "DistrictId": 1, "Latitude": 22.92032, "Longitude": 120.4962, "IVRNo": 10126, "EXTVoiceNo": 20057, "traveltime": 0, "holidayTraveltime": 0}, {"Id": "1575", "pgp": 0, "GoBack": 1, "SID": 18140, "NameZh": "\u5713\u5bcc\u91cc", "RouteId": 8032, "SeqNo": 50, "Terminal": 0, "DistrictId": 1, "Latitude": 22.91674, "Longitude": 120.49473, "IVRNo": 11575, "EXTVoiceNo": 11575, "traveltime": 0, "holidayTraveltime": 0}, {"Id": "9372", "pgp": 0, "GoBack": 1, "SID": 2611, "NameZh": "\u9f8d\u5c71\u6797\u793e\u5340", "RouteId": 8032, "SeqNo": 51, "Terminal": 0, "DistrictId": 1, "Latitude": 22.912333, "Longitude": 120.493057, "IVRNo": 9054, "EXTVoiceNo": 9372, "traveltime": 0, "holidayTraveltime": 0}, {"Id": "0200", "pgp": 0, "GoBack": 1, "SID": 18141, "NameZh": "\u516d\u5f35\u7281", "RouteId": 8032, "SeqNo": 52, "Terminal": 0, "DistrictId": 1, "Latitude": 22.90897, "Longitude": 120.49066, "IVRNo": 10391, "EXTVoiceNo": 20200, "traveltime": 0, "holidayTraveltime": 0}, {"Id": "3413", "pgp": 0, "GoBack": 1, "SID": 14049, "NameZh": "\u65d7\u5c71\u8fb2\u5de5", "RouteId": 8032, "SeqNo": 53, "Terminal": 0, "DistrictId": 1, "Latitude": 22.90194, "Longitude": 120.483244, "IVRNo": 1255, "EXTVoiceNo": 13413, "traveltime": 0, "holidayTraveltime": 0}, {"Id": "1828", "pgp": 0, "GoBack": 1, "SID": 18143, "NameZh": "\u65d7\u5c71\u5317\u7ad9", "RouteId": 8032, "SeqNo": 54, "Terminal": 0, "DistrictId": 1, "Latitude": 22.896043, "Longitude": 120.483457, "IVRNo": 9142, "EXTVoiceNo": 11828, "traveltime": 0, "holidayTraveltime": 0}, {"Id": "1197", "pgp": 0, "GoBack": 1, "SID": 18144, "NameZh": "\u4e2d\u83ef\u8def\u53e3(\u65d7)", "RouteId": 8032, "SeqNo": 55, "Terminal": 0, "DistrictId": 1, "Latitude": 22.89268, "Longitude": 120.48355, "IVRNo": 1180, "EXTVoiceNo": 21197, "traveltime": 0, "holidayTraveltime": 0}, {"Id": "9374", "pgp": 0, "GoBack": 1, "SID": 18145, "NameZh": "\u65d7\u5c71\u5e02\u5834", "RouteId": 8032, "SeqNo": 56, "Terminal": 0, "DistrictId": 1, "Latitude": 22.8899, "Longitude": 120.48332, "IVRNo": 9953, "EXTVoiceNo": 9374, "traveltime": 0, "holidayTraveltime": 0}, {"Id": "9718", "pgp": 0, "GoBack": 1, "SID": 18146, "NameZh": "\u5ef6\u5e73\u8def(\u65d7\u5c71\u5340\u516c\u6240)", "RouteId": 8032, "SeqNo": 57, "Terminal": 0, "DistrictId": 1, "Latitude": 22.88762, "Longitude": 120.48313, "IVRNo": 9718, "EXTVoiceNo": 9718, "traveltime": 0, "holidayTraveltime": 0}, {"Id": "3412", "pgp": 0, "GoBack": 1, "SID": 18147, "NameZh": "\u65d7\u5c71\u8f49\u904b\u7ad9", "RouteId": 8032, "SeqNo": 58, "Terminal": 0, "DistrictId": 1, "Latitude": 22.883651, "Longitude": 120.484555, "IVRNo": 9717, "EXTVoiceNo": 13412, "traveltime": 0, "holidayTraveltime": 0}, {"Id": "2114", "pgp": 0, "GoBack": 1, "SID": 18149, "NameZh": "\u5fb7\u660c\u8def(\u4e2d\u5b78\u8def\u53e3)", "RouteId": 8032, "SeqNo": 59, "Terminal": 0, "DistrictId": 1, "Latitude": 22.88162, "Longitude": 120.48203, "IVRNo": 2114, "EXTVoiceNo": 2114, "traveltime": 0, "holidayTraveltime": 0}, {"Id": "0168", "pgp": 0, "GoBack": 1, "SID": 16086, "NameZh": "\u4e2d\u5b78\u8def", "RouteId": 8032, "SeqNo": 60, "Terminal": 0, "DistrictId": 1, "Latitude": 22.88282, "Longitude": 120.47867, "IVRNo": 10321, "EXTVoiceNo": 20168, "traveltime": 0, "holidayTraveltime": 0}, {"Id": "3337", "pgp": 0, "GoBack": 1, "SID": 12453, "NameZh": "\u79cb\u6dbc\u5c71", "RouteId": 8032, "SeqNo": 61, "Terminal": 0, "DistrictId": 1, "Latitude": 22.87956, "Longitude": 120.47664, "IVRNo": 3258, "EXTVoiceNo": 13337, "traveltime": 0, "holidayTraveltime": 0}, {"Id": "3430", "pgp": 0, "GoBack": 1, "SID": 12622, "NameZh": "\u982d\u6797\u5df7\u53e3", "RouteId": 8032, "SeqNo": 62, "Terminal": 0, "DistrictId": 1, "Latitude": 22.87667, "Longitude": 120.47531, "IVRNo": 3273, "EXTVoiceNo": 13430, "traveltime": 0, "holidayTraveltime": 0}, {"Id": "1000", "pgp": 0, "GoBack": 1, "SID": 16090, "NameZh": "\u82b1\u65d7\u5c71\u838a", "RouteId": 8032, "SeqNo": 63, "Terminal": 0, "DistrictId": 1, "Latitude": 22.873129, "Longitude": 120.474145, "IVRNo": 11000, "EXTVoiceNo": 11000, "traveltime": 0, "holidayTraveltime": 0}, {"Id": "3417", "pgp": 0, "GoBack": 1, "SID": 16091, "NameZh": "\u65d7\u5357\u4e00\u8def", "RouteId": 8032, "SeqNo": 64, "Terminal": 0, "DistrictId": 1, "Latitude": 22.86984, "Longitude": 120.47295, "IVRNo": 11842, "EXTVoiceNo": 13417, "traveltime": 0, "holidayTraveltime": 0}, {"Id": "3315", "pgp": 0, "GoBack": 1, "SID": 16092, "NameZh": "\u548c\u660c", "RouteId": 8032, "SeqNo": 65, "Terminal": 0, "DistrictId": 1, "Latitude": 22.86462, "Longitude": 120.47055, "IVRNo": 10888, "EXTVoiceNo": 13315, "traveltime": 0, "holidayTraveltime": 0}, {"Id": "0984", "pgp": 0, "GoBack": 1, "SID": 16093, "NameZh": "\u6b66\u9e7f", "RouteId": 8032, "SeqNo": 66, "Terminal": 0, "DistrictId": 1, "Latitude": 22.86116, "Longitude": 120.46857, "IVRNo": 10984, "EXTVoiceNo": 10984, "traveltime": 0, "holidayTraveltime": 0}, {"Id": "3423", "pgp": 0, "GoBack": 1, "SID": 16094, "NameZh": "\u885b\u5149\u6751", "RouteId": 8032, "SeqNo": 67, "Terminal": 0, "DistrictId": 1, "Latitude": 22.85679, "Longitude": 120.46857, "IVRNo": 11935, "EXTVoiceNo": 13423, "traveltime": 0, "holidayTraveltime": 0}, {"Id": "0062", "pgp": 0, "GoBack": 1, "SID": 16095, "NameZh": "\u5927\u5c71", "RouteId": 8032, "SeqNo": 68, "Terminal": 0, "DistrictId": 1, "Latitude": 22.85314, "Longitude": 120.46789, "IVRNo": 10136, "EXTVoiceNo": 20062, "traveltime": 0, "holidayTraveltime": 0}, {"Id": "3460", "pgp": 0, "GoBack": 1, "SID": 12460, "NameZh": "\u6e05\u6c34\u5bfa(\u6eaa\u6d32)", "RouteId": 8032, "SeqNo": 69, "Terminal": 0, "DistrictId": 1, "Latitude": 22.8506, "Longitude": 120.46688, "IVRNo": 803, "EXTVoiceNo": 13460, "traveltime": 0, "holidayTraveltime": 0}, {"Id": "1704", "pgp": 0, "GoBack": 1, "SID": 16097, "NameZh": "\u6eaa\u6d32\u570b\u5c0f", "RouteId": 8032, "SeqNo": 70, "Terminal": 0, "DistrictId": 1, "Latitude": 22.84735, "Longitude": 120.46552, "IVRNo": 11704, "EXTVoiceNo": 11704, "traveltime": 0, "holidayTraveltime": 0}, {"Id": "1702", "pgp": 0, "GoBack": 1, "SID": 16098, "NameZh": "\u6eaa\u6d32", "RouteId": 8032, "SeqNo": 71, "Terminal": 0, "DistrictId": 1, "Latitude": 22.84269, "Longitude": 120.46421, "IVRNo": 11702, "EXTVoiceNo": 11702, "traveltime": 0, "holidayTraveltime": 0}, {"Id": "0129", "pgp": 0, "GoBack": 1, "SID": 2609, "NameZh": "7-11\u6eaa\u6d32\u9580\u5e02", "RouteId": 8032, "SeqNo": 72, "Terminal": 0, "DistrictId": 1, "Latitude": 22.839791, "Longitude": 120.463181, "IVRNo": 129, "EXTVoiceNo": 129, "traveltime": 0, "holidayTraveltime": 0}, {"Id": "0208", "pgp": 0, "GoBack": 1, "SID": 16100, "NameZh": "\u516c\u5712\u4ed4", "RouteId": 8032, "SeqNo": 73, "Terminal": 0, "DistrictId": 1, "Latitude": 22.83775, "Longitude": 120.46265, "IVRNo": 10402, "EXTVoiceNo": 20208, "traveltime": 0, "holidayTraveltime": 0}, {"Id": "0095", "pgp": 0, "GoBack": 1, "SID": 16101, "NameZh": "\u5927\u6d32\u570b\u4e2d", "RouteId": 8032, "SeqNo": 74, "Terminal": 0, "DistrictId": 1, "Latitude": 22.835888, "Longitude": 120.462384, "IVRNo": 10183, "EXTVoiceNo": 20095, "traveltime": 0, "holidayTraveltime": 0}, {"Id": "1606", "pgp": 0, "GoBack": 1, "SID": 16102, "NameZh": "\u65b0\u5149\u91cc", "RouteId": 8032, "SeqNo": 75, "Terminal": 0, "DistrictId": 1, "Latitude": 22.8323, "Longitude": 120.46258, "IVRNo": 11606, "EXTVoiceNo": 11606, "traveltime": 0, "holidayTraveltime": 0}, {"Id": "0076", "pgp": 0, "GoBack": 1, "SID": 7854, "NameZh": "\u5927\u7af9\u570d", "RouteId": 8032, "SeqNo": 76, "Terminal": 0, "DistrictId": 1, "Latitude": 22.82444, "Longitude": 120.46229, "IVRNo": 9148, "EXTVoiceNo": 20076, "traveltime": 0, "holidayTraveltime": 0}, {"Id": "0900", "pgp": 0, "GoBack": 1, "SID": 16104, "NameZh": "\u5c1a\u548c", "RouteId": 8032, "SeqNo": 77, "Terminal": 0, "DistrictId": 1, "Latitude": 22.8148, "Longitude": 120.46155, "IVRNo": 10900, "EXTVoiceNo": 10900, "traveltime": 0, "holidayTraveltime": 0}, {"Id": "3434", "pgp": 0, "GoBack": 1, "SID": 18168, "NameZh": "\u53e2\u4ed4\u5751", "RouteId": 8032, "SeqNo": 78, "Terminal": 0, "DistrictId": 1, "Latitude": 22.80936, "Longitude": 120.46149, "IVRNo": 13434, "EXTVoiceNo": 13434, "traveltime": 0, "holidayTraveltime": 0}, {"Id": "3333", "pgp": 0, "GoBack": 1, "SID": 16106, "NameZh": "\u5357\u52dd\u6e56", "RouteId": 8032, "SeqNo": 79, "Terminal": 0, "DistrictId": 1, "Latitude": 22.79996, "Longitude": 120.45902, "IVRNo": 11086, "EXTVoiceNo": 13333, "traveltime": 0, "holidayTraveltime": 0}, {"Id": "5005", "pgp": 0, "GoBack": 1, "SID": 16152, "NameZh": "\u69ae\u7e3d", "RouteId": 8032, "SeqNo": 80, "Terminal": 0, "DistrictId": 1, "Latitude": 22.677426, "Longitude": 120.322335, "IVRNo": 5005, "EXTVoiceNo": 5005, "traveltime": 0, "holidayTraveltime": 0}, {"Id": "5206", "pgp": 0, "GoBack": 1, "SID": 6184, "NameZh": "\u5927\u4e2d\u8def\u53e3(\u6c11\u65cf\u4e00\u8def)", "RouteId": 8032, "SeqNo": 81, "Terminal": 0, "DistrictId": 1, "Latitude": 22.677836, "Longitude": 120.31871, "IVRNo": 2210, "EXTVoiceNo": 5206, "traveltime": 0, "holidayTraveltime": 0}, {"Id": "8974", "pgp": 0, "GoBack": 1, "SID": 16915, "NameZh": "\u83dc\u516c\u8def\u53e3(\u6c11\u65cf\u4e00\u8def)", "RouteId": 8032, "SeqNo": 82, "Terminal": 0, "DistrictId": 1, "Latitude": 22.67438, "Longitude": 120.31814, "IVRNo": 1043, "EXTVoiceNo": 8974, "traveltime": 0, "holidayTraveltime": 0}, {"Id": "5208", "pgp": 0, "GoBack": 1, "SID": 16154, "NameZh": "\u6587\u85fb\u5916\u8a9e\u5927\u5b78(\u6c11\u65cf\u4e00\u8def)", "RouteId": 8032, "SeqNo": 83, "Terminal": 0, "DistrictId": 1, "Latitude": 22.670754, "Longitude": 120.317407, "IVRNo": 453, "EXTVoiceNo": 5208, "traveltime": 0, "holidayTraveltime": 0}, {"Id": "5408", "pgp": 0, "GoBack": 1, "SID": 4635, "NameZh": "\u5929\u7965\u8def\u53e3(\u6c11\u65cf\u4e00\u8def)", "RouteId": 8032, "SeqNo": 84, "Terminal": 0, "DistrictId": 1, "Latitude": 22.667395, "Longitude": 120.316844, "IVRNo": 2213, "EXTVoiceNo": 5408, "traveltime": 0, "holidayTraveltime": 0}, {"Id": "7032", "pgp": 0, "GoBack": 1, "SID": 8245, "NameZh": "\u6c11\u65cf\u88d5\u8aa0\u8def\u53e3", "RouteId": 8032, "SeqNo": 85, "Terminal": 0, "DistrictId": 1, "Latitude": 22.664938, "Longitude": 120.316375, "IVRNo": 2214, "EXTVoiceNo": 7032, "traveltime": 0, "holidayTraveltime": 0}, {"Id": "5213", "pgp": 0, "GoBack": 1, "SID": 3927, "NameZh": "\u6c11\u65cf\u8def(\u660e\u8aa0\u8def\u53e3)", "RouteId": 8032, "SeqNo": 86, "Terminal": 0, "DistrictId": 1, "Latitude": 22.661294, "Longitude": 120.316005, "IVRNo": 43, "EXTVoiceNo": 5213, "traveltime": 0, "holidayTraveltime": 0}, {"Id": "1164", "pgp": 0, "GoBack": 1, "SID": 18221, "NameZh": "\u6c11\u65cf\u5927\u9806\u8def\u53e3", "RouteId": 8032, "SeqNo": 87, "Terminal": 0, "DistrictId": 1, "Latitude": 22.657673, "Longitude": 120.315572, "IVRNo": 4030, "EXTVoiceNo": 21164, "traveltime": 0, "holidayTraveltime": 0}, {"Id": "5215", "pgp": 0, "GoBack": 1, "SID": 18222, "NameZh": "\u9686\u5cf0\u5bfa", "RouteId": 8032, "SeqNo": 88, "Terminal": 0, "DistrictId": 1, "Latitude": 22.65314, "Longitude": 120.31518, "IVRNo": 5215, "EXTVoiceNo": 5215, "traveltime": 0, "holidayTraveltime": 0}, {"Id": "3447", "pgp": 0, "GoBack": 1, "SID": 13870, "NameZh": "\u7063\u4ed4\u5167", "RouteId": 8032, "SeqNo": 89, "Terminal": 0, "DistrictId": 1, "Latitude": 22.648719, "Longitude": 120.314835, "IVRNo": 5216, "EXTVoiceNo": 13447, "traveltime": 0, "holidayTraveltime": 0}, {"Id": "7377", "pgp": 0, "GoBack": 1, "SID": 1474, "NameZh": "\u679c\u83dc\u516c\u53f8", "RouteId": 8032, "SeqNo": 90, "Terminal": 0, "DistrictId": 1, "Latitude": 22.644961, "Longitude": 120.314312, "IVRNo": 232, "EXTVoiceNo": 7377, "traveltime": 0, "holidayTraveltime": 0}, {"Id": "0234", "pgp": 0, "GoBack": 1, "SID": 18225, "NameZh": "\u9ad8\u91ab(\u5341\u5168\u8def)", "RouteId": 8032, "SeqNo": 91, "Terminal": 0, "DistrictId": 1, "Latitude": 22.64503, "Longitude": 120.30943, "IVRNo": 234, "EXTVoiceNo": 234, "traveltime": 0, "holidayTraveltime": 0}, {"Id": "0235", "pgp": 0, "GoBack": 1, "SID": 1729, "NameZh": "\u4e09\u6c11\u570b\u4e2d", "RouteId": 8032, "SeqNo": 92, "Terminal": 0, "DistrictId": 1, "Latitude": 22.645219, "Longitude": 120.305816, "IVRNo": 235, "EXTVoiceNo": 235, "traveltime": 0, "holidayTraveltime": 0}, {"Id": "2839", "pgp": 0, "GoBack": 1, "SID": 1563, "NameZh": "\u4e09\u6c11\u516c\u5712(\u535a\u611b\u8def\u53e3)", "RouteId": 8032, "SeqNo": 93, "Terminal": 0, "DistrictId": 1, "Latitude": 22.645442, "Longitude": 120.304389, "IVRNo": 236, "EXTVoiceNo": 2839, "traveltime": 0, "holidayTraveltime": 0}, {"Id": "1445", "pgp": 0, "GoBack": 1, "SID": 5115, "NameZh": "\u4e2d\u5c71\u4e00\u8def\u53e3", "RouteId": 8032, "SeqNo": 94, "Terminal": 0, "DistrictId": 1, "Latitude": 22.634639, "Longitude": 120.302707, "IVRNo": 1445, "EXTVoiceNo": 1445, "traveltime": 0, "holidayTraveltime": 0}, {"Id": "9368", "pgp": 0, "GoBack": 1, "SID": 8806, "NameZh": "\u9ad8\u96c4\u7ad9(\u5357\u83ef\u8def)", "RouteId": 8032, "SeqNo": 95, "Terminal": 1, "DistrictId": 1, "Latitude": 22.63768, "Longitude": 120.30396, "IVRNo": 9034, "EXTVoiceNo": 9368, "traveltime": 0, "holidayTraveltime": 0}, {"Id": "9368", "pgp": 0, "GoBack": 2, "SID": 2146, "NameZh": "\u9ad8\u96c4\u7ad9(\u5357\u83ef\u8def)", "RouteId": 8032, "SeqNo": 1, "Terminal": 0, "DistrictId": 1, "Latitude": 22.638135, "Longitude": 120.303514, "IVRNo": 9034, "EXTVoiceNo": 9368, "traveltime": 0, "holidayTraveltime": 0}, {"Id": "1445", "pgp": 0, "GoBack": 2, "SID": 17848, "NameZh": "\u4e2d\u5c71\u4e00\u8def\u53e3", "RouteId": 8032, "SeqNo": 2, "Terminal": 0, "DistrictId": 1, "Latitude": 22.634573, "Longitude": 120.303617, "IVRNo": 1445, "EXTVoiceNo": 1445, "traveltime": 0, "holidayTraveltime": 0}, {"Id": "2839", "pgp": 0, "GoBack": 2, "SID": 2776, "NameZh": "\u4e09\u6c11\u516c\u5712(\u535a\u611b\u8def\u53e3)", "RouteId": 8032, "SeqNo": 3, "Terminal": 0, "DistrictId": 1, "Latitude": 22.645369, "Longitude": 120.303658, "IVRNo": 236, "EXTVoiceNo": 2839, "traveltime": 0, "holidayTraveltime": 0}, {"Id": "0235", "pgp": 0, "GoBack": 2, "SID": 1554, "NameZh": "\u4e09\u6c11\u570b\u4e2d", "RouteId": 8032, "SeqNo": 4, "Terminal": 0, "DistrictId": 1, "Latitude": 22.64525, "Longitude": 120.305916, "IVRNo": 235, "EXTVoiceNo": 235, "traveltime": 0, "holidayTraveltime": 0}, {"Id": "0234", "pgp": 0, "GoBack": 2, "SID": 15832, "NameZh": "\u9ad8\u91ab(\u5341\u5168\u8def)", "RouteId": 8032, "SeqNo": 5, "Terminal": 0, "DistrictId": 1, "Latitude": 22.64487, "Longitude": 120.31066, "IVRNo": 234, "EXTVoiceNo": 234, "traveltime": 0, "holidayTraveltime": 0}, {"Id": "7377", "pgp": 0, "GoBack": 2, "SID": 1476, "NameZh": "\u679c\u83dc\u516c\u53f8", "RouteId": 8032, "SeqNo": 6, "Terminal": 0, "DistrictId": 1, "Latitude": 22.645044, "Longitude": 120.314582, "IVRNo": 232, "EXTVoiceNo": 7377, "traveltime": 0, "holidayTraveltime": 0}, {"Id": "3447", "pgp": 0, "GoBack": 2, "SID": 13870, "NameZh": "\u7063\u4ed4\u5167", "RouteId": 8032, "SeqNo": 7, "Terminal": 0, "DistrictId": 1, "Latitude": 22.648719, "Longitude": 120.314835, "IVRNo": 5216, "EXTVoiceNo": 13447, "traveltime": 0, "holidayTraveltime": 0}, {"Id": "5215", "pgp": 0, "GoBack": 2, "SID": 15835, "NameZh": "\u9686\u5cf0\u5bfa", "RouteId": 8032, "SeqNo": 8, "Terminal": 0, "DistrictId": 1, "Latitude": 22.65306, "Longitude": 120.31534, "IVRNo": 5215, "EXTVoiceNo": 5215, "traveltime": 0, "holidayTraveltime": 0}, {"Id": "1164", "pgp": 0, "GoBack": 2, "SID": 15836, "NameZh": "\u6c11\u65cf\u5927\u9806\u8def\u53e3", "RouteId": 8032, "SeqNo": 9, "Terminal": 0, "DistrictId": 1, "Latitude": 22.657316, "Longitude": 120.315714, "IVRNo": 4030, "EXTVoiceNo": 21164, "traveltime": 0, "holidayTraveltime": 0}, {"Id": "5213", "pgp": 0, "GoBack": 2, "SID": 3888, "NameZh": "\u6c11\u65cf\u8def(\u660e\u8aa0\u8def\u53e3)", "RouteId": 8032, "SeqNo": 10, "Terminal": 0, "DistrictId": 1, "Latitude": 22.661627, "Longitude": 120.315775, "IVRNo": 43, "EXTVoiceNo": 5213, "traveltime": 0, "holidayTraveltime": 0}, {"Id": "7032", "pgp": 0, "GoBack": 2, "SID": 17962, "NameZh": "\u6c11\u65cf\u88d5\u8aa0\u8def\u53e3", "RouteId": 8032, "SeqNo": 11, "Terminal": 0, "DistrictId": 1, "Latitude": 22.664705, "Longitude": 120.316426, "IVRNo": 2214, "EXTVoiceNo": 7032, "traveltime": 0, "holidayTraveltime": 0}, {"Id": "5408", "pgp": 0, "GoBack": 2, "SID": 10555, "NameZh": "\u5929\u7965\u8def\u53e3(\u6c11\u65cf\u4e00\u8def)", "RouteId": 8032, "SeqNo": 12, "Terminal": 0, "DistrictId": 1, "Latitude": 22.667715, "Longitude": 120.316828, "IVRNo": 2213, "EXTVoiceNo": 5408, "traveltime": 0, "holidayTraveltime": 0}, {"Id": "5208", "pgp": 0, "GoBack": 2, "SID": 17964, "NameZh": "\u6587\u85fb\u5916\u8a9e\u5927\u5b78(\u6c11\u65cf\u4e00\u8def)", "RouteId": 8032, "SeqNo": 13, "Terminal": 0, "DistrictId": 1, "Latitude": 22.67071, "Longitude": 120.3176, "IVRNo": 453, "EXTVoiceNo": 5208, "traveltime": 0, "holidayTraveltime": 0}, {"Id": "8974", "pgp": 0, "GoBack": 2, "SID": 16938, "NameZh": "\u83dc\u516c\u8def\u53e3(\u6c11\u65cf\u4e00\u8def)", "RouteId": 8032, "SeqNo": 14, "Terminal": 0, "DistrictId": 1, "Latitude": 22.67521, "Longitude": 120.31846, "IVRNo": 1043, "EXTVoiceNo": 8974, "traveltime": 0, "holidayTraveltime": 0}, {"Id": "5206", "pgp": 0, "GoBack": 2, "SID": 10552, "NameZh": "\u5927\u4e2d\u8def\u53e3(\u6c11\u65cf\u4e00\u8def)", "RouteId": 8032, "SeqNo": 15, "Terminal": 0, "DistrictId": 1, "Latitude": 22.677836, "Longitude": 120.31871, "IVRNo": 2210, "EXTVoiceNo": 5206, "traveltime": 0, "holidayTraveltime": 0}, {"Id": "1280", "pgp": 0, "GoBack": 2, "SID": 17966, "NameZh": "\u69ae\u7e3d(\u6c11\u65cf\u8def\u53e3)", "RouteId": 8032, "SeqNo": 16, "Terminal": 0, "DistrictId": 1, "Latitude": 22.678792, "Longitude": 120.319397, "IVRNo": 1280, "EXTVoiceNo": 1280, "traveltime": 0, "holidayTraveltime": 0}, {"Id": "3333", "pgp": 0, "GoBack": 2, "SID": 18012, "NameZh": "\u5357\u52dd\u6e56", "RouteId": 8032, "SeqNo": 17, "Terminal": 0, "DistrictId": 1, "Latitude": 22.79993, "Longitude": 120.45915, "IVRNo": 11086, "EXTVoiceNo": 13333, "traveltime": 0, "holidayTraveltime": 0}, {"Id": "3434", "pgp": 0, "GoBack": 2, "SID": 18013, "NameZh": "\u53e2\u4ed4\u5751", "RouteId": 8032, "SeqNo": 18, "Terminal": 0, "DistrictId": 1, "Latitude": 22.80962, "Longitude": 120.46171, "IVRNo": 13434, "EXTVoiceNo": 13434, "traveltime": 0, "holidayTraveltime": 0}, {"Id": "0900", "pgp": 0, "GoBack": 2, "SID": 18014, "NameZh": "\u5c1a\u548c", "RouteId": 8032, "SeqNo": 19, "Terminal": 0, "DistrictId": 1, "Latitude": 22.81476, "Longitude": 120.46171, "IVRNo": 10900, "EXTVoiceNo": 10900, "traveltime": 0, "holidayTraveltime": 0}, {"Id": "0076", "pgp": 0, "GoBack": 2, "SID": 7649, "NameZh": "\u5927\u7af9\u570d", "RouteId": 8032, "SeqNo": 20, "Terminal": 0, "DistrictId": 1, "Latitude": 22.82826, "Longitude": 120.46246, "IVRNo": 9148, "EXTVoiceNo": 20076, "traveltime": 0, "holidayTraveltime": 0}, {"Id": "1606", "pgp": 0, "GoBack": 2, "SID": 18016, "NameZh": "\u65b0\u5149\u91cc", "RouteId": 8032, "SeqNo": 21, "Terminal": 0, "DistrictId": 1, "Latitude": 22.83239, "Longitude": 120.46272, "IVRNo": 11606, "EXTVoiceNo": 11606, "traveltime": 0, "holidayTraveltime": 0}, {"Id": "0095", "pgp": 0, "GoBack": 2, "SID": 18017, "NameZh": "\u5927\u6d32\u570b\u4e2d", "RouteId": 8032, "SeqNo": 22, "Terminal": 0, "DistrictId": 1, "Latitude": 22.83587, "Longitude": 120.46255, "IVRNo": 10183, "EXTVoiceNo": 20095, "traveltime": 0, "holidayTraveltime": 0}, {"Id": "0208", "pgp": 0, "GoBack": 2, "SID": 18018, "NameZh": "\u516c\u5712\u4ed4", "RouteId": 8032, "SeqNo": 23, "Terminal": 0, "DistrictId": 1, "Latitude": 22.83776, "Longitude": 120.46278, "IVRNo": 10402, "EXTVoiceNo": 20208, "traveltime": 0, "holidayTraveltime": 0}, {"Id": "0129", "pgp": 0, "GoBack": 2, "SID": 2607, "NameZh": "7-11\u6eaa\u6d32\u9580\u5e02", "RouteId": 8032, "SeqNo": 24, "Terminal": 0, "DistrictId": 1, "Latitude": 22.8399, "Longitude": 120.46332, "IVRNo": 129, "EXTVoiceNo": 129, "traveltime": 0, "holidayTraveltime": 0}, {"Id": "1702", "pgp": 0, "GoBack": 2, "SID": 18020, "NameZh": "\u6eaa\u6d32", "RouteId": 8032, "SeqNo": 25, "Terminal": 0, "DistrictId": 1, "Latitude": 22.8439, "Longitude": 120.46453, "IVRNo": 11702, "EXTVoiceNo": 11702, "traveltime": 0, "holidayTraveltime": 0}, {"Id": "1704", "pgp": 0, "GoBack": 2, "SID": 18021, "NameZh": "\u6eaa\u6d32\u570b\u5c0f", "RouteId": 8032, "SeqNo": 26, "Terminal": 0, "DistrictId": 1, "Latitude": 22.84751, "Longitude": 120.46574, "IVRNo": 11704, "EXTVoiceNo": 11704, "traveltime": 0, "holidayTraveltime": 0}, {"Id": "3460", "pgp": 0, "GoBack": 2, "SID": 12597, "NameZh": "\u6e05\u6c34\u5bfa(\u6eaa\u6d32)", "RouteId": 8032, "SeqNo": 27, "Terminal": 0, "DistrictId": 1, "Latitude": 22.85048, "Longitude": 120.46702, "IVRNo": 803, "EXTVoiceNo": 13460, "traveltime": 0, "holidayTraveltime": 0}, {"Id": "0062", "pgp": 0, "GoBack": 2, "SID": 18023, "NameZh": "\u5927\u5c71", "RouteId": 8032, "SeqNo": 28, "Terminal": 0, "DistrictId": 1, "Latitude": 22.85342, "Longitude": 120.46804, "IVRNo": 10136, "EXTVoiceNo": 20062, "traveltime": 0, "holidayTraveltime": 0}, {"Id": "3423", "pgp": 0, "GoBack": 2, "SID": 18024, "NameZh": "\u885b\u5149\u6751", "RouteId": 8032, "SeqNo": 29, "Terminal": 0, "DistrictId": 1, "Latitude": 22.85706, "Longitude": 120.46878, "IVRNo": 11935, "EXTVoiceNo": 13423, "traveltime": 0, "holidayTraveltime": 0}, {"Id": "0984", "pgp": 0, "GoBack": 2, "SID": 18025, "NameZh": "\u6b66\u9e7f", "RouteId": 8032, "SeqNo": 30, "Terminal": 0, "DistrictId": 1, "Latitude": 22.86107, "Longitude": 120.46873, "IVRNo": 10984, "EXTVoiceNo": 10984, "traveltime": 0, "holidayTraveltime": 0}, {"Id": "3315", "pgp": 0, "GoBack": 2, "SID": 18026, "NameZh": "\u548c\u660c", "RouteId": 8032, "SeqNo": 31, "Terminal": 0, "DistrictId": 1, "Latitude": 22.86437, "Longitude": 120.47059, "IVRNo": 10888, "EXTVoiceNo": 13315, "traveltime": 0, "holidayTraveltime": 0}, {"Id": "3417", "pgp": 0, "GoBack": 2, "SID": 18027, "NameZh": "\u65d7\u5357\u4e00\u8def", "RouteId": 8032, "SeqNo": 32, "Terminal": 0, "DistrictId": 1, "Latitude": 22.86966, "Longitude": 120.47298, "IVRNo": 11842, "EXTVoiceNo": 13417, "traveltime": 0, "holidayTraveltime": 0}, {"Id": "1000", "pgp": 0, "GoBack": 2, "SID": 18028, "NameZh": "\u82b1\u65d7\u5c71\u838a", "RouteId": 8032, "SeqNo": 33, "Terminal": 0, "DistrictId": 1, "Latitude": 22.87314, "Longitude": 120.47432, "IVRNo": 11000, "EXTVoiceNo": 11000, "traveltime": 0, "holidayTraveltime": 0}, {"Id": "3430", "pgp": 0, "GoBack": 2, "SID": 15228, "NameZh": "\u982d\u6797\u5df7\u53e3", "RouteId": 8032, "SeqNo": 34, "Terminal": 0, "DistrictId": 1, "Latitude": 22.87662, "Longitude": 120.47539, "IVRNo": 3273, "EXTVoiceNo": 13430, "traveltime": 0, "holidayTraveltime": 0}, {"Id": "3337", "pgp": 0, "GoBack": 2, "SID": 12604, "NameZh": "\u79cb\u6dbc\u5c71", "RouteId": 8032, "SeqNo": 35, "Terminal": 0, "DistrictId": 1, "Latitude": 22.87951, "Longitude": 120.47678, "IVRNo": 3258, "EXTVoiceNo": 13337, "traveltime": 0, "holidayTraveltime": 0}, {"Id": "0168", "pgp": 0, "GoBack": 2, "SID": 18031, "NameZh": "\u4e2d\u5b78\u8def", "RouteId": 8032, "SeqNo": 36, "Terminal": 0, "DistrictId": 1, "Latitude": 22.882569, "Longitude": 120.479105, "IVRNo": 10321, "EXTVoiceNo": 20168, "traveltime": 0, "holidayTraveltime": 0}, {"Id": "2114", "pgp": 0, "GoBack": 2, "SID": 18032, "NameZh": "\u5fb7\u660c\u8def(\u4e2d\u5b78\u8def\u53e3)", "RouteId": 8032, "SeqNo": 37, "Terminal": 0, "DistrictId": 1, "Latitude": 22.881665, "Longitude": 120.48212, "IVRNo": 2114, "EXTVoiceNo": 2114, "traveltime": 0, "holidayTraveltime": 0}, {"Id": "3412", "pgp": 0, "GoBack": 2, "SID": 18034, "NameZh": "\u65d7\u5c71\u8f49\u904b\u7ad9", "RouteId": 8032, "SeqNo": 38, "Terminal": 0, "DistrictId": 1, "Latitude": 22.883651, "Longitude": 120.484555, "IVRNo": 9717, "EXTVoiceNo": 13412, "traveltime": 0, "holidayTraveltime": 0}, {"Id": "9718", "pgp": 0, "GoBack": 2, "SID": 18035, "NameZh": "\u5ef6\u5e73\u8def(\u65d7\u5c71\u5340\u516c\u6240)", "RouteId": 8032, "SeqNo": 39, "Terminal": 0, "DistrictId": 1, "Latitude": 22.88761, "Longitude": 120.483247, "IVRNo": 9718, "EXTVoiceNo": 9718, "traveltime": 0, "holidayTraveltime": 0}, {"Id": "9374", "pgp": 0, "GoBack": 2, "SID": 18036, "NameZh": "\u65d7\u5c71\u5e02\u5834", "RouteId": 8032, "SeqNo": 40, "Terminal": 0, "DistrictId": 1, "Latitude": 22.889889, "Longitude": 120.483465, "IVRNo": 9953, "EXTVoiceNo": 9374, "traveltime": 0, "holidayTraveltime": 0}, {"Id": "1197", "pgp": 0, "GoBack": 2, "SID": 18037, "NameZh": "\u4e2d\u83ef\u8def\u53e3(\u65d7)", "RouteId": 8032, "SeqNo": 41, "Terminal": 0, "DistrictId": 1, "Latitude": 22.89278, "Longitude": 120.4833, "IVRNo": 1180, "EXTVoiceNo": 21197, "traveltime": 0, "holidayTraveltime": 0}, {"Id": "1828", "pgp": 0, "GoBack": 2, "SID": 18038, "NameZh": "\u65d7\u5c71\u5317\u7ad9", "RouteId": 8032, "SeqNo": 42, "Terminal": 0, "DistrictId": 1, "Latitude": 22.896043, "Longitude": 120.483457, "IVRNo": 9142, "EXTVoiceNo": 11828, "traveltime": 0, "holidayTraveltime": 0}, {"Id": "3413", "pgp": 0, "GoBack": 2, "SID": 13910, "NameZh": "\u65d7\u5c71\u8fb2\u5de5", "RouteId": 8032, "SeqNo": 43, "Terminal": 0, "DistrictId": 1, "Latitude": 22.90193, "Longitude": 120.4833, "IVRNo": 1255, "EXTVoiceNo": 13413, "traveltime": 0, "holidayTraveltime": 0}, {"Id": "0200", "pgp": 0, "GoBack": 2, "SID": 18040, "NameZh": "\u516d\u5f35\u7281", "RouteId": 8032, "SeqNo": 44, "Terminal": 0, "DistrictId": 1, "Latitude": 22.90867, "Longitude": 120.49043, "IVRNo": 10391, "EXTVoiceNo": 20200, "traveltime": 0, "holidayTraveltime": 0}, {"Id": "9372", "pgp": 0, "GoBack": 2, "SID": 2610, "NameZh": "\u9f8d\u5c71\u6797\u793e\u5340", "RouteId": 8032, "SeqNo": 45, "Terminal": 0, "DistrictId": 1, "Latitude": 22.912333, "Longitude": 120.493057, "IVRNo": 9054, "EXTVoiceNo": 9372, "traveltime": 0, "holidayTraveltime": 0}, {"Id": "1575", "pgp": 0, "GoBack": 2, "SID": 18041, "NameZh": "\u5713\u5bcc\u91cc", "RouteId": 8032, "SeqNo": 46, "Terminal": 0, "DistrictId": 1, "Latitude": 22.91598, "Longitude": 120.49455, "IVRNo": 11575, "EXTVoiceNo": 11575, "traveltime": 0, "holidayTraveltime": 0}, {"Id": "0057", "pgp": 0, "GoBack": 2, "SID": 18042, "NameZh": "\u53e3\u9698\u5e84\u5167", "RouteId": 8032, "SeqNo": 47, "Terminal": 0, "DistrictId": 1, "Latitude": 22.920286, "Longitude": 120.496293, "IVRNo": 10126, "EXTVoiceNo": 20057, "traveltime": 0, "holidayTraveltime": 0}, {"Id": "0056", "pgp": 0, "GoBack": 2, "SID": 18043, "NameZh": "\u53e3\u9698", "RouteId": 8032, "SeqNo": 48, "Terminal": 0, "DistrictId": 1, "Latitude": 22.92235, "Longitude": 120.49714, "IVRNo": 10124, "EXTVoiceNo": 20056, "traveltime": 0, "holidayTraveltime": 0}, {"Id": "3382", "pgp": 0, "GoBack": 2, "SID": 18045, "NameZh": "\u5713\u6f6d\u8fb2\u6703", "RouteId": 8032, "SeqNo": 49, "Terminal": 0, "DistrictId": 1, "Latitude": 22.92693, "Longitude": 120.50024, "IVRNo": 13382, "EXTVoiceNo": 13382, "traveltime": 0, "holidayTraveltime": 0}, {"Id": "1577", "pgp": 0, "GoBack": 2, "SID": 18046, "NameZh": "\u5713\u5bcc\u570b\u4e2d", "RouteId": 8032, "SeqNo": 50, "Terminal": 0, "DistrictId": 1, "Latitude": 22.9281, "Longitude": 120.50101, "IVRNo": 9747, "EXTVoiceNo": 11577, "traveltime": 0, "holidayTraveltime": 0}, {"Id": "0882", "pgp": 0, "GoBack": 2, "SID": 18047, "NameZh": "\u5713\u6f6d\u8fb2\u5834", "RouteId": 8032, "SeqNo": 51, "Terminal": 0, "DistrictId": 1, "Latitude": 22.92939, "Longitude": 120.50205, "IVRNo": 809, "EXTVoiceNo": 882, "traveltime": 0, "holidayTraveltime": 0}, {"Id": "3381", "pgp": 0, "GoBack": 2, "SID": 18048, "NameZh": "\u5713\u6f6d", "RouteId": 8032, "SeqNo": 52, "Terminal": 0, "DistrictId": 1, "Latitude": 22.93279, "Longitude": 120.50358, "IVRNo": 11580, "EXTVoiceNo": 13381, "traveltime": 0, "holidayTraveltime": 0}, {"Id": "0164", "pgp": 0, "GoBack": 2, "SID": 18049, "NameZh": "\u4e2d\u9698", "RouteId": 8032, "SeqNo": 53, "Terminal": 0, "DistrictId": 1, "Latitude": 22.93943, "Longitude": 120.50671, "IVRNo": 10313, "EXTVoiceNo": 20164, "traveltime": 0, "holidayTraveltime": 0}, {"Id": "3347", "pgp": 0, "GoBack": 2, "SID": 18050, "NameZh": "\u57d4\u59dc\u6797", "RouteId": 8032, "SeqNo": 54, "Terminal": 0, "DistrictId": 1, "Latitude": 22.94907, "Longitude": 120.51104, "IVRNo": 11222, "EXTVoiceNo": 13347, "traveltime": 0, "holidayTraveltime": 0}, {"Id": "0087", "pgp": 0, "GoBack": 2, "SID": 18051, "NameZh": "\u5927\u6797(\u65d7\u7532\u8def\u56db\u6bb5)", "RouteId": 8032, "SeqNo": 55, "Terminal": 0, "DistrictId": 1, "Latitude": 22.95954, "Longitude": 120.51578, "IVRNo": 10169, "EXTVoiceNo": 20087, "traveltime": 0, "holidayTraveltime": 0}, {"Id": "1834", "pgp": 0, "GoBack": 2, "SID": 18052, "NameZh": "\u65d7\u7532\u4e8c\u8def", "RouteId": 8032, "SeqNo": 56, "Terminal": 0, "DistrictId": 1, "Latitude": 22.96078, "Longitude": 120.51791, "IVRNo": 11834, "EXTVoiceNo": 11834, "traveltime": 0, "holidayTraveltime": 0}, {"Id": "3313", "pgp": 0, "GoBack": 2, "SID": 18053, "NameZh": "\u523a\u4ed4\u5bee", "RouteId": 8032, "SeqNo": 57, "Terminal": 0, "DistrictId": 1, "Latitude": 22.961253, "Longitude": 120.528647, "IVRNo": 10874, "EXTVoiceNo": 13313, "traveltime": 0, "holidayTraveltime": 0}, {"Id": "3311", "pgp": 0, "GoBack": 2, "SID": 18054, "NameZh": "\u6749\u6797\u8fb2\u6703", "RouteId": 8032, "SeqNo": 58, "Terminal": 0, "DistrictId": 1, "Latitude": 22.96433, "Longitude": 120.53214, "IVRNo": 10854, "EXTVoiceNo": 13311, "traveltime": 0, "holidayTraveltime": 0}, {"Id": "0233", "pgp": 0, "GoBack": 2, "SID": 18055, "NameZh": "\u6708\u7709", "RouteId": 8032, "SeqNo": 59, "Terminal": 0, "DistrictId": 1, "Latitude": 22.96754, "Longitude": 120.5337, "IVRNo": 10461, "EXTVoiceNo": 20233, "traveltime": 0, "holidayTraveltime": 0}, {"Id": "4039", "pgp": 0, "GoBack": 2, "SID": 18056, "NameZh": "\u96fb\u529b\u516c\u53f8(\u6749\u6797)", "RouteId": 8032, "SeqNo": 60, "Terminal": 0, "DistrictId": 1, "Latitude": 22.96992, "Longitude": 120.536115, "IVRNo": 4039, "EXTVoiceNo": 4039, "traveltime": 0, "holidayTraveltime": 0}, {"Id": "3310", "pgp": 0, "GoBack": 2, "SID": 18057, "NameZh": "\u6749\u6797\u570b\u4e2d", "RouteId": 8032, "SeqNo": 61, "Terminal": 0, "DistrictId": 1, "Latitude": 22.97074, "Longitude": 120.53877, "IVRNo": 10852, "EXTVoiceNo": 13310, "traveltime": 0, "holidayTraveltime": 0}, {"Id": "3309", "pgp": 0, "GoBack": 2, "SID": 15583, "NameZh": "\u6749\u6797\u5340\u516c\u6240(\u885b\u751f\u6240)", "RouteId": 8032, "SeqNo": 62, "Terminal": 0, "DistrictId": 1, "Latitude": 22.97191, "Longitude": 120.53996, "IVRNo": 13309, "EXTVoiceNo": 13309, "traveltime": 0, "holidayTraveltime": 0}, {"Id": "6099", "pgp": 0, "GoBack": 2, "SID": 12607, "NameZh": "\u6749\u6797\u5206\u99d0\u6240", "RouteId": 8032, "SeqNo": 63, "Terminal": 0, "DistrictId": 1, "Latitude": 22.974386, "Longitude": 120.541646, "IVRNo": 13308, "EXTVoiceNo": 26099, "traveltime": 0, "holidayTraveltime": 0}, {"Id": "6073", "pgp": 0, "GoBack": 2, "SID": 14026, "NameZh": "\u4e0a\u5e73\u91cc", "RouteId": 8032, "SeqNo": 64, "Terminal": 0, "DistrictId": 1, "Latitude": 22.976241, "Longitude": 120.542885, "IVRNo": 9818, "EXTVoiceNo": 26073, "traveltime": 0, "holidayTraveltime": 0}, {"Id": "3332", "pgp": 0, "GoBack": 2, "SID": 18061, "NameZh": "\u5357\u6cb3", "RouteId": 8032, "SeqNo": 65, "Terminal": 0, "DistrictId": 1, "Latitude": 22.97769, "Longitude": 120.54453, "IVRNo": 11074, "EXTVoiceNo": 13332, "traveltime": 0, "holidayTraveltime": 0}, {"Id": "1246", "pgp": 0, "GoBack": 2, "SID": 18062, "NameZh": "\u6e56\u5e95\u6a4b(\u6749\u6797)", "RouteId": 8032, "SeqNo": 66, "Terminal": 0, "DistrictId": 1, "Latitude": 22.98129, "Longitude": 120.55347, "IVRNo": 1246, "EXTVoiceNo": 1246, "traveltime": 0, "holidayTraveltime": 0}, {"Id": "3406", "pgp": 0, "GoBack": 2, "SID": 18063, "NameZh": "\u9698\u4e01\u5bee", "RouteId": 8032, "SeqNo": 67, "Terminal": 0, "DistrictId": 1, "Latitude": 22.98286, "Longitude": 120.55574, "IVRNo": 1253, "EXTVoiceNo": 13406, "traveltime": 0, "holidayTraveltime": 0}, {"Id": "3392", "pgp": 0, "GoBack": 2, "SID": 18064, "NameZh": "\u65b0\u9698\u4e01\u5bee", "RouteId": 8032, "SeqNo": 68, "Terminal": 0, "DistrictId": 1, "Latitude": 22.98454, "Longitude": 120.55741, "IVRNo": 11660, "EXTVoiceNo": 13392, "traveltime": 0, "holidayTraveltime": 0}, {"Id": "3385", "pgp": 0, "GoBack": 2, "SID": 18065, "NameZh": "\u65b0\u5e84\u570b\u5c0f", "RouteId": 8032, "SeqNo": 69, "Terminal": 0, "DistrictId": 1, "Latitude": 22.9871, "Longitude": 120.56155, "IVRNo": 11624, "EXTVoiceNo": 13385, "traveltime": 0, "holidayTraveltime": 0}, {"Id": "1252", "pgp": 0, "GoBack": 2, "SID": 18066, "NameZh": "\u76ca\u69ae", "RouteId": 8032, "SeqNo": 70, "Terminal": 0, "DistrictId": 1, "Latitude": 22.98783, "Longitude": 120.56356, "IVRNo": 11252, "EXTVoiceNo": 11252, "traveltime": 0, "holidayTraveltime": 0}, {"Id": "1075", "pgp": 0, "GoBack": 2, "SID": 18067, "NameZh": "\u4e2d\u8857", "RouteId": 8032, "SeqNo": 71, "Terminal": 0, "DistrictId": 1, "Latitude": 22.98858, "Longitude": 120.56495, "IVRNo": 10311, "EXTVoiceNo": 21075, "traveltime": 0, "holidayTraveltime": 0}, {"Id": "0888", "pgp": 0, "GoBack": 2, "SID": 18068, "NameZh": "\u65d7\u5c71\u65b0\u5e84", "RouteId": 8032, "SeqNo": 72, "Terminal": 0, "DistrictId": 1, "Latitude": 22.98958, "Longitude": 120.56624, "IVRNo": 813, "EXTVoiceNo": 888, "traveltime": 0, "holidayTraveltime": 0}, {"Id": "1266", "pgp": 0, "GoBack": 2, "SID": 18069, "NameZh": "\u8336\u4ead", "RouteId": 8032, "SeqNo": 73, "Terminal": 0, "DistrictId": 1, "Latitude": 22.99355, "Longitude": 120.56889, "IVRNo": 11266, "EXTVoiceNo": 11266, "traveltime": 0, "holidayTraveltime": 0}, {"Id": "0132", "pgp": 0, "GoBack": 2, "SID": 18070, "NameZh": "\u5c71\u5c3e", "RouteId": 8032, "SeqNo": 74, "Terminal": 0, "DistrictId": 1, "Latitude": 22.99736, "Longitude": 120.57147, "IVRNo": 10251, "EXTVoiceNo": 20132, "traveltime": 0, "holidayTraveltime": 0}, {"Id": "0124", "pgp": 0, "GoBack": 2, "SID": 18071, "NameZh": "\u5c0f\u4efd\u5c3e", "RouteId": 8032, "SeqNo": 75, "Terminal": 0, "DistrictId": 1, "Latitude": 22.999139, "Longitude": 120.573266, "IVRNo": 10241, "EXTVoiceNo": 20124, "traveltime": 0, "holidayTraveltime": 0}, {"Id": "0889", "pgp": 0, "GoBack": 2, "SID": 18072, "NameZh": "\u65d7\u5c71\u65b0\u539d", "RouteId": 8032, "SeqNo": 76, "Terminal": 0, "DistrictId": 1, "Latitude": 23.00367, "Longitude": 120.57548, "IVRNo": 889, "EXTVoiceNo": 889, "traveltime": 0, "holidayTraveltime": 0}, {"Id": "0245", "pgp": 0, "GoBack": 2, "SID": 18073, "NameZh": "\u706b\u5c71", "RouteId": 8032, "SeqNo": 77, "Terminal": 0, "DistrictId": 1, "Latitude": 23.01011, "Longitude": 120.57827, "IVRNo": 10491, "EXTVoiceNo": 20245, "traveltime": 0, "holidayTraveltime": 0}, {"Id": "0246", "pgp": 0, "GoBack": 2, "SID": 18074, "NameZh": "\u706b\u5c71\u5751", "RouteId": 8032, "SeqNo": 78, "Terminal": 0, "DistrictId": 1, "Latitude": 23.01817, "Longitude": 120.57205, "IVRNo": 10493, "EXTVoiceNo": 20246, "traveltime": 0, "holidayTraveltime": 0}, {"Id": "0039", "pgp": 0, "GoBack": 2, "SID": 18075, "NameZh": "\u4e0b\u5341\u5f35\u7281", "RouteId": 8032, "SeqNo": 79, "Terminal": 0, "DistrictId": 1, "Latitude": 23.01973, "Longitude": 120.5674, "IVRNo": 10088, "EXTVoiceNo": 20039, "traveltime": 0, "holidayTraveltime": 0}, {"Id": "0026", "pgp": 0, "GoBack": 2, "SID": 18076, "NameZh": "\u5341\u5f35\u7281", "RouteId": 8032, "SeqNo": 80, "Terminal": 0, "DistrictId": 1, "Latitude": 23.02258, "Longitude": 120.56292, "IVRNo": 10062, "EXTVoiceNo": 20026, "traveltime": 0, "holidayTraveltime": 0},