{"en": [{"Id": "0887", "pgp": 0, "GoBack": 1, "SID": 14441, "NameZh": "Taoyuan District Office, Health Center", "RouteId": 411, "SeqNo": 1, "Terminal": 0, "DistrictId": 1, "Latitude": 23.15886, "Longitude": 120.76401, "IVRNo": 887, "EXTVoiceNo": 887, "traveltime": 0, "holidayTraveltime": 0}, {"Id": "3442", "pgp": 0, "GoBack": 1, "SID": 14447, "NameZh": "Baolai Junior High School", "RouteId": 411, "SeqNo": 2, "Terminal": 0, "DistrictId": 1, "Latitude": 23.108771, "Longitude": 120.699883, "IVRNo": 13442, "EXTVoiceNo": 13442, "traveltime": 0, "holidayTraveltime": 0}, {"Id": "3361", "pgp": 0, "GoBack": 1, "SID": 14460, "NameZh": "Laonong Elementary School", "RouteId": 411, "SeqNo": 3, "Terminal": 0, "DistrictId": 1, "Latitude": 23.073156, "Longitude": 120.67296, "IVRNo": 13361, "EXTVoiceNo": 13361, "traveltime": 0, "holidayTraveltime": 0}, {"Id": "3368", "pgp": 0, "GoBack": 1, "SID": 14465, "NameZh": "Dingsinfa", "RouteId": 411, "SeqNo": 4, "Terminal": 0, "DistrictId": 1, "Latitude": 23.04312, "Longitude": 120.667668, "IVRNo": 13368, "EXTVoiceNo": 13368, "traveltime": 0, "holidayTraveltime": 0}, {"Id": "3391", "pgp": 0, "GoBack": 1, "SID": 14468, "NameZh": "Xinfa Elementary School", "RouteId": 411, "SeqNo": 5, "Terminal": 0, "DistrictId": 1, "Latitude": 23.03163, "Longitude": 120.663653, "IVRNo": 13391, "EXTVoiceNo": 13391, "traveltime": 0, "holidayTraveltime": 0}, {"Id": "3312", "pgp": 0, "GoBack": 1, "SID": 14473, "NameZh": "Children`s home", "RouteId": 411, "SeqNo": 6, "Terminal": 0, "DistrictId": 1, "Latitude": 23.006003, "Longitude": 120.655903, "IVRNo": 13312, "EXTVoiceNo": 13312, "traveltime": 0, "holidayTraveltime": 0}, {"Id": "6085", "pgp": 0, "GoBack": 1, "SID": 14481, "NameZh": "Liouguei District Office, Health Center", "RouteId": 411, "SeqNo": 7, "Terminal": 0, "DistrictId": 1, "Latitude": 22.998047, "Longitude": 120.633437, "IVRNo": 13276, "EXTVoiceNo": 26085, "traveltime": 0, "holidayTraveltime": 0}, {"Id": "0203", "pgp": 0, "GoBack": 1, "SID": 14482, "NameZh": "Liouguei Station", "RouteId": 411, "SeqNo": 8, "Terminal": 0, "DistrictId": 1, "Latitude": 22.997844, "Longitude": 120.63459, "IVRNo": 10397, "EXTVoiceNo": 20203, "traveltime": 0, "holidayTraveltime": 0}, {"Id": "3372", "pgp": 0, "GoBack": 1, "SID": 14492, "NameZh": "Fusing", "RouteId": 411, "SeqNo": 9, "Terminal": 0, "DistrictId": 1, "Latitude": 22.963457, "Longitude": 120.642687, "IVRNo": 11490, "EXTVoiceNo": 13372, "traveltime": 0, "holidayTraveltime": 0}, {"Id": "3431", "pgp": 0, "GoBack": 1, "SID": 14511, "NameZh": "Longdu", "RouteId": 411, "SeqNo": 10, "Terminal": 0, "DistrictId": 1, "Latitude": 22.87866, "Longitude": 120.56956, "IVRNo": 1078, "EXTVoiceNo": 13431, "traveltime": 0, "holidayTraveltime": 0}, {"Id": "3339", "pgp": 0, "GoBack": 1, "SID": 14518, "NameZh": "Meinong District Office (Health Center)", "RouteId": 411, "SeqNo": 11, "Terminal": 0, "DistrictId": 1, "Latitude": 22.896804, "Longitude": 120.542453, "IVRNo": 13339, "EXTVoiceNo": 13339, "traveltime": 0, "holidayTraveltime": 0}, {"Id": "1196", "pgp": 0, "GoBack": 1, "SID": 14520, "NameZh": "Meinong Station", "RouteId": 411, "SeqNo": 12, "Terminal": 0, "DistrictId": 1, "Latitude": 22.90166, "Longitude": 120.54176, "IVRNo": 9736, "EXTVoiceNo": 11196, "traveltime": 0, "holidayTraveltime": 0}, {"Id": "3412", "pgp": 0, "GoBack": 1, "SID": 14530, "NameZh": "Cishan Bus Transfer Station", "RouteId": 411, "SeqNo": 13, "Terminal": 0, "DistrictId": 1, "Latitude": 22.8835, "Longitude": 120.48461, "IVRNo": 9717, "EXTVoiceNo": 13412, "traveltime": 0, "holidayTraveltime": 0}, {"Id": "3422", "pgp": 0, "GoBack": 1, "SID": 18465, "NameZh": "Dechang Rd.-Cishan Hospital", "RouteId": 411, "SeqNo": 14, "Terminal": 0, "DistrictId": 1, "Latitude": 22.880445, "Longitude": 120.48378, "IVRNo": 1069, "EXTVoiceNo": 13422, "traveltime": 0, "holidayTraveltime": 0}, {"Id": "1702", "pgp": 0, "GoBack": 1, "SID": 14543, "NameZh": "Sijhou", "RouteId": 411, "SeqNo": 15, "Terminal": 0, "DistrictId": 1, "Latitude": 22.843748, "Longitude": 120.464513, "IVRNo": 11702, "EXTVoiceNo": 11702, "traveltime": 0, "holidayTraveltime": 0}, {"Id": "0900", "pgp": 0, "GoBack": 1, "SID": 14549, "NameZh": "Shanghe", "RouteId": 411, "SeqNo": 16, "Terminal": 0, "DistrictId": 1, "Latitude": 22.814795, "Longitude": 120.461609, "IVRNo": 10900, "EXTVoiceNo": 10900, "traveltime": 0, "holidayTraveltime": 0}, {"Id": "7602", "pgp": 0, "GoBack": 1, "SID": 14552, "NameZh": "E-Da Hospital", "RouteId": 411, "SeqNo": 17, "Terminal": 0, "DistrictId": 1, "Latitude": 22.76495, "Longitude": 120.36415, "IVRNo": 7126, "EXTVoiceNo": 7602, "traveltime": 0, "holidayTraveltime": 0}, {"Id": "3534", "pgp": 0, "GoBack": 1, "SID": 14563, "NameZh": "Chang Gung Memorial Hospital", "RouteId": 411, "SeqNo": 18, "Terminal": 1, "DistrictId": 1, "Latitude": 22.650821, "Longitude": 120.35674, "IVRNo": 3534, "EXTVoiceNo": 3534, "traveltime": 0, "holidayTraveltime": 0}, {"Id": "3534", "pgp": 0, "GoBack": 2, "SID": 14564, "NameZh": "Chang Gung Memorial Hospital", "RouteId": 411, "SeqNo": 1, "Terminal": 0, "DistrictId": 1, "Latitude": 22.65078, "Longitude": 120.35681, "IVRNo": 3534, "EXTVoiceNo": 3534, "traveltime": 0, "holidayTraveltime": 0}, {"Id": "7602", "pgp": 0, "GoBack": 2, "SID": 14574, "NameZh": "E-Da Hospital", "RouteId": 411, "SeqNo": 2, "Terminal": 0, "DistrictId": 1, "Latitude": 22.76495, "Longitude": 120.36415, "IVRNo": 7126, "EXTVoiceNo": 7602, "traveltime": 0, "holidayTraveltime": 0}, {"Id": "0900", "pgp": 0, "GoBack": 2, "SID": 14578, "NameZh": "Shanghe", "RouteId": 411, "SeqNo": 3, "Terminal": 0, "DistrictId": 1, "Latitude": 22.81473, "Longitude": 120.46171, "IVRNo": 10900, "EXTVoiceNo": 10900, "traveltime": 0, "holidayTraveltime": 0}, {"Id": "1702", "pgp": 0, "GoBack": 2, "SID": 14584, "NameZh": "Sijhou", "RouteId": 411, "SeqNo": 4, "Terminal": 0, "DistrictId": 1, "Latitude": 22.8437, "Longitude": 120.46456, "IVRNo": 11702, "EXTVoiceNo": 11702, "traveltime": 0, "holidayTraveltime": 0}, {"Id": "3422", "pgp": 0, "GoBack": 2, "SID": 18489, "NameZh": "Dechang Rd.-Cishan Hospital", "RouteId": 411, "SeqNo": 5, "Terminal": 0, "DistrictId": 1, "Latitude": 22.880418, "Longitude": 120.483857, "IVRNo": 1069, "EXTVoiceNo": 13422, "traveltime": 0, "holidayTraveltime": 0}, {"Id": "3412", "pgp": 0, "GoBack": 2, "SID": 14597, "NameZh": "Cishan Bus Transfer Station", "RouteId": 411, "SeqNo": 6, "Terminal": 0, "DistrictId": 1, "Latitude": 22.883438, "Longitude": 120.484586, "IVRNo": 9717, "EXTVoiceNo": 13412, "traveltime": 0, "holidayTraveltime": 0}, {"Id": "1196", "pgp": 0, "GoBack": 2, "SID": 14607, "NameZh": "Meinong Station", "RouteId": 411, "SeqNo": 7, "Terminal": 0, "DistrictId": 1, "Latitude": 22.90166, "Longitude": 120.54176, "IVRNo": 9736, "EXTVoiceNo": 11196, "traveltime": 0, "holidayTraveltime": 0}, {"Id": "3339", "pgp": 0, "GoBack": 2, "SID": 14609, "NameZh": "Meinong District Office (Health Center)", "RouteId": 411, "SeqNo": 8, "Terminal": 0, "DistrictId": 1, "Latitude": 22.896804, "Longitude": 120.542373, "IVRNo": 13339, "EXTVoiceNo": 13339, "traveltime": 0, "holidayTraveltime": 0}, {"Id": "3431", "pgp": 0, "GoBack": 2, "SID": 14616, "NameZh": "Longdu", "RouteId": 411, "SeqNo": 9, "Terminal": 0, "DistrictId": 1, "Latitude": 22.87866, "Longitude": 120.56956, "IVRNo": 1078, "EXTVoiceNo": 13431, "traveltime": 0, "holidayTraveltime": 0}, {"Id": "3372", "pgp": 0, "GoBack": 2, "SID": 14635, "NameZh": "Fusing", "RouteId": 411, "SeqNo": 10, "Terminal": 0, "DistrictId": 1, "Latitude": 22.96346, "Longitude": 120.6427, "IVRNo": 11490, "EXTVoiceNo": 13372, "traveltime": 0, "holidayTraveltime": 0}, {"Id": "0203", "pgp": 0, "GoBack": 2, "SID": 14646, "NameZh": "Liouguei Station", "RouteId": 411, "SeqNo": 11, "Terminal": 0, "DistrictId": 1, "Latitude": 22.997697, "Longitude": 120.634509, "IVRNo": 10397, "EXTVoiceNo": 20203, "traveltime": 0, "holidayTraveltime": 0}, {"Id": "6085", "pgp": 0, "GoBack": 2, "SID": 14645, "NameZh": "Liouguei District Office, Health Center", "RouteId": 411, "SeqNo": 12, "Terminal": 0, "DistrictId": 1, "Latitude": 22.998047, "Longitude": 120.633437, "IVRNo": 13276, "EXTVoiceNo": 26085, "traveltime": 0, "holidayTraveltime": 0}, {"Id": "3312", "pgp": 0, "GoBack": 2, "SID": 14654, "NameZh": "Children`s home", "RouteId": 411, "SeqNo": 13, "Terminal": 0, "DistrictId": 1, "Latitude": 23.005997, "Longitude": 120.656034, "IVRNo": 13312, "EXTVoiceNo": 13312, "traveltime": 0, "holidayTraveltime": 0}, {"Id": "3391", "pgp": 0, "GoBack": 2, "SID": 14659, "NameZh": "Xinfa Elementary School", "RouteId": 411, "SeqNo": 14, "Terminal": 0, "DistrictId": 1, "Latitude": 23.03168, "Longitude": 120.6637, "IVRNo": 13391, "EXTVoiceNo": 13391, "traveltime": 0, "holidayTraveltime": 0}, {"Id": "3368", "pgp": 0, "GoBack": 2, "SID": 14662, "NameZh": "Dingsinfa", "RouteId": 411, "SeqNo": 15, "Terminal": 0, "DistrictId": 1, "Latitude": 23.04313, "Longitude": 120.66771, "IVRNo": 13368, "EXTVoiceNo": 13368, "traveltime": 0, "holidayTraveltime": 0}, {"Id": "3361", "pgp": 0, "GoBack": 2, "SID": 14667, "NameZh": "Laonong Elementary School", "RouteId": 411, "SeqNo": 16, "Terminal": 0, "DistrictId": 1, "Latitude": 23.07308, "Longitude": 120.67298, "IVRNo": 13361, "EXTVoiceNo": 13361, "traveltime": 0, "holidayTraveltime": 0}, {"Id": "3442", "pgp": 0, "GoBack": 2, "SID": 14680, "NameZh": "Baolai Junior High School", "RouteId": 411, "SeqNo": 17, "Terminal": 0, "DistrictId": 1, "Latitude": 23.11055, "Longitude": 120.70298, "IVRNo": 13442, "EXTVoiceNo": 13442, "traveltime": 0, "holidayTraveltime": 0}, {"Id": "0887", "pgp": 0, "GoBack": 2, "SID": 14686, "NameZh": "Taoyuan District Office, Health Center", "RouteId": 411, "SeqNo": 18, "Terminal": 1, "DistrictId": 1, "Latitude": 23.15886, "Longitude": 120.76401, "IVRNo": 887, "EXTVoiceNo": 887, "traveltime": 0, "holidayTraveltime": 0}], "zh": [{"Id": "0887", "pgp": 0, "GoBack": 1, "SID": 14441, "NameZh": "\u6843\u6e90\u5340\u516c\u6240(\u885b\u751f\u6240)", "RouteId": 411, "SeqNo": 1, "Terminal": 0, "DistrictId": 1, "Latitude": 23.15886, "Longitude": 120.76401, "IVRNo": 887, "EXTVoiceNo": 887, "traveltime": 0, "holidayTraveltime": 0}, {"Id": "3442", "pgp": 0, "GoBack": 1, "SID": 14447, "NameZh": "\u5bf6\u4f86\u570b\u4e2d", "RouteId": 411, "SeqNo": 2, "Terminal": 0, "DistrictId": 1, "Latitude": 23.108771, "Longitude": 120.699883, "IVRNo": 13442, "EXTVoiceNo": 13442, "traveltime": 0, "holidayTraveltime": 0}, {"Id": "3361", "pgp": 0, "GoBack": 1, "SID": 14460, "NameZh": "\u8356\u6fc3\u570b\u5c0f", "RouteId": 411, "SeqNo": 3, "Terminal": 0, "DistrictId": 1, "Latitude": 23.073156, "Longitude": 120.67296, "IVRNo": 13361, "EXTVoiceNo": 13361, "traveltime": 0, "holidayTraveltime": 0}, {"Id": "3368", "pgp": 0, "GoBack": 1, "SID": 14465, "NameZh": "\u9802\u65b0\u767c", "RouteId": 411, "SeqNo": 4, "Terminal": 0, "DistrictId": 1, "Latitude": 23.04312, "Longitude": 120.667668, "IVRNo": 13368, "EXTVoiceNo": 13368, "traveltime": 0, "holidayTraveltime": 0}, {"Id": "3391", "pgp": 0, "GoBack": 1, "SID": 14468, "NameZh": "\u65b0\u767c\u570b\u5c0f", "RouteId": 411, "SeqNo": 5, "Terminal": 0, "DistrictId": 1, "Latitude": 23.03163, "Longitude": 120.663653, "IVRNo": 13391, "EXTVoiceNo": 13391, "traveltime": 0, "holidayTraveltime": 0}, {"Id": "3312", "pgp": 0, "GoBack": 1, "SID": 14473, "NameZh": "\u80b2\u5e7c\u9662", "RouteId": 411, "SeqNo": 6, "Terminal": 0, "DistrictId": 1, "Latitude": 23.006003, "Longitude": 120.655903, "IVRNo": 13312, "EXTVoiceNo": 13312, "traveltime": 0, "holidayTraveltime": 0}, {"Id": "6085", "pgp": 0, "GoBack": 1, "SID": 14481, "NameZh": "\u516d\u9f9c\u5340\u516c\u6240.\u885b\u751f\u6240", "RouteId": 411, "SeqNo": 7, "Terminal": 0, "DistrictId": 1, "Latitude": 22.998047, "Longitude": 120.633437, "IVRNo": 13276, "EXTVoiceNo": 26085, "traveltime": 0, "holidayTraveltime": 0}, {"Id": "0203", "pgp": 0, "GoBack": 1, "SID": 14482, "NameZh": "\u516d\u9f9c\u7ad9", "RouteId": 411, "SeqNo": 8, "Terminal": 0, "DistrictId": 1, "Latitude": 22.997844, "Longitude": 120.63459, "IVRNo": 10397, "EXTVoiceNo": 20203, "traveltime": 0, "holidayTraveltime": 0}, {"Id": "3372", "pgp": 0, "GoBack": 1, "SID": 14492, "NameZh": "\u5fa9\u8208", "RouteId": 411, "SeqNo": 9, "Terminal": 0, "DistrictId": 1, "Latitude": 22.963457, "Longitude": 120.642687, "IVRNo": 11490, "EXTVoiceNo": 13372, "traveltime": 0, "holidayTraveltime": 0}, {"Id": "3431", "pgp": 0, "GoBack": 1, "SID": 14511, "NameZh": "\u9f8d\u809a", "RouteId": 411, "SeqNo": 10, "Terminal": 0, "DistrictId": 1, "Latitude": 22.87866, "Longitude": 120.56956, "IVRNo": 1078, "EXTVoiceNo": 13431, "traveltime": 0, "holidayTraveltime": 0}, {"Id": "3339", "pgp": 0, "GoBack": 1, "SID": 14518, "NameZh": "\u7f8e\u6fc3\u5340\u516c\u6240(\u885b\u751f\u6240)", "RouteId": 411, "SeqNo": 11, "Terminal": 0, "DistrictId": 1, "Latitude": 22.896804, "Longitude": 120.542453, "IVRNo": 13339, "EXTVoiceNo": 13339, "traveltime": 0, "holidayTraveltime": 0}, {"Id": "1196", "pgp": 0, "GoBack": 1, "SID": 14520, "NameZh": "\u7f8e\u6fc3\u7ad9", "RouteId": 411, "SeqNo": 12, "Terminal": 0, "DistrictId": 1, "Latitude": 22.90166, "Longitude": 120.54176, "IVRNo": 9736, "EXTVoiceNo": 11196, "traveltime": 0, "holidayTraveltime": 0}, {"Id": "3412", "pgp": 0, "GoBack": 1, "SID": 14530, "NameZh": "\u65d7\u5c71\u8f49\u904b\u7ad9", "RouteId": 411, "SeqNo": 13, "Terminal": 0, "DistrictId": 1, "Latitude": 22.8835, "Longitude": 120.48461, "IVRNo": 9717, "EXTVoiceNo": 13412, "traveltime": 0, "holidayTraveltime": 0}, {"Id": "3422", "pgp": 0, "GoBack": 1, "SID": 18465, "NameZh": "\u5fb7\u660c\u8def-\u7f72\u7acb\u65d7\u5c71\u91ab\u9662", "RouteId": 411, "SeqNo": 14, "Terminal": 0, "DistrictId": 1, "Latitude": 22.880445, "Longitude": 120.48378, "IVRNo": 1069, "EXTVoiceNo": 13422, "traveltime": 0, "holidayTraveltime": 0}, {"Id": "1702", "pgp": 0, "GoBack": 1, "SID": 14543, "NameZh": "\u6eaa\u6d32", "RouteId": 411, "SeqNo": 15, "Terminal": 0, "DistrictId": 1, "Latitude": 22.843748, "Longitude": 120.464513, "IVRNo": 11702, "EXTVoiceNo": 11702, "traveltime": 0, "holidayTraveltime": 0}, {"Id": "0900", "pgp": 0, "GoBack": 1, "SID": 14549, "NameZh": "\u5c1a\u548c", "RouteId": 411, "SeqNo": 16, "Terminal": 0, "DistrictId": 1, "Latitude": 22.814795, "Longitude": 120.461609, "IVRNo": 10900, "EXTVoiceNo": 10900, "traveltime": 0, "holidayTraveltime": 0}, {"Id": "7602", "pgp": 0, "GoBack": 1, "SID": 14552, "NameZh": "\u7fa9\u5927\u91ab\u9662", "RouteId": 411, "SeqNo": 17, "Terminal": 0, "DistrictId": 1, "Latitude": 22.76495, "Longitude": 120.36415, "IVRNo": 7126, "EXTVoiceNo": 7602, "traveltime": 0, "holidayTraveltime": 0}, {"Id": "3534", "pgp": 0, "GoBack": 1, "SID": 14563, "NameZh": "\u9577\u5e9a\u91ab\u9662", "RouteId": 411, "SeqNo": 18, "Terminal": 1, "DistrictId": 1, "Latitude": 22.650821, "Longitude": 120.35674, "IVRNo": 3534, "EXTVoiceNo": 3534, "traveltime": 0, "holidayTraveltime": 0}, {"Id": "3534", "pgp": 0, "GoBack": 2, "SID": 14564, "NameZh": "\u9577\u5e9a\u91ab\u9662", "RouteId": 411, "SeqNo": 1, "Terminal": 0, "DistrictId": 1, "Latitude": 22.65078, "Longitude": 120.35681, "IVRNo": 3534, "EXTVoiceNo": 3534, "traveltime": 0, "holidayTraveltime": 0}, {"Id": "7602", "pgp": 0, "GoBack": 2, "SID": 14574, "NameZh": "\u7fa9\u5927\u91ab\u9662", "RouteId": 411, "SeqNo": 2, "Terminal": 0, "DistrictId": 1, "Latitude": 22.76495, "Longitude": 120.36415, "IVRNo": 7126, "EXTVoiceNo": 7602, "traveltime": 0, "holidayTraveltime": 0}, {"Id": "0900", "pgp": 0, "GoBack": 2, "SID": 14578, "NameZh": "\u5c1a\u548c", "RouteId": 411, "SeqNo": 3, "Terminal": 0, "DistrictId": 1, "Latitude": 22.81473, "Longitude": 120.46171, "IVRNo": 10900, "EXTVoiceNo": 10900, "traveltime": 0, "holidayTraveltime": 0}, {"Id": "1702", "pgp": 0, "GoBack": 2, "SID": 14584, "NameZh": "\u6eaa\u6d32", "RouteId": 411, "SeqNo": 4, "Terminal": 0, "DistrictId": 1, "Latitude": 22.8437, "Longitude": 120.46456, "IVRNo": 11702, "EXTVoiceNo": 11702, "traveltime": 0, "holidayTraveltime": 0}, {"Id": "3422", "pgp": 0, "GoBack": 2, "SID": 18489, "NameZh": "\u5fb7\u660c\u8def-\u7f72\u7acb\u65d7\u5c71\u91ab\u9662", "RouteId": 411, "SeqNo": 5, "Terminal": 0, "DistrictId": 1, "Latitude": 22.880418, "Longitude": 120.483857, "IVRNo": 1069, "EXTVoiceNo": 13422, "traveltime": 0, "holidayTraveltime": 0}, {"Id": "3412", "pgp": 0, "GoBack": 2, "SID": 14597, "NameZh": "\u65d7\u5c71\u8f49\u904b\u7ad9", "RouteId": 411, "SeqNo": 6, "Terminal": 0, "DistrictId": 1, "Latitude": 22.883438, "Longitude": 120.484586, "IVRNo": 9717, "EXTVoiceNo": 13412, "traveltime": 0, "holidayTraveltime": 0}, {"Id": "1196", "pgp": 0, "GoBack": 2, "SID": 14607, "NameZh": "\u7f8e\u6fc3\u7ad9", "RouteId": 411, "SeqNo": 7, "Terminal": 0, "DistrictId": 1, "Latitude": 22.90166, "Longitude": 120.54176, "IVRNo": 9736, "EXTVoiceNo": 11196, "traveltime": 0, "holidayTraveltime": 0}, {"Id": "3339", "pgp": 0, "GoBack": 2, "SID": 14609, "NameZh": "\u7f8e\u6fc3\u5340\u516c\u6240(\u885b\u751f\u6240)", "RouteId": 411, "SeqNo": 8, "Terminal": 0, "DistrictId": 1, "Latitude": 22.896804, "Longitude": 120.542373, "IVRNo": 13339, "EXTVoiceNo": 13339, "traveltime": 0, "holidayTraveltime": 0}, {"Id": "3431", "pgp": 0, "GoBack": 2, "SID": 14616, "NameZh": "\u9f8d\u809a", "RouteId": 411, "SeqNo": 9, "Terminal": 0, "DistrictId": 1, "Latitude": 22.87866, "Longitude": 120.56956, "IVRNo": 1078, "EXTVoiceNo": 13431, "traveltime": 0, "holidayTraveltime": 0}, {"Id": "3372", "pgp": 0, "GoBack": 2, "SID": 14635, "NameZh": "\u5fa9\u8208", "RouteId": 411, "SeqNo": 10, "Terminal": 0, "DistrictId": 1, "Latitude": 22.96346, "Longitude": 120.6427, "IVRNo": 11490, "EXTVoiceNo": 13372, "traveltime": 0, "holidayTraveltime": 0}, {"Id": "0203", "pgp": 0, "GoBack": 2, "SID": 14646, "NameZh": "\u516d\u9f9c\u7ad9", "RouteId": 411, "SeqNo": 11, "Terminal": 0, "DistrictId": 1, "Latitude": 22.997697, "Longitude": 120.634509, "IVRNo": 10397, "EXTVoiceNo": 20203, "traveltime": 0, "holidayTraveltime": 0}, {"Id": "6085", "pgp": 0, "GoBack": 2, "SID": 14645, "NameZh": "\u516d\u9f9c\u5340\u516c\u6240.\u885b\u751f\u6240", "RouteId": 411, "SeqNo": 12, "Terminal": 0, "DistrictId": 1, "Latitude": 22.998047, "Longitude": 120.633437, "IVRNo": 13276, "EXTVoiceNo": 26085, "traveltime": 0, "holidayTraveltime": 0}, {"Id": "3312", "pgp": 0, "GoBack": 2, "SID": 14654, "NameZh": "\u80b2\u5e7c\u9662", "RouteId": 411, "SeqNo": 13, "Terminal": 0, "DistrictId": 1, "Latitude": 23.005997, "Longitude": 120.656034, "IVRNo": 13312, "EXTVoiceNo": 13312, "traveltime": 0, "holidayTraveltime": 0}, {"Id": "3391", "pgp": 0, "GoBack": 2, "SID": 14659, "NameZh": "\u65b0\u767c\u570b\u5c0f", "RouteId": 411, "SeqNo": 14, "Terminal": 0, "DistrictId": 1, "Latitude": 23.03168, "Longitude": 120.6637, "IVRNo": 13391, "EXTVoiceNo": 13391, "traveltime": 0, "holidayTraveltime": 0}, {"Id": "3368", "pgp": 0, "GoBack": 2, "SID": 14662, "NameZh": "\u9802\u65b0\u767c", "RouteId": 411, "SeqNo": 15, "Terminal": 0, "DistrictId": 1, "Latitude": 23.04313, "Longitude": 120.66771, "IVRNo": 13368, "EXTVoiceNo": 13368, "traveltime": 0, "holidayTraveltime": 0}, {"Id": "3361", "pgp": 0, "GoBack": 2, "SID": 14667, "NameZh": "\u8356\u6fc3\u570b\u5c0f", "RouteId": 411, "SeqNo": 16, "Terminal": 0, "DistrictId": 1, "Latitude": 23.07308, "Longitude": 120.67298, "IVRNo": 13361, "EXTVoiceNo": 13361, "traveltime": 0, "holidayTraveltime": 0}, {"Id": "3442", "pgp": 0, "GoBack": 2, "SID": 14680, "NameZh": "\u5bf6\u4f86\u570b\u4e2d", "RouteId": 411, "SeqNo": 17, "Terminal": 0, "DistrictId": 1, "Latitude": 23.11055, "Longitude": 120.70298, "IVRNo": 13442, "EXTVoiceNo": 13442, "traveltime": 0, "holidayTraveltime": 0}, {"Id": "0887", "pgp": 0, "GoBack": 2, "SID": 14686, "NameZh": "\u6843\u6e90\u5340\u516c\u6240(\u885b\u751f\u6240)", "RouteId": 411, "SeqNo": 18, "Terminal": 1, "DistrictId": 1, "Latitude": 23.15886, "Longitude": 120.76401, "IVRNo": 887, "EXTVoiceNo": 887, "traveltime": 0, "holidayTraveltime": 0}]}