{"en": [{"Id": "9125", "pgp": 0, "GoBack": 1, "SID": 5339, "NameZh": "MRT Ciaotou Train Station", "RouteId": 8723, "SeqNo": 1, "Terminal": 0, "DistrictId": 1, "Latitude": 22.760615, "Longitude": 120.309235, "IVRNo": 7900, "EXTVoiceNo": 9125, "traveltime": 0, "holidayTraveltime": 0}, {"Id": "7902", "pgp": 0, "GoBack": 1, "SID": 5340, "NameZh": "Ciaotou Junior High School", "RouteId": 8723, "SeqNo": 2, "Terminal": 0, "DistrictId": 1, "Latitude": 22.75881, "Longitude": 120.30715, "IVRNo": 7902, "EXTVoiceNo": 7902, "traveltime": 0, "holidayTraveltime": 0}, {"Id": "7903", "pgp": 0, "GoBack": 1, "SID": 5341, "NameZh": "Ciaotou  District Office (Baishu Rd.)", "RouteId": 8723, "SeqNo": 3, "Terminal": 0, "DistrictId": 1, "Latitude": 22.75846, "Longitude": 120.30536, "IVRNo": 7706, "EXTVoiceNo": 7903, "traveltime": 0, "holidayTraveltime": 0}, {"Id": "9808", "pgp": 0, "GoBack": 1, "SID": 11402, "NameZh": "Meide St. Intersection", "RouteId": 8723, "SeqNo": 4, "Terminal": 0, "DistrictId": 1, "Latitude": 22.756777, "Longitude": 120.300614, "IVRNo": 9785, "EXTVoiceNo": 9808, "traveltime": 0, "holidayTraveltime": 0}, {"Id": "9112", "pgp": 0, "GoBack": 1, "SID": 5362, "NameZh": "Shihyuan Rd. Intersection", "RouteId": 8723, "SeqNo": 5, "Terminal": 0, "DistrictId": 1, "Latitude": 22.75595, "Longitude": 120.29723, "IVRNo": 7924, "EXTVoiceNo": 9112, "traveltime": 0, "holidayTraveltime": 0}, {"Id": "9112", "pgp": 0, "GoBack": 1, "SID": 18158, "NameZh": "Jiashu Rd. Intersection (The 2nd Funeral Parlor in Ciaoto)", "RouteId": 8723, "SeqNo": 6, "Terminal": 0, "DistrictId": 1, "Latitude": 22.758505, "Longitude": 120.297095, "IVRNo": 5781, "EXTVoiceNo": 9112, "traveltime": 0, "holidayTraveltime": 0}, {"Id": "9112", "pgp": 0, "GoBack": 1, "SID": 11403, "NameZh": "Jiashu Rd.", "RouteId": 8723, "SeqNo": 7, "Terminal": 0, "DistrictId": 1, "Latitude": 22.762489, "Longitude": 120.299899, "IVRNo": 9786, "EXTVoiceNo": 9112, "traveltime": 0, "holidayTraveltime": 0}, {"Id": "9228", "pgp": 0, "GoBack": 1, "SID": 11404, "NameZh": "Southern Region Training Center Training Directorate General Of Highways.M.O.T.C", "RouteId": 8723, "SeqNo": 8, "Terminal": 0, "DistrictId": 1, "Latitude": 22.764112, "Longitude": 120.299268, "IVRNo": 9787, "EXTVoiceNo": 9228, "traveltime": 0, "holidayTraveltime": 0}, {"Id": "9229", "pgp": 0, "GoBack": 1, "SID": 11405, "NameZh": "Wulin Rd. Intersection", "RouteId": 8723, "SeqNo": 9, "Terminal": 0, "DistrictId": 1, "Latitude": 22.762661, "Longitude": 120.294366, "IVRNo": 9788, "EXTVoiceNo": 9229, "traveltime": 0, "holidayTraveltime": 0}, {"Id": "9230", "pgp": 0, "GoBack": 1, "SID": 11406, "NameZh": "Wulin Elementary School", "RouteId": 8723, "SeqNo": 10, "Terminal": 0, "DistrictId": 1, "Latitude": 22.759372, "Longitude": 120.294012, "IVRNo": 9789, "EXTVoiceNo": 9230, "traveltime": 0, "holidayTraveltime": 0}, {"Id": "7904", "pgp": 0, "GoBack": 1, "SID": 5342, "NameZh": "Kao-Yuan Technology & Commerce", "RouteId": 8723, "SeqNo": 11, "Terminal": 0, "DistrictId": 1, "Latitude": 22.7575, "Longitude": 120.29215, "IVRNo": 7904, "EXTVoiceNo": 7904, "traveltime": 0, "holidayTraveltime": 0}, {"Id": "7925", "pgp": 0, "GoBack": 1, "SID": 5365, "NameZh": "Yuliao Rd.", "RouteId": 8723, "SeqNo": 12, "Terminal": 0, "DistrictId": 1, "Latitude": 22.76, "Longitude": 120.2863, "IVRNo": 7925, "EXTVoiceNo": 7925, "traveltime": 0, "holidayTraveltime": 0}, {"Id": "7905", "pgp": 0, "GoBack": 1, "SID": 5343, "NameZh": "Chung Hung Steel (Ciaotou)", "RouteId": 8723, "SeqNo": 13, "Terminal": 0, "DistrictId": 1, "Latitude": 22.76221, "Longitude": 120.27773, "IVRNo": 7905, "EXTVoiceNo": 7905, "traveltime": 0, "holidayTraveltime": 0}, {"Id": "9114", "pgp": 0, "GoBack": 1, "SID": 5366, "NameZh": "Jhonglun Rd.", "RouteId": 8723, "SeqNo": 14, "Terminal": 0, "DistrictId": 1, "Latitude": 22.76173, "Longitude": 120.27306, "IVRNo": 7926, "EXTVoiceNo": 9114, "traveltime": 0, "holidayTraveltime": 0}, {"Id": "9115", "pgp": 0, "GoBack": 1, "SID": 5368, "NameZh": "Zihyi 3rd Park", "RouteId": 8723, "SeqNo": 15, "Terminal": 0, "DistrictId": 1, "Latitude": 22.76118, "Longitude": 120.26965, "IVRNo": 32343, "EXTVoiceNo": 9115, "traveltime": 0, "holidayTraveltime": 0}, {"Id": "7906", "pgp": 0, "GoBack": 1, "SID": 5344, "NameZh": "Zihguan District Office", "RouteId": 8723, "SeqNo": 16, "Terminal": 0, "DistrictId": 1, "Latitude": 22.760723, "Longitude": 120.266656, "IVRNo": 7906, "EXTVoiceNo": 7906, "traveltime": 0, "holidayTraveltime": 0}, {"Id": "7907", "pgp": 0, "GoBack": 1, "SID": 5345, "NameZh": "Zihguan Elementary School", "RouteId": 8723, "SeqNo": 17, "Terminal": 0, "DistrictId": 1, "Latitude": 22.760515, "Longitude": 120.264626, "IVRNo": 7907, "EXTVoiceNo": 7907, "traveltime": 0, "holidayTraveltime": 0}, {"Id": "7908", "pgp": 0, "GoBack": 1, "SID": 5346, "NameZh": "Sinyi Rd.", "RouteId": 8723, "SeqNo": 18, "Terminal": 0, "DistrictId": 1, "Latitude": 22.76229, "Longitude": 120.26244, "IVRNo": 7908, "EXTVoiceNo": 7908, "traveltime": 0, "holidayTraveltime": 0}, {"Id": "0535", "pgp": 0, "GoBack": 1, "SID": 9602, "NameZh": "Fenci Station", "RouteId": 8723, "SeqNo": 19, "Terminal": 0, "DistrictId": 1, "Latitude": 22.770847, "Longitude": 120.257645, "IVRNo": 535, "EXTVoiceNo": 535, "traveltime": 0, "holidayTraveltime": 0}, {"Id": "7909", "pgp": 0, "GoBack": 1, "SID": 5347, "NameZh": "Exploration Experience Gakuen", "RouteId": 8723, "SeqNo": 20, "Terminal": 0, "DistrictId": 1, "Latitude": 22.772886, "Longitude": 120.255625, "IVRNo": 7909, "EXTVoiceNo": 7909, "traveltime": 0, "holidayTraveltime": 0}, {"Id": "7910", "pgp": 0, "GoBack": 1, "SID": 5348, "NameZh": "Mituo Junior High School (Jhongjheng S. Rd.)", "RouteId": 8723, "SeqNo": 21, "Terminal": 0, "DistrictId": 1, "Latitude": 22.77741, "Longitude": 120.25091, "IVRNo": 869, "EXTVoiceNo": 7910, "traveltime": 0, "holidayTraveltime": 0}, {"Id": "7911", "pgp": 0, "GoBack": 1, "SID": 5349, "NameZh": "Mituo District Office", "RouteId": 8723, "SeqNo": 22, "Terminal": 0, "DistrictId": 1, "Latitude": 22.780392, "Longitude": 120.249284, "IVRNo": 7911, "EXTVoiceNo": 7911, "traveltime": 0, "holidayTraveltime": 0}, {"Id": "7912", "pgp": 0, "GoBack": 1, "SID": 5350, "NameZh": "Mituo Elementary School", "RouteId": 8723, "SeqNo": 23, "Terminal": 0, "DistrictId": 1, "Latitude": 22.784147, "Longitude": 120.248042, "IVRNo": 7912, "EXTVoiceNo": 7912, "traveltime": 0, "holidayTraveltime": 0}, {"Id": "9116", "pgp": 0, "GoBack": 1, "SID": 11407, "NameZh": "Yancheng", "RouteId": 8723, "SeqNo": 24, "Terminal": 0, "DistrictId": 1, "Latitude": 22.787173, "Longitude": 120.246794, "IVRNo": 9543, "EXTVoiceNo": 9116, "traveltime": 0, "holidayTraveltime": 0}, {"Id": "3302", "pgp": 0, "GoBack": 1, "SID": 2952, "NameZh": "Yancheng Central Rd. Intersection", "RouteId": 8723, "SeqNo": 25, "Terminal": 0, "DistrictId": 1, "Latitude": 22.788645, "Longitude": 120.244916, "IVRNo": 2952, "EXTVoiceNo": 13302, "traveltime": 0, "holidayTraveltime": 0}, {"Id": "3303", "pgp": 0, "GoBack": 1, "SID": 14300, "NameZh": "Anle Temple", "RouteId": 8723, "SeqNo": 26, "Terminal": 0, "DistrictId": 1, "Latitude": 22.788575, "Longitude": 120.243447, "IVRNo": 14300, "EXTVoiceNo": 13303, "traveltime": 0, "holidayTraveltime": 0}, {"Id": "9231", "pgp": 0, "GoBack": 1, "SID": 11410, "NameZh": "Wunan Rd. E. Sec.", "RouteId": 8723, "SeqNo": 27, "Terminal": 0, "DistrictId": 1, "Latitude": 22.794427, "Longitude": 120.240262, "IVRNo": 9790, "EXTVoiceNo": 9231, "traveltime": 0, "holidayTraveltime": 0}, {"Id": "9232", "pgp": 0, "GoBack": 1, "SID": 11411, "NameZh": "Wunan Rd.", "RouteId": 8723, "SeqNo": 28, "Terminal": 0, "DistrictId": 1, "Latitude": 22.79402, "Longitude": 120.237081, "IVRNo": 9791, "EXTVoiceNo": 9232, "traveltime": 0, "holidayTraveltime": 0}, {"Id": "9792", "pgp": 0, "GoBack": 1, "SID": 11412, "NameZh": "Shouling Elementary School", "RouteId": 8723, "SeqNo": 29, "Terminal": 0, "DistrictId": 1, "Latitude": 22.795141, "Longitude": 120.233914, "IVRNo": 9792, "EXTVoiceNo": 9792, "traveltime": 0, "holidayTraveltime": 0}, {"Id": "9800", "pgp": 0, "GoBack": 1, "SID": 11413, "NameZh": "Jiougang Rd. E. Sec.", "RouteId": 8723, "SeqNo": 30, "Terminal": 0, "DistrictId": 1, "Latitude": 22.796906, "Longitude": 120.231048, "IVRNo": 9793, "EXTVoiceNo": 9800, "traveltime": 0, "holidayTraveltime": 0}, {"Id": "9794", "pgp": 0, "GoBack": 1, "SID": 11414, "NameZh": "Jiougang Police Office", "RouteId": 8723, "SeqNo": 31, "Terminal": 0, "DistrictId": 1, "Latitude": 22.799388, "Longitude": 120.23106, "IVRNo": 9794, "EXTVoiceNo": 9794, "traveltime": 0, "holidayTraveltime": 0}, {"Id": "2157", "pgp": 0, "GoBack": 1, "SID": 11415, "NameZh": "Fusing Rd.", "RouteId": 8723, "SeqNo": 32, "Terminal": 0, "DistrictId": 1, "Latitude": 22.801841, "Longitude": 120.234043, "IVRNo": 9795, "EXTVoiceNo": 2157, "traveltime": 0, "holidayTraveltime": 0}, {"Id": "9119", "pgp": 0, "GoBack": 1, "SID": 11416, "NameZh": "Baoan Rd. Intersection", "RouteId": 8723, "SeqNo": 33, "Terminal": 0, "DistrictId": 1, "Latitude": 22.807991, "Longitude": 120.243294, "IVRNo": 9546, "EXTVoiceNo": 9119, "traveltime": 0, "holidayTraveltime": 0}, {"Id": "9120", "pgp": 0, "GoBack": 1, "SID": 11417, "NameZh": "Tianwun Temple", "RouteId": 8723, "SeqNo": 34, "Terminal": 0, "DistrictId": 1, "Latitude": 22.81348, "Longitude": 120.24276, "IVRNo": 9547, "EXTVoiceNo": 9120, "traveltime": 0, "holidayTraveltime": 0}, {"Id": "1054", "pgp": 0, "GoBack": 1, "SID": 11418, "NameZh": "Nantian Temple (Yongan)", "RouteId": 8723, "SeqNo": 35, "Terminal": 0, "DistrictId": 1, "Latitude": 22.81626, "Longitude": 120.24163, "IVRNo": 9548, "EXTVoiceNo": 11054, "traveltime": 0, "holidayTraveltime": 0}, {"Id": "9549", "pgp": 0, "GoBack": 1, "SID": 11419, "NameZh": "Pasture", "RouteId": 8723, "SeqNo": 36, "Terminal": 0, "DistrictId": 1, "Latitude": 22.81875, "Longitude": 120.24045, "IVRNo": 9549, "EXTVoiceNo": 9549, "traveltime": 0, "holidayTraveltime": 0}, {"Id": "9123", "pgp": 0, "GoBack": 1, "SID": 11420, "NameZh": "Yongan Junior High School", "RouteId": 8723, "SeqNo": 37, "Terminal": 0, "DistrictId": 1, "Latitude": 22.82336, "Longitude": 120.23825, "IVRNo": 9550, "EXTVoiceNo": 9123, "traveltime": 0, "holidayTraveltime": 0}, {"Id": "1080", "pgp": 0, "GoBack": 1, "SID": 9810, "NameZh": "Nanbaoning", "RouteId": 8723, "SeqNo": 38, "Terminal": 0, "DistrictId": 1, "Latitude": 22.832608, "Longitude": 120.234815, "IVRNo": 11080, "EXTVoiceNo": 11080, "traveltime": 0, "holidayTraveltime": 0}, {"Id": "1040", "pgp": 0, "GoBack": 1, "SID": 9822, "NameZh": "Baoning", "RouteId": 8723, "SeqNo": 39, "Terminal": 0, "DistrictId": 1, "Latitude": 22.83536, "Longitude": 120.23471, "IVRNo": 11040, "EXTVoiceNo": 11040, "traveltime": 0, "holidayTraveltime": 0}, {"Id": "1080", "pgp": 0, "GoBack": 1, "SID": 15960, "NameZh": "Nanbaoning", "RouteId": 8723, "SeqNo": 40, "Terminal": 0, "DistrictId": 1, "Latitude": 22.8326, "Longitude": 120.2346, "IVRNo": 11080, "EXTVoiceNo": 11080, "traveltime": 0, "holidayTraveltime": 0}, {"Id": "9239", "pgp": 0, "GoBack": 1, "SID": 11421, "NameZh": "Yonghua Rd. Intersection", "RouteId": 8723, "SeqNo": 41, "Terminal": 0, "DistrictId": 1, "Latitude": 22.818817, "Longitude": 120.225968, "IVRNo": 9796, "EXTVoiceNo": 9239, "traveltime": 0, "holidayTraveltime": 0}, {"Id": "9124", "pgp": 0, "GoBack": 1, "SID": 12325, "NameZh": "Yongan District Office", "RouteId": 8723, "SeqNo": 42, "Terminal": 1, "DistrictId": 1, "Latitude": 22.81833, "Longitude": 120.22473, "IVRNo": 8948, "EXTVoiceNo": 9124, "traveltime": 0, "holidayTraveltime": 0}, {"Id": "9124", "pgp": 0, "GoBack": 2, "SID": 11423, "NameZh": "Yongan District Office", "RouteId": 8723, "SeqNo": 1, "Terminal": 0, "DistrictId": 1, "Latitude": 22.818311, "Longitude": 120.224789, "IVRNo": 8948, "EXTVoiceNo": 9124, "traveltime": 0, "holidayTraveltime": 0}, {"Id": "9239", "pgp": 0, "GoBack": 2, "SID": 11424, "NameZh": "Yonghua Rd. Intersection", "RouteId": 8723, "SeqNo": 2, "Terminal": 0, "DistrictId": 1, "Latitude": 22.818756, "Longitude": 120.226164, "IVRNo": 9796, "EXTVoiceNo": 9239, "traveltime": 0, "holidayTraveltime": 0}, {"Id": "1080", "pgp": 0, "GoBack": 2, "SID": 9257, "NameZh": "Nanbaoning", "RouteId": 8723, "SeqNo": 3, "Terminal": 0, "DistrictId": 1, "Latitude": 22.832608, "Longitude": 120.234815, "IVRNo": 11080, "EXTVoiceNo": 11080, "traveltime": 0, "holidayTraveltime": 0}, {"Id": "1040", "pgp": 0, "GoBack": 2, "SID": 9270, "NameZh": "Baoning", "RouteId": 8723, "SeqNo": 4, "Terminal": 0, "DistrictId": 1, "Latitude": 22.83536, "Longitude": 120.23471, "IVRNo": 11040, "EXTVoiceNo": 11040, "traveltime": 0, "holidayTraveltime": 0}, {"Id": "1080", "pgp": 0, "GoBack": 2, "SID": 14240, "NameZh": "Nanbaoning", "RouteId": 8723, "SeqNo": 5, "Terminal": 0, "DistrictId": 1, "Latitude": 22.8326, "Longitude": 120.2346, "IVRNo": 11080, "EXTVoiceNo": 11080, "traveltime": 0, "holidayTraveltime": 0}, {"Id": "9123", "pgp": 0, "GoBack": 2, "SID": 11425, "NameZh": "Yongan Junior High School", "RouteId": 8723, "SeqNo": 6, "Terminal": 0, "DistrictId": 1, "Latitude": 22.82353, "Longitude": 120.23806, "IVRNo": 9550, "EXTVoiceNo": 9123, "traveltime": 0, "holidayTraveltime": 0}, {"Id": "9549", "pgp": 0, "GoBack": 2, "SID": 11426, "NameZh": "Pasture", "RouteId": 8723, "SeqNo": 7, "Terminal": 0, "DistrictId": 1, "Latitude": 22.81808, "Longitude": 120.24055, "IVRNo": 9549, "EXTVoiceNo": 9549, "traveltime": 0, "holidayTraveltime": 0}, {"Id": "1054", "pgp": 0, "GoBack": 2, "SID": 11427, "NameZh": "Nantian Temple (Yongan)", "RouteId": 8723, "SeqNo": 8, "Terminal": 0, "DistrictId": 1, "Latitude": 22.81586, "Longitude": 120.24158, "IVRNo": 9548, "EXTVoiceNo": 11054, "traveltime": 0, "holidayTraveltime": 0}, {"Id": "9120", "pgp": 0, "GoBack": 2, "SID": 11428, "NameZh": "Tianwun Temple", "RouteId": 8723, "SeqNo": 9, "Terminal": 0, "DistrictId": 1, "Latitude": 22.81363, "Longitude": 120.24255, "IVRNo": 9547, "EXTVoiceNo": 9120, "traveltime": 0, "holidayTraveltime": 0}, {"Id": "9119", "pgp": 0, "GoBack": 2, "SID": 11429, "NameZh": "Baoan Rd. Intersection", "RouteId": 8723, "SeqNo": 10, "Terminal": 0, "DistrictId": 1, "Latitude": 22.80773, "Longitude": 120.243099, "IVRNo": 9546, "EXTVoiceNo": 9119, "traveltime": 0, "holidayTraveltime": 0}, {"Id": "2157", "pgp": 0, "GoBack": 2, "SID": 11430, "NameZh": "Fusing Rd.", "RouteId": 8723, "SeqNo": 11, "Terminal": 0, "DistrictId": 1, "Latitude": 22.801967, "Longitude": 120.234037, "IVRNo": 9795, "EXTVoiceNo": 2157, "traveltime": 0, "holidayTraveltime": 0}, {"Id": "9794", "pgp": 0, "GoBack": 2, "SID": 11431, "NameZh": "Jiougang Police Office", "RouteId": 8723, "SeqNo": 12, "Terminal": 0, "DistrictId": 1, "Latitude": 22.799356, "Longitude": 120.231014, "IVRNo": 9794, "EXTVoiceNo": 9794, "traveltime": 0, "holidayTraveltime": 0}, {"Id": "9800", "pgp": 0, "GoBack": 2, "SID": 11432, "NameZh": "Jiougang Rd. E. Sec.", "RouteId": 8723, "SeqNo": 13, "Terminal": 0, "DistrictId": 1, "Latitude": 22.796464, "Longitude": 120.231404, "IVRNo": 9793, "EXTVoiceNo": 9800, "traveltime": 0, "holidayTraveltime": 0}, {"Id": "9792", "pgp": 0, "GoBack": 2, "SID": 11433, "NameZh": "Shouling Elementary School", "RouteId": 8723, "SeqNo": 14, "Terminal": 0, "DistrictId": 1, "Latitude": 22.795267, "Longitude": 120.233578, "IVRNo": 9792, "EXTVoiceNo": 9792, "traveltime": 0, "holidayTraveltime": 0}, {"Id": "9232", "pgp": 0, "GoBack": 2, "SID": 11434, "NameZh": "Wunan Rd.", "RouteId": 8723, "SeqNo": 15, "Terminal": 0, "DistrictId": 1, "Latitude": 22.79402, "Longitude": 120.237081, "IVRNo": 9791, "EXTVoiceNo": 9232, "traveltime": 0, "holidayTraveltime": 0}, {"Id": "9231", "pgp": 0, "GoBack": 2, "SID": 11435, "NameZh": "Wunan Rd. E. Sec.", "RouteId": 8723, "SeqNo": 16, "Terminal": 0, "DistrictId": 1, "Latitude": 22.794394, "Longitude": 120.240273, "IVRNo": 9790, "EXTVoiceNo": 9231, "traveltime": 0, "holidayTraveltime": 0}, {"Id": "3303", "pgp": 0, "GoBack": 2, "SID": 14335, "NameZh": "Anle Temple", "RouteId": 8723, "SeqNo": 17, "Terminal": 0, "DistrictId": 1, "Latitude": 22.788507, "Longitude": 120.243452, "IVRNo": 14300, "EXTVoiceNo": 13303, "traveltime": 0, "holidayTraveltime": 0}, {"Id": "3302", "pgp": 0, "GoBack": 2, "SID": 2967, "NameZh": "Yancheng Central Rd. Intersection", "RouteId": 8723, "SeqNo": 18, "Terminal": 0, "DistrictId": 1, "Latitude": 22.788587, "Longitude": 120.244914, "IVRNo": 2952, "EXTVoiceNo": 13302, "traveltime": 0, "holidayTraveltime": 0}, {"Id": "9116", "pgp": 0, "GoBack": 2, "SID": 11438, "NameZh": "Yancheng", "RouteId": 8723, "SeqNo": 19, "Terminal": 0, "DistrictId": 1, "Latitude": 22.787173, "Longitude": 120.246794, "IVRNo": 9543, "EXTVoiceNo": 9116, "traveltime": 0, "holidayTraveltime": 0}, {"Id": "7912", "pgp": 0, "GoBack": 2, "SID": 5351, "NameZh": "Mituo Elementary School", "RouteId": 8723, "SeqNo": 20, "Terminal": 0, "DistrictId": 1, "Latitude": 22.784184, "Longitude": 120.247969, "IVRNo": 7912, "EXTVoiceNo": 7912, "traveltime": 0, "holidayTraveltime": 0}, {"Id": "7911", "pgp": 0, "GoBack": 2, "SID": 5352, "NameZh": "Mituo District Office", "RouteId": 8723, "SeqNo": 21, "Terminal": 0, "DistrictId": 1, "Latitude": 22.780392, "Longitude": 120.249284, "IVRNo": 7911, "EXTVoiceNo": 7911, "traveltime": 0, "holidayTraveltime": 0}, {"Id": "7910", "pgp": 0, "GoBack": 2, "SID": 5353, "NameZh": "Mituo Junior High School (Jhongjheng S. Rd.)", "RouteId": 8723, "SeqNo": 22, "Terminal": 0, "DistrictId": 1, "Latitude": 22.77741, "Longitude": 120.25091, "IVRNo": 869, "EXTVoiceNo": 7910, "traveltime": 0, "holidayTraveltime": 0}, {"Id": "7909", "pgp": 0, "GoBack": 2, "SID": 5354, "NameZh": "Exploration Experience Gakuen", "RouteId": 8723, "SeqNo": 23, "Terminal": 0, "DistrictId": 1, "Latitude": 22.772824, "Longitude": 120.255528, "IVRNo": 7909, "EXTVoiceNo": 7909, "traveltime": 0, "holidayTraveltime": 0}, {"Id": "0535", "pgp": 0, "GoBack": 2, "SID": 9623, "NameZh": "Fenci Station", "RouteId": 8723, "SeqNo": 24, "Terminal": 0, "DistrictId": 1, "Latitude": 22.770707, "Longitude": 120.257593, "IVRNo": 535, "EXTVoiceNo": 535, "traveltime": 0, "holidayTraveltime": 0}, {"Id": "7908", "pgp": 0, "GoBack": 2, "SID": 5355, "NameZh": "Sinyi Rd.", "RouteId": 8723, "SeqNo": 25, "Terminal": 0, "DistrictId": 1, "Latitude": 22.762279, "Longitude": 120.262347, "IVRNo": 7908, "EXTVoiceNo": 7908, "traveltime": 0, "holidayTraveltime": 0}, {"Id": "7907", "pgp": 0, "GoBack": 2, "SID": 5356, "NameZh": "Zihguan Elementary School", "RouteId": 8723, "SeqNo": 26, "Terminal": 0, "DistrictId": 1, "Latitude": 22.760466, "Longitude": 120.26463, "IVRNo": 7907, "EXTVoiceNo": 7907, "traveltime": 0, "holidayTraveltime": 0}, {"Id": "7906", "pgp": 0, "GoBack": 2, "SID": 5357, "NameZh": "Zihguan District Office", "RouteId": 8723, "SeqNo": 27, "Terminal": 0, "DistrictId": 1, "Latitude": 22.760694, "Longitude": 120.266658, "IVRNo": 7906, "EXTVoiceNo": 7906, "traveltime": 0, "holidayTraveltime": 0}, {"Id": "9115", "pgp": 0, "GoBack": 2, "SID": 5371, "NameZh": "Zihyi 3rd Park", "RouteId": 8723, "SeqNo": 28, "Terminal": 0, "DistrictId": 1, "Latitude": 22.76111, "Longitude": 120.26931, "IVRNo": 32343, "EXTVoiceNo": 9115, "traveltime": 0, "holidayTraveltime": 0}, {"Id": "9114", "pgp": 0, "GoBack": 2, "SID": 5372, "NameZh": "Jhonglun Rd.", "RouteId": 8723, "SeqNo": 29, "Terminal": 0, "DistrictId": 1, "Latitude": 22.76164, "Longitude": 120.273019, "IVRNo": 7926, "EXTVoiceNo": 9114, "traveltime": 0, "holidayTraveltime": 0}, {"Id": "7905", "pgp": 0, "GoBack": 2, "SID": 5358, "NameZh": "Chung Hung Steel (Ciaotou)", "RouteId": 8723, "SeqNo": 30, "Terminal": 0, "DistrictId": 1, "Latitude": 22.762149, "Longitude": 120.277725, "IVRNo": 7905, "EXTVoiceNo": 7905, "traveltime": 0, "holidayTraveltime": 0}, {"Id": "7925", "pgp": 0, "GoBack": 2, "SID": 5375, "NameZh": "Yuliao Rd.", "RouteId": 8723, "SeqNo": 31, "Terminal": 0, "DistrictId": 1, "Latitude": 22.76016, "Longitude": 120.28563, "IVRNo": 7925, "EXTVoiceNo": 7925, "traveltime": 0, "holidayTraveltime": 0}, {"Id": "7904", "pgp": 0, "GoBack": 2, "SID": 5359, "NameZh": "Kao-Yuan Technology & Commerce", "RouteId": 8723, "SeqNo": 32, "Terminal": 0, "DistrictId": 1, "Latitude": 22.757455, "Longitude": 120.291412, "IVRNo": 7904, "EXTVoiceNo": 7904, "traveltime": 0, "holidayTraveltime": 0}, {"Id": "9230", "pgp": 0, "GoBack": 2, "SID": 11439, "NameZh": "Wulin Elementary School", "RouteId": 8723, "SeqNo": 33, "Terminal": 0, "DistrictId": 1, "Latitude": 22.759205, "Longitude": 120.29409, "IVRNo": 9789, "EXTVoiceNo": 9230, "traveltime": 0, "holidayTraveltime": 0}, {"Id": "9229", "pgp": 0, "GoBack": 2, "SID": 11440, "NameZh": "Wulin Rd. Intersection", "RouteId": 8723, "SeqNo": 34, "Terminal": 0, "DistrictId": 1, "Latitude": 22.762579, "Longitude": 120.293975, "IVRNo": 9788, "EXTVoiceNo": 9229, "traveltime": 0, "holidayTraveltime": 0}, {"Id": "9228", "pgp": 0, "GoBack": 2, "SID": 11441, "NameZh": "Southern Region Training Center Training Directorate General Of Highways.M.O.T.C", "RouteId": 8723, "SeqNo": 35, "Terminal": 0, "DistrictId": 1, "Latitude": 22.764026, "Longitude": 120.299228, "IVRNo": 9787, "EXTVoiceNo": 9228, "traveltime": 0, "holidayTraveltime": 0}, {"Id": "9112", "pgp": 0, "GoBack": 2, "SID": 11442, "NameZh": "Jiashu Rd.", "RouteId": 8723, "SeqNo": 36, "Terminal": 0, "DistrictId": 1, "Latitude": 22.762489, "Longitude": 120.299899, "IVRNo": 9786, "EXTVoiceNo": 9112, "traveltime": 0, "holidayTraveltime": 0}, {"Id": "9112", "pgp": 0, "GoBack": 2, "SID": 18164, "NameZh": "Jiashu Rd. Intersection (The 2nd Funeral Parlor in Ciaoto)", "RouteId": 8723, "SeqNo": 37, "Terminal": 0, "DistrictId": 1, "Latitude": 22.758368, "Longitude": 120.296962, "IVRNo": 5781, "EXTVoiceNo": 9112, "traveltime": 0, "holidayTraveltime": 0}, {"Id": "9112", "pgp": 0, "GoBack": 2, "SID": 5376, "NameZh": "Shihyuan Rd. Intersection", "RouteId": 8723, "SeqNo": 38, "Terminal": 0, "DistrictId": 1, "Latitude": 22.75553, "Longitude": 120.29786, "IVRNo": 7924, "EXTVoiceNo": 9112, "traveltime": 0, "holidayTraveltime": 0}, {"Id": "9808", "pgp": 0, "GoBack": 2, "SID": 11443, "NameZh": "Meide St. Intersection", "RouteId": 8723, "SeqNo": 39, "Terminal": 0, "DistrictId": 1, "Latitude": 22.758223, "Longitude": 120.30292, "IVRNo": 9785, "EXTVoiceNo": 9808, "traveltime": 0, "holidayTraveltime": 0}, {"Id": "7903", "pgp": 0, "GoBack": 2, "SID": 5360, "NameZh": "Ciaotou  District Office (Baishu Rd.)", "RouteId": 8723, "SeqNo": 40, "Terminal": 0, "DistrictId": 1, "Latitude": 22.758417, "Longitude": 120.30536, "IVRNo": 7706, "EXTVoiceNo": 7903, "traveltime": 0, "holidayTraveltime": 0}, {"Id": "7902", "pgp": 0, "GoBack": 2, "SID": 5361, "NameZh": "Ciaotou Junior High School", "RouteId": 8723, "SeqNo": 41, "Terminal": 0, "DistrictId": 1, "Latitude": 22.75874, "Longitude": 120.307076, "IVRNo": 7902, "EXTVoiceNo": 7902, "traveltime": 0, "holidayTraveltime": 0}, {"Id": "9125", "pgp": 0, "GoBack": 2, "SID": 5338, "NameZh": "MRT Ciaotou Train Station", "RouteId": 8723, "SeqNo": 42, "Terminal": 1, "DistrictId": 1, "Latitude": 22.75962, "Longitude": 120.309805, "IVRNo": 7900, "EXTVoiceNo": 9125, "traveltime": 0, "holidayTraveltime": 0}], "zh": [{"Id": "9125", "pgp": 0, "GoBack": 1, "SID": 5339, "NameZh": "\u6377\u904b\u6a4b\u982d\u706b\u8eca\u7ad9", "RouteId": 8723, "SeqNo": 1, "Terminal": 0, "DistrictId": 1, "Latitude": 22.760615, "Longitude": 120.309235, "IVRNo": 7900, "EXTVoiceNo": 9125, "traveltime": 0, "holidayTraveltime": 0}, {"Id": "7902", "pgp": 0, "GoBack": 1, "SID": 5340, "NameZh": "\u6a4b\u982d\u570b\u4e2d", "RouteId": 8723, "SeqNo": 2, "Terminal": 0, "DistrictId": 1, "Latitude": 22.75881, "Longitude": 120.30715, "IVRNo": 7902, "EXTVoiceNo": 7902, "traveltime": 0, "holidayTraveltime": 0}, {"Id": "7903", "pgp": 0, "GoBack": 1, "SID": 5341, "NameZh": "\u6a4b\u982d\u5340\u516c\u6240(\u767d\u6a39\u8def)", "RouteId": 8723, "SeqNo": 3, "Terminal": 0, "DistrictId": 1, "Latitude": 22.75846, "Longitude": 120.30536, "IVRNo": 7706, "EXTVoiceNo": 7903, "traveltime": 0, "holidayTraveltime": 0}, {"Id": "9808", "pgp": 0, "GoBack": 1, "SID": 11402, "NameZh": "\u7f8e\u5fb7\u8857\u53e3", "RouteId": 8723, "SeqNo": 4, "Terminal": 0, "DistrictId": 1, "Latitude": 22.756777, "Longitude": 120.300614, "IVRNo": 9785, "EXTVoiceNo": 9808, "traveltime": 0, "holidayTraveltime": 0}, {"Id": "9112", "pgp": 0, "GoBack": 1, "SID": 5362, "NameZh": "\u4ed5\u5143\u8def\u53e3", "RouteId": 8723, "SeqNo": 5, "Terminal": 0, "DistrictId": 1, "Latitude": 22.75595, "Longitude": 120.29723, "IVRNo": 7924, "EXTVoiceNo": 9112, "traveltime": 0, "holidayTraveltime": 0}, {"Id": "9112", "pgp": 0, "GoBack": 1, "SID": 18158, "NameZh": "\u7532\u6a39\u8def\u53e3(\u7b2c\u4e8c\u6baf\u5100\u9928\u6a4b\u982d\u5206\u9928)", "RouteId": 8723, "SeqNo": 6, "Terminal": 0, "DistrictId": 1, "Latitude": 22.758505, "Longitude": 120.297095, "IVRNo": 5781, "EXTVoiceNo": 9112, "traveltime": 0, "holidayTraveltime": 0}, {"Id": "9112", "pgp": 0, "GoBack": 1, "SID": 11403, "NameZh": "\u7532\u6a39\u8def", "RouteId": 8723, "SeqNo": 7, "Terminal": 0, "DistrictId": 1, "Latitude": 22.762489, "Longitude": 120.299899, "IVRNo": 9786, "EXTVoiceNo": 9112, "traveltime": 0, "holidayTraveltime": 0}, {"Id": "9228", "pgp": 0, "GoBack": 1, "SID": 11404, "NameZh": "\u516c\u8def\u7e3d\u5c40\u5357\u8a13\u4e2d\u5fc3", "RouteId": 8723, "SeqNo": 8, "Terminal": 0, "DistrictId": 1, "Latitude": 22.764112, "Longitude": 120.299268, "IVRNo": 9787, "EXTVoiceNo": 9228, "traveltime": 0, "holidayTraveltime": 0}, {"Id": "9229", "pgp": 0, "GoBack": 1, "SID": 11405, "NameZh": "\u4e94\u6797\u8def\u53e3", "RouteId": 8723, "SeqNo": 9, "Terminal": 0, "DistrictId": 1, "Latitude": 22.762661, "Longitude": 120.294366, "IVRNo": 9788, "EXTVoiceNo": 9229, "traveltime": 0, "holidayTraveltime": 0}, {"Id": "9230", "pgp": 0, "GoBack": 1, "SID": 11406, "NameZh": "\u4e94\u6797\u570b\u5c0f", "RouteId": 8723, "SeqNo": 10, "Terminal": 0, "DistrictId": 1, "Latitude": 22.759372, "Longitude": 120.294012, "IVRNo": 9789, "EXTVoiceNo": 9230, "traveltime": 0, "holidayTraveltime": 0}, {"Id": "7904", "pgp": 0, "GoBack": 1, "SID": 5342, "NameZh": "\u9ad8\u82d1\u5de5\u5546", "RouteId": 8723, "SeqNo": 11, "Terminal": 0, "DistrictId": 1, "Latitude": 22.7575, "Longitude": 120.29215, "IVRNo": 7904, "EXTVoiceNo": 7904, "traveltime": 0, "holidayTraveltime": 0}, {"Id": "7925", "pgp": 0, "GoBack": 1, "SID": 5365, "NameZh": "\u828b\u5bee\u8def", "RouteId": 8723, "SeqNo": 12, "Terminal": 0, "DistrictId": 1, "Latitude": 22.76, "Longitude": 120.2863, "IVRNo": 7925, "EXTVoiceNo": 7925, "traveltime": 0, "holidayTraveltime": 0}, {"Id": "7905", "pgp": 0, "GoBack": 1, "SID": 5343, "NameZh": "\u4e2d\u9d3b\u92fc\u9435(\u6a4b\u982d)", "RouteId": 8723, "SeqNo": 13, "Terminal": 0, "DistrictId": 1, "Latitude": 22.76221, "Longitude": 120.27773, "IVRNo": 7905, "EXTVoiceNo": 7905, "traveltime": 0, "holidayTraveltime": 0}, {"Id": "9114", "pgp": 0, "GoBack": 1, "SID": 5366, "NameZh": "\u4e2d\u5d19\u8def", "RouteId": 8723, "SeqNo": 14, "Terminal": 0, "DistrictId": 1, "Latitude": 22.76173, "Longitude": 120.27306, "IVRNo": 7926, "EXTVoiceNo": 9114, "traveltime": 0, "holidayTraveltime": 0}, {"Id": "9115", "pgp": 0, "GoBack": 1, "SID": 5368, "NameZh": "\u6893\u7fa9\u7b2c\u4e09\u516c\u5712", "RouteId": 8723, "SeqNo": 15, "Terminal": 0, "DistrictId": 1, "Latitude": 22.76118, "Longitude": 120.26965, "IVRNo": 32343, "EXTVoiceNo": 9115, "traveltime": 0, "holidayTraveltime": 0}, {"Id": "7906", "pgp": 0, "GoBack": 1, "SID": 5344, "NameZh": "\u6893\u5b98\u5340\u516c\u6240", "RouteId": 8723, "SeqNo": 16, "Terminal": 0, "DistrictId": 1, "Latitude": 22.760723, "Longitude": 120.266656, "IVRNo": 7906, "EXTVoiceNo": 7906, "traveltime": 0, "holidayTraveltime": 0}, {"Id": "7907", "pgp": 0, "GoBack": 1, "SID": 5345, "NameZh": "\u6893\u5b98\u570b\u5c0f", "RouteId": 8723, "SeqNo": 17, "Terminal": 0, "DistrictId": 1, "Latitude": 22.760515, "Longitude": 120.264626, "IVRNo": 7907, "EXTVoiceNo": 7907, "traveltime": 0, "holidayTraveltime": 0}, {"Id": "7908", "pgp": 0, "GoBack": 1, "SID": 5346, "NameZh": "\u4fe1\u7fa9\u8def", "RouteId": 8723, "SeqNo": 18, "Terminal": 0, "DistrictId": 1, "Latitude": 22.76229, "Longitude": 120.26244, "IVRNo": 7908, "EXTVoiceNo": 7908, "traveltime": 0, "holidayTraveltime": 0}, {"Id": "0535", "pgp": 0, "GoBack": 1, "SID": 9602, "NameZh": "\u5206\u6b67\u7ad9", "RouteId": 8723, "SeqNo": 19, "Terminal": 0, "DistrictId": 1, "Latitude": 22.770847, "Longitude": 120.257645, "IVRNo": 535, "EXTVoiceNo": 535, "traveltime": 0, "holidayTraveltime": 0}, {"Id": "7909", "pgp": 0, "GoBack": 1, "SID": 5347, "NameZh": "\u63a2\u7d22\u9ad4\u9a57\u5b78\u5712", "RouteId": 8723, "SeqNo": 20, "Terminal": 0, "DistrictId": 1, "Latitude": 22.772886, "Longitude": 120.255625, "IVRNo": 7909, "EXTVoiceNo": 7909, "traveltime": 0, "holidayTraveltime": 0}, {"Id": "7910", "pgp": 0, "GoBack": 1, "SID": 5348, "NameZh": "\u5f4c\u9640\u570b\u4e2d(\u4e2d\u6b63\u5357\u8def)", "RouteId": 8723, "SeqNo": 21, "Terminal": 0, "DistrictId": 1, "Latitude": 22.77741, "Longitude": 120.25091, "IVRNo": 869, "EXTVoiceNo": 7910, "traveltime": 0, "holidayTraveltime": 0}, {"Id": "7911", "pgp": 0, "GoBack": 1, "SID": 5349, "NameZh": "\u5f4c\u9640\u5340\u516c\u6240", "RouteId": 8723, "SeqNo": 22, "Terminal": 0, "DistrictId": 1, "Latitude": 22.780392, "Longitude": 120.249284, "IVRNo": 7911, "EXTVoiceNo": 7911, "traveltime": 0, "holidayTraveltime": 0}, {"Id": "7912", "pgp": 0, "GoBack": 1, "SID": 5350, "NameZh": "\u5f4c\u9640\u570b\u5c0f", "RouteId": 8723, "SeqNo": 23, "Terminal": 0, "DistrictId": 1, "Latitude": 22.784147, "Longitude": 120.248042, "IVRNo": 7912, "EXTVoiceNo": 7912, "traveltime": 0, "holidayTraveltime": 0}, {"Id": "9116", "pgp": 0, "GoBack": 1, "SID": 11407, "NameZh": "\u9e7d\u57d5", "RouteId": 8723, "SeqNo": 24, "Terminal": 0, "DistrictId": 1, "Latitude": 22.787173, "Longitude": 120.246794, "IVRNo": 9543, "EXTVoiceNo": 9116, "traveltime": 0, "holidayTraveltime": 0}, {"Id": "3302", "pgp": 0, "GoBack": 1, "SID": 2952, "NameZh": "\u9e7d\u57d5\u4e2d\u8def\u53e3", "RouteId": 8723, "SeqNo": 25, "Terminal": 0, "DistrictId": 1, "Latitude": 22.788645, "Longitude": 120.244916, "IVRNo": 2952, "EXTVoiceNo": 13302, "traveltime": 0, "holidayTraveltime": 0}, {"Id": "3303", "pgp": 0, "GoBack": 1, "SID": 14300, "NameZh": "\u5b89\u6a02\u5bae", "RouteId": 8723, "SeqNo": 26, "Terminal": 0, "DistrictId": 1, "Latitude": 22.788575, "Longitude": 120.243447, "IVRNo": 14300, "EXTVoiceNo": 13303, "traveltime": 0, "holidayTraveltime": 0}, {"Id": "9231", "pgp": 0, "GoBack": 1, "SID": 11410, "NameZh": "\u6587\u5b89\u8def\u6771\u6bb5", "RouteId": 8723, "SeqNo": 27, "Terminal": 0, "DistrictId": 1, "Latitude": 22.794427, "Longitude": 120.240262, "IVRNo": 9790, "EXTVoiceNo": 9231, "traveltime": 0, "holidayTraveltime": 0}, {"Id": "9232", "pgp": 0, "GoBack": 1, "SID": 11411, "NameZh": "\u6587\u5b89\u8def", "RouteId": 8723, "SeqNo": 28, "Terminal": 0, "DistrictId": 1, "Latitude": 22.79402, "Longitude": 120.237081, "IVRNo": 9791, "EXTVoiceNo": 9232, "traveltime": 0, "holidayTraveltime": 0}, {"Id": "9792", "pgp": 0, "GoBack": 1, "SID": 11412, "NameZh": "\u58fd\u9f61\u570b\u5c0f", "RouteId": 8723, "SeqNo": 29, "Terminal": 0, "DistrictId": 1, "Latitude": 22.795141, "Longitude": 120.233914, "IVRNo": 9792, "EXTVoiceNo": 9792, "traveltime": 0, "holidayTraveltime": 0}, {"Id": "9800", "pgp": 0, "GoBack": 1, "SID": 11413, "NameZh": "\u820a\u6e2f\u8def\u6771\u6bb5", "RouteId": 8723, "SeqNo": 30, "Terminal": 0, "DistrictId": 1, "Latitude": 22.796906, "Longitude": 120.231048, "IVRNo": 9793, "EXTVoiceNo": 9800, "traveltime": 0, "holidayTraveltime": 0}, {"Id": "9794", "pgp": 0, "GoBack": 1, "SID": 11414, "NameZh": "\u820a\u6e2f\u6d3e\u51fa\u6240", "RouteId": 8723, "SeqNo": 31, "Terminal": 0, "DistrictId": 1, "Latitude": 22.799388, "Longitude": 120.23106, "IVRNo": 9794, "EXTVoiceNo": 9794, "traveltime": 0, "holidayTraveltime": 0}, {"Id": "2157", "pgp": 0, "GoBack": 1, "SID": 11415, "NameZh": "\u5fa9\u8208\u8def", "RouteId": 8723, "SeqNo": 32, "Terminal": 0, "DistrictId": 1, "Latitude": 22.801841, "Longitude": 120.234043, "IVRNo": 9795, "EXTVoiceNo": 2157, "traveltime": 0, "holidayTraveltime": 0}, {"Id": "9119", "pgp": 0, "GoBack": 1, "SID": 11416, "NameZh": "\u4fdd\u5b89\u8def\u53e3", "RouteId": 8723, "SeqNo": 33, "Terminal": 0, "DistrictId": 1, "Latitude": 22.807991, "Longitude": 120.243294, "IVRNo": 9546, "EXTVoiceNo": 9119, "traveltime": 0, "holidayTraveltime": 0}, {"Id": "9120", "pgp": 0, "GoBack": 1, "SID": 11417, "NameZh": "\u5929\u6587\u5bae", "RouteId": 8723, "SeqNo": 34, "Terminal": 0, "DistrictId": 1, "Latitude": 22.81348, "Longitude": 120.24276, "IVRNo": 9547, "EXTVoiceNo": 9120, "traveltime": 0, "holidayTraveltime": 0}, {"Id": "1054", "pgp": 0, "GoBack": 1, "SID": 11418, "NameZh": "\u5357\u5929\u5bae(\u6c38\u5b89)", "RouteId": 8723, "SeqNo": 35, "Terminal": 0, "DistrictId": 1, "Latitude": 22.81626, "Longitude": 120.24163, "IVRNo": 9548, "EXTVoiceNo": 11054, "traveltime": 0, "holidayTraveltime": 0}, {"Id": "9549", "pgp": 0, "GoBack": 1, "SID": 11419, "NameZh": "\u7267\u5834", "RouteId": 8723, "SeqNo": 36, "Terminal": 0, "DistrictId": 1, "Latitude": 22.81875, "Longitude": 120.24045, "IVRNo": 9549, "EXTVoiceNo": 9549, "traveltime": 0, "holidayTraveltime": 0}, {"Id": "9123", "pgp": 0, "GoBack": 1, "SID": 11420, "NameZh": "\u6c38\u5b89\u570b\u4e2d", "RouteId": 8723, "SeqNo": 37, "Terminal": 0, "DistrictId": 1, "Latitude": 22.82336, "Longitude": 120.23825, "IVRNo": 9550, "EXTVoiceNo": 9123, "traveltime": 0, "holidayTraveltime": 0}, {"Id": "1080", "pgp": 0, "GoBack": 1, "SID": 9810, "NameZh": "\u5357\u4fdd\u5be7", "RouteId": 8723, "SeqNo": 38, "Terminal": 0, "DistrictId": 1, "Latitude": 22.832608, "Longitude": 120.234815, "IVRNo": 11080, "EXTVoiceNo": 11080, "traveltime": 0, "holidayTraveltime": 0}, {"Id": "1040", "pgp": 0, "GoBack": 1, "SID": 9822, "NameZh": "\u5357\u4fdd\u5be7", "RouteId": 8723, "SeqNo": 39, "Terminal": 0, "DistrictId": 1, "Latitude": 22.83536, "Longitude": 120.23471, "IVRNo": 11040, "EXTVoiceNo": 11040, "traveltime": 0, "holidayTraveltime": 0}, {"Id": "1080", "pgp": 0, "GoBack": 1, "SID": 15960, "NameZh": "\u5357\u4fdd\u5be7", "RouteId": 8723, "SeqNo": 40, "Terminal": 0, "DistrictId": 1, "Latitude": 22.8326, "Longitude": 120.2346, "IVRNo": 11080, "EXTVoiceNo": 11080, "traveltime": 0, "holidayTraveltime": 0}, {"Id": "9239", "pgp": 0, "GoBack": 1, "SID": 11421, "NameZh": "\u6c38\u83ef\u8def\u53e3", "RouteId": 8723, "SeqNo": 41, "Terminal": 0, "DistrictId": 1, "Latitude": 22.818817, "Longitude": 120.225968, "IVRNo": 9796, "EXTVoiceNo": 9239, "traveltime": 0, "holidayTraveltime": 0}, {"Id": "9124", "pgp": 0, "GoBack": 1, "SID": 12325, "NameZh": "\u6c38\u5b89\u5340\u516c\u6240", "RouteId": 8723, "SeqNo": 42, "Terminal": 1, "DistrictId": 1, "Latitude": 22.81833, "Longitude": 120.22473, "IVRNo": 8948, "EXTVoiceNo": 9124, "traveltime": 0, "holidayTraveltime": 0}, {"Id": "9124", "pgp": 0, "GoBack": 2, "SID": 11423, "NameZh": "\u6c38\u5b89\u5340\u516c\u6240", "RouteId": 8723, "SeqNo": 1, "Terminal": 0, "DistrictId": 1, "Latitude": 22.818311, "Longitude": 120.224789, "IVRNo": 8948, "EXTVoiceNo": 9124, "traveltime": 0, "holidayTraveltime": 0}, {"Id": "9239", "pgp": 0, "GoBack": 2, "SID": 11424, "NameZh": "\u6c38\u83ef\u8def\u53e3", "RouteId": 8723, "SeqNo": 2, "Terminal": 0, "DistrictId": 1, "Latitude": 22.818756, "Longitude": 120.226164, "IVRNo": 9796, "EXTVoiceNo": 9239, "traveltime": 0, "holidayTraveltime": 0}, {"Id": "1080", "pgp": 0, "GoBack": 2, "SID": 9257, "NameZh": "\u5357\u4fdd\u5be7", "RouteId": 8723, "SeqNo": 3, "Terminal": 0, "DistrictId": 1, "Latitude": 22.832608, "Longitude": 120.234815, "IVRNo": 11080, "EXTVoiceNo": 11080, "traveltime": 0, "holidayTraveltime": 0}, {"Id": "1040", "pgp": 0, "GoBack": 2, "SID": 9270, "NameZh": "\u5357\u4fdd\u5be7", "RouteId": 8723, "SeqNo": 4, "Terminal": 0, "DistrictId": 1, "Latitude": 22.83536, "Longitude": 120.23471, "IVRNo": 11040, "EXTVoiceNo": 11040, "traveltime": 0, "holidayTraveltime": 0}, {"Id": "1080", "pgp": 0, "GoBack": 2, "SID": 14240, "NameZh": "\u5357\u4fdd\u5be7", "RouteId": 8723, "SeqNo": 5, "Terminal": 0, "DistrictId": 1, "Latitude": 22.8326, "Longitude": 120.2346, "IVRNo": 11080, "EXTVoiceNo": 11080, "traveltime": 0, "holidayTraveltime": 0}, {"Id": "9123", "pgp": 0, "GoBack": 2, "SID": 11425, "NameZh": "\u6c38\u5b89\u570b\u4e2d", "RouteId": 8723, "SeqNo": 6, "Terminal": 0, "DistrictId": 1, "Latitude": 22.82353, "Longitude": 120.23806, "IVRNo": 9550, "EXTVoiceNo": 9123, "traveltime": 0, "holidayTraveltime": 0}, {"Id": "9549", "pgp": 0, "GoBack": 2, "SID": 11426, "NameZh": "\u7267\u5834", "RouteId": 8723, "SeqNo": 7, "Terminal": 0, "DistrictId": 1, "Latitude": 22.81808, "Longitude": 120.24055, "IVRNo": 9549, "EXTVoiceNo": 9549, "traveltime": 0, "holidayTraveltime": 0}, {"Id": "1054", "pgp": 0, "GoBack": 2, "SID": 11427, "NameZh": "\u5357\u5929\u5bae(\u6c38\u5b89)", "RouteId": 8723, "SeqNo": 8, "Terminal": 0, "DistrictId": 1, "Latitude": 22.81586, "Longitude": 120.24158, "IVRNo": 9548, "EXTVoiceNo": 11054, "traveltime": 0, "holidayTraveltime": 0}, {"Id": "9120", "pgp": 0, "GoBack": 2, "SID": 11428, "NameZh": "\u5929\u6587\u5bae", "RouteId": 8723, "SeqNo": 9, "Terminal": 0, "DistrictId": 1, "Latitude": 22.81363, "Longitude": 120.24255, "IVRNo": 9547, "EXTVoiceNo": 9120, "traveltime": 0, "holidayTraveltime": 0}, {"Id": "9119", "pgp": 0, "GoBack": 2, "SID": 11429, "NameZh": "\u4fdd\u5b89\u8def\u53e3", "RouteId": 8723, "SeqNo": 10, "Terminal": 0, "DistrictId": 1, "Latitude": 22.80773, "Longitude": 120.243099, "IVRNo": 9546, "EXTVoiceNo": 9119, "traveltime": 0, "holidayTraveltime": 0}, {"Id": "2157", "pgp": 0, "GoBack": 2, "SID": 11430, "NameZh": "\u5fa9\u8208\u8def", "RouteId": 8723, "SeqNo": 11, "Terminal": 0, "DistrictId": 1, "Latitude": 22.801967, "Longitude": 120.234037, "IVRNo": 9795, "EXTVoiceNo": 2157, "traveltime": 0, "holidayTraveltime": 0}, {"Id": "9794", "pgp": 0, "GoBack": 2, "SID": 11431, "NameZh": "\u820a\u6e2f\u6d3e\u51fa\u6240", "RouteId": 8723, "SeqNo": 12, "Terminal": 0, "DistrictId": 1, "Latitude": 22.799356, "Longitude": 120.231014, "IVRNo": 9794, "EXTVoiceNo": 9794, "traveltime": 0, "holidayTraveltime": 0}, {"Id": "9800", "pgp": 0, "GoBack": 2, "SID": 11432, "NameZh": "\u820a\u6e2f\u8def\u6771\u6bb5", "RouteId": 8723, "SeqNo": 13, "Terminal": 0, "DistrictId": 1, "Latitude": 22.796464, "Longitude": 120.231404, "IVRNo": 9793, "EXTVoiceNo": 9800, "traveltime": 0, "holidayTraveltime": 0}, {"Id": "9792", "pgp": 0, "GoBack": 2, "SID": 11433, "NameZh": "\u58fd\u9f61\u570b\u5c0f", "RouteId": 8723, "SeqNo": 14, "Terminal": 0, "DistrictId": 1, "Latitude": 22.795267, "Longitude": 120.233578, "IVRNo": 9792, "EXTVoiceNo": 9792, "traveltime": 0, "holidayTraveltime": 0}, {"Id": "9232", "pgp": 0, "GoBack": 2, "SID": 11434, "NameZh": "\u6587\u5b89\u8def", "RouteId": 8723, "SeqNo": 15, "Terminal": 0, "DistrictId": 1, "Latitude": 22.79402, "Longitude": 120.237081, "IVRNo": 9791, "EXTVoiceNo": 9232, "traveltime": 0, "holidayTraveltime": 0}, {"Id": "9231", "pgp": 0, "GoBack": 2, "SID": 11435, "NameZh": "\u6587\u5b89\u8def\u6771\u6bb5", "RouteId": 8723, "SeqNo": 16, "Terminal": 0, "DistrictId": 1, "Latitude": 22.794394, "Longitude": 120.240273, "IVRNo": 9790, "EXTVoiceNo": 9231, "traveltime": 0, "holidayTraveltime": 0}, {"Id": "3303", "pgp": 0, "GoBack": 2, "SID": 14335, "NameZh": "\u5b89\u6a02\u5bae", "RouteId": 8723, "SeqNo": 17, "Terminal": 0, "DistrictId": 1, "Latitude": 22.788507, "Longitude": 120.243452, "IVRNo": 14300, "EXTVoiceNo": 13303, "traveltime": 0, "holidayTraveltime": 0}, {"Id": "3302", "pgp": 0, "GoBack": 2, "SID": 2967, "NameZh": "\u9e7d\u57d5\u4e2d\u8def\u53e3", "RouteId": 8723, "SeqNo": 18, "Terminal": 0, "DistrictId": 1, "Latitude": 22.788587, "Longitude": 120.244914, "IVRNo": 2952, "EXTVoiceNo": 13302, "traveltime": 0, "holidayTraveltime": 0}, {"Id": "9116", "pgp": 0, "GoBack": 2, "SID": 11438, "NameZh": "\u9e7d\u57d5", "RouteId": 8723, "SeqNo": 19, "Terminal": 0, "DistrictId": 1, "Latitude": 22.787173, "Longitude": 120.246794, "IVRNo": 9543, "EXTVoiceNo": 9116, "traveltime": 0, "holidayTraveltime": 0}, {"Id": "7912", "pgp": 0, "GoBack": 2, "SID": 5351, "NameZh": "\u5f4c\u9640\u570b\u5c0f", "RouteId": 8723, "SeqNo": 20, "Terminal": 0, "DistrictId": 1, "Latitude": 22.784184, "Longitude": 120.247969, "IVRNo": 7912, "EXTVoiceNo": 7912, "traveltime": 0, "holidayTraveltime": 0}, {"Id": "7911", "pgp": 0, "GoBack": 2, "SID": 5352, "NameZh": "\u5f4c\u9640\u5340\u516c\u6240", "RouteId": 8723, "SeqNo": 21, "Terminal": 0, "DistrictId": 1, "Latitude": 22.780392, "Longitude": 120.249284, "IVRNo": 7911, "EXTVoiceNo": 7911, "traveltime": 0, "holidayTraveltime": 0}, {"Id": "7910", "pgp": 0, "GoBack": 2, "SID": 5353, "NameZh": "\u5f4c\u9640\u570b\u4e2d(\u4e2d\u6b63\u5357\u8def)", "RouteId": 8723, "SeqNo": 22, "Terminal": 0, "DistrictId": 1, "Latitude": 22.77741, "Longitude": 120.25091, "IVRNo": 869, "EXTVoiceNo": 7910, "traveltime": 0, "holidayTraveltime": 0}, {"Id": "7909", "pgp": 0, "GoBack": 2, "SID": 5354, "NameZh": "\u63a2\u7d22\u9ad4\u9a57\u5b78\u5712", "RouteId": 8723, "SeqNo": 23, "Terminal": 0, "DistrictId": 1, "Latitude": 22.772824, "Longitude": 120.255528, "IVRNo": 7909, "EXTVoiceNo": 7909, "traveltime": 0, "holidayTraveltime": 0}, {"Id": "0535", "pgp": 0, "GoBack": 2, "SID": 9623, "NameZh": "\u5206\u6b67\u7ad9", "RouteId": 8723, "SeqNo": 24, "Terminal": 0, "DistrictId": 1, "Latitude": 22.770707, "Longitude": 120.257593, "IVRNo": 535, "EXTVoiceNo": 535, "traveltime": 0, "holidayTraveltime": 0}, {"Id": "7908", "pgp": 0, "GoBack": 2, "SID": 5355, "NameZh": "\u4fe1\u7fa9\u8def", "RouteId": 8723, "SeqNo": 25, "Terminal": 0, "DistrictId": 1, "Latitude": 22.762279, "Longitude": 120.262347, "IVRNo": 7908, "EXTVoiceNo": 7908, "traveltime": 0, "holidayTraveltime": 0}, {"Id": "7907", "pgp": 0, "GoBack": 2, "SID": 5356, "NameZh": "\u6893\u5b98\u570b\u5c0f", "RouteId": 8723, "SeqNo": 26, "Terminal": 0, "DistrictId": 1, "Latitude": 22.760466, "Longitude": 120.26463, "IVRNo": 7907, "EXTVoiceNo": 7907, "traveltime": 0, "holidayTraveltime": 0}, {"Id": "7906", "pgp": 0, "GoBack": 2, "SID": 5357, "NameZh": "\u6893\u5b98\u5340\u516c\u6240", "RouteId": 8723, "SeqNo": 27, "Terminal": 0, "DistrictId": 1, "Latitude": 22.760694, "Longitude": 120.266658, "IVRNo": 7906, "EXTVoiceNo": 7906, "traveltime": 0, "holidayTraveltime": 0}, {"Id": "9115", "pgp": 0, "GoBack": 2, "SID": 5371, "NameZh": "\u6893\u7fa9\u7b2c\u4e09\u516c\u5712", "RouteId": 8723, "SeqNo": 28, "Terminal": 0, "DistrictId": 1, "Latitude": 22.76111, "Longitude": 120.26931, "IVRNo": 32343, "EXTVoiceNo": 9115, "traveltime": 0, "holidayTraveltime": 0}, {"Id": "9114", "pgp": 0, "GoBack": 2, "SID": 5372, "NameZh": "\u4e2d\u5d19\u8def", "RouteId": 8723, "SeqNo": 29, "Terminal": 0, "DistrictId": 1, "Latitude": 22.76164, "Longitude": 120.273019, "IVRNo": 7926, "EXTVoiceNo": 9114, "traveltime": 0, "holidayTraveltime": 0}, {"Id": "7905", "pgp": 0, "GoBack": 2, "SID": 5358, "NameZh": "\u4e2d\u9d3b\u92fc\u9435(\u6a4b\u982d)", "RouteId": 8723, "SeqNo": 30, "Terminal": 0, "DistrictId": 1, "Latitude": 22.762149, "Longitude": 120.277725, "IVRNo": 7905, "EXTVoiceNo": 7905, "traveltime": 0, "holidayTraveltime": 0}, {"Id": "7925", "pgp": 0, "GoBack": 2, "SID": 5375, "NameZh": "\u828b\u5bee\u8def", "RouteId": 8723, "SeqNo": 31, "Terminal": 0, "DistrictId": 1, "Latitude": 22.76016, "Longitude": 120.28563, "IVRNo": 7925, "EXTVoiceNo": 7925, "traveltime": 0, "holidayTraveltime": 0}, {"Id": "7904", "pgp": 0, "GoBack": 2, "SID": 5359, "NameZh": "\u9ad8\u82d1\u5de5\u5546", "RouteId": 8723, "SeqNo": 32, "Terminal": 0, "DistrictId": 1, "Latitude": 22.757455, "Longitude": 120.291412, "IVRNo": 7904, "EXTVoiceNo": 7904, "traveltime": 0, "holidayTraveltime": 0}, {"Id": "9230", "pgp": 0, "GoBack": 2, "SID": 11439, "NameZh": "\u4e94\u6797\u570b\u5c0f", "RouteId": 8723, "SeqNo": 33, "Terminal": 0, "DistrictId": 1, "Latitude": 22.759205, "Longitude": 120.29409, "IVRNo": 9789, "EXTVoiceNo": 9230, "traveltime": 0, "holidayTraveltime": 0}, {"Id": "9229", "pgp": 0, "GoBack": 2, "SID": 11440, "NameZh": "\u4e94\u6797\u8def\u53e3", "RouteId": 8723, "SeqNo": 34, "Terminal": 0, "DistrictId": 1, "Latitude": 22.762579, "Longitude": 120.293975, "IVRNo": 9788, "EXTVoiceNo": 9229, "traveltime": 0, "holidayTraveltime": 0}, {"Id": "9228", "pgp": 0, "GoBack": 2, "SID": 11441, "NameZh": "\u516c\u8def\u7e3d\u5c40\u5357\u8a13\u4e2d\u5fc3", "RouteId": 8723, "SeqNo": 35, "Terminal": 0, "DistrictId": 1, "Latitude": 22.764026, "Longitude": 120.299228, "IVRNo": 9787, "EXTVoiceNo": 9228, "traveltime": 0, "holidayTraveltime": 0}, {"Id": "9112", "pgp": 0, "GoBack": 2, "SID": 11442, "NameZh": "\u7532\u6a39\u8def", "RouteId": 8723, "SeqNo": 36, "Terminal": 0, "DistrictId": 1, "Latitude": 22.762489, "Longitude": 120.299899, "IVRNo": 9786, "EXTVoiceNo": 9112, "traveltime": 0, "holidayTraveltime": 0}, {"Id": "9112", "pgp": 0, "GoBack": 2, "SID": 18164, "NameZh": "\u7532\u6a39\u8def\u53e3(\u7b2c\u4e8c\u6baf\u5100\u9928\u6a4b\u982d\u5206\u9928)", "RouteId": 8723, "SeqNo": 37, "Terminal": 0, "DistrictId": 1, "Latitude": 22.758368, "Longitude": 120.296962, "IVRNo": 5781, "EXTVoiceNo": 9112, "traveltime": 0, "holidayTraveltime": 0}, {"Id": "9112", "pgp": 0, "GoBack": 2, "SID": 5376, "NameZh": "\u4ed5\u5143\u8def\u53e3", "RouteId": 8723, "SeqNo": 38, "Terminal": 0, "DistrictId": 1, "Latitude": 22.75553, "Longitude": 120.29786, "IVRNo": 7924, "EXTVoiceNo": 9112, "traveltime": 0, "holidayTraveltime": 0}, {"Id": "9808", "pgp": 0, "GoBack": 2, "SID": 11443, "NameZh": "\u7f8e\u5fb7\u8857\u53e3", "RouteId": 8723, "SeqNo": 39, "Terminal": 0, "DistrictId": 1, "Latitude": 22.758223, "Longitude": 120.30292, "IVRNo": 9785, "EXTVoiceNo": 9808, "traveltime": 0, "holidayTraveltime": 0}, {"Id": "7903", "pgp": 0, "GoBack": 2, "SID": 5360, "NameZh": "\u6a4b\u982d\u5340\u516c\u6240(\u767d\u6a39\u8def)", "RouteId": 8723, "SeqNo": 40, "Terminal": 0, "DistrictId": 1, "Latitude": 22.758417, "Longitude": 120.30536, "IVRNo": 7706, "EXTVoiceNo": 7903, "traveltime": 0, "holidayTraveltime": 0}, {"Id": "7902", "pgp": 0, "GoBack": 2, "SID": 5361, "NameZh": "\u6a4b\u982d\u570b\u4e2d", "RouteId": 8723, "SeqNo": 41, "Terminal": 0, "DistrictId": 1, "Latitude": 22.75874, "Longitude": 120.307076, "IVRNo": 7902, "EXTVoiceNo": 7902, "traveltime": 0, "holidayTraveltime": 0}, {"Id": "9125", "pgp": 0, "GoBack": 2, "SID": 5338, "NameZh": "\u6377\u904b\u6a4b\u982d\u706b\u8eca\u7ad9", "RouteId": 8723, "SeqNo": 42, "Terminal": 1, "DistrictId": 1, "Latitude": 22.75962, "Longitude": 120.309805, "IVRNo": 7900, "EXTVoiceNo": 9125, "traveltime": 0, "holidayTraveltime": 0}]}