{"en": [{"Id": "0203", "pgp": 0, "GoBack": 1, "SID": 16675, "NameZh": "Liouguei Station", "RouteId": 8033, "SeqNo": 1, "Terminal": 0, "DistrictId": 1, "Latitude": 22.99792, "Longitude": 120.63455, "IVRNo": 10397, "EXTVoiceNo": 20203, "traveltime": 0, "holidayTraveltime": 0}, {"Id": "1226", "pgp": 0, "GoBack": 1, "SID": 16676, "NameZh": "Liouguei  Jienei", "RouteId": 8033, "SeqNo": 2, "Terminal": 0, "DistrictId": 1, "Latitude": 22.99709, "Longitude": 120.63428, "IVRNo": 11534, "EXTVoiceNo": 21226, "traveltime": 0, "holidayTraveltime": 0}, {"Id": "1227", "pgp": 0, "GoBack": 1, "SID": 16677, "NameZh": "Liouguei Farmers` Association (Guangfu Rd.)", "RouteId": 8033, "SeqNo": 3, "Terminal": 0, "DistrictId": 1, "Latitude": 22.9959, "Longitude": 120.63487, "IVRNo": 11761, "EXTVoiceNo": 21227, "traveltime": 0, "holidayTraveltime": 0}, {"Id": "1228", "pgp": 0, "GoBack": 1, "SID": 16678, "NameZh": "Liouguei Before the Theater", "RouteId": 8033, "SeqNo": 4, "Terminal": 0, "DistrictId": 1, "Latitude": 22.995249, "Longitude": 120.637678, "IVRNo": 13486, "EXTVoiceNo": 21228, "traveltime": 0, "holidayTraveltime": 0}, {"Id": "0202", "pgp": 0, "GoBack": 1, "SID": 16679, "NameZh": "Liouguei Gridge", "RouteId": 8033, "SeqNo": 5, "Terminal": 0, "DistrictId": 1, "Latitude": 22.996507, "Longitude": 120.641496, "IVRNo": 13274, "EXTVoiceNo": 20202, "traveltime": 0, "holidayTraveltime": 0}, {"Id": "0935", "pgp": 0, "GoBack": 1, "SID": 16680, "NameZh": "Jhongsing (Sinfa Highway: Provincial Highway 27)", "RouteId": 8033, "SeqNo": 6, "Terminal": 0, "DistrictId": 1, "Latitude": 22.99604, "Longitude": 120.64302, "IVRNo": 935, "EXTVoiceNo": 935, "traveltime": 0, "holidayTraveltime": 0}, {"Id": "0237", "pgp": 0, "GoBack": 1, "SID": 16681, "NameZh": "Muye Company (Liouguei)", "RouteId": 8033, "SeqNo": 7, "Terminal": 0, "DistrictId": 1, "Latitude": 23.00041, "Longitude": 120.64494, "IVRNo": 5265, "EXTVoiceNo": 20237, "traveltime": 0, "holidayTraveltime": 0}, {"Id": "3427", "pgp": 0, "GoBack": 1, "SID": 16682, "NameZh": "Singlong", "RouteId": 8033, "SeqNo": 8, "Terminal": 0, "DistrictId": 1, "Latitude": 23.00512, "Longitude": 120.64851, "IVRNo": 11989, "EXTVoiceNo": 13427, "traveltime": 0, "holidayTraveltime": 0}, {"Id": "0530", "pgp": 0, "GoBack": 1, "SID": 13829, "NameZh": "North Singlong", "RouteId": 8033, "SeqNo": 9, "Terminal": 0, "DistrictId": 1, "Latitude": 23.006369, "Longitude": 120.649449, "IVRNo": 530, "EXTVoiceNo": 530, "traveltime": 0, "holidayTraveltime": 0}, {"Id": "3312", "pgp": 0, "GoBack": 1, "SID": 16683, "NameZh": "Children`s home", "RouteId": 8033, "SeqNo": 10, "Terminal": 0, "DistrictId": 1, "Latitude": 23.00599, "Longitude": 120.656, "IVRNo": 13312, "EXTVoiceNo": 13312, "traveltime": 0, "holidayTraveltime": 0}, {"Id": "3438", "pgp": 0, "GoBack": 1, "SID": 16684, "NameZh": "Jioutan Pond", "RouteId": 8033, "SeqNo": 11, "Terminal": 0, "DistrictId": 1, "Latitude": 23.01246, "Longitude": 120.66544, "IVRNo": 13438, "EXTVoiceNo": 13438, "traveltime": 0, "holidayTraveltime": 0}, {"Id": "0277", "pgp": 0, "GoBack": 1, "SID": 16685, "NameZh": "Beijiou Pond", "RouteId": 8033, "SeqNo": 12, "Terminal": 0, "DistrictId": 1, "Latitude": 23.01569, "Longitude": 120.66545, "IVRNo": 10564, "EXTVoiceNo": 20277, "traveltime": 0, "holidayTraveltime": 0}, {"Id": "1715", "pgp": 0, "GoBack": 1, "SID": 16686, "NameZh": "Shihetou", "RouteId": 8033, "SeqNo": 13, "Terminal": 0, "DistrictId": 1, "Latitude": 23.02234, "Longitude": 120.66417, "IVRNo": 11715, "EXTVoiceNo": 11715, "traveltime": 0, "holidayTraveltime": 0}, {"Id": "1654", "pgp": 0, "GoBack": 1, "SID": 16687, "NameZh": "Sinfa", "RouteId": 8033, "SeqNo": 14, "Terminal": 0, "DistrictId": 1, "Latitude": 23.02837, "Longitude": 120.66338, "IVRNo": 11654, "EXTVoiceNo": 11654, "traveltime": 0, "holidayTraveltime": 0}, {"Id": "3391", "pgp": 0, "GoBack": 1, "SID": 16688, "NameZh": "Xinfa Elementary School", "RouteId": 8033, "SeqNo": 15, "Terminal": 0, "DistrictId": 1, "Latitude": 23.031705, "Longitude": 120.663771, "IVRNo": 13391, "EXTVoiceNo": 13391, "traveltime": 0, "holidayTraveltime": 0}, {"Id": "3304", "pgp": 0, "GoBack": 1, "SID": 16689, "NameZh": "Hueiyao (Liouguei)", "RouteId": 8033, "SeqNo": 16, "Terminal": 0, "DistrictId": 1, "Latitude": 23.03528, "Longitude": 120.66524, "IVRNo": 13304, "EXTVoiceNo": 13304, "traveltime": 0, "holidayTraveltime": 0}, {"Id": "3314", "pgp": 0, "GoBack": 1, "SID": 16690, "NameZh": "Heping Village", "RouteId": 8033, "SeqNo": 17, "Terminal": 0, "DistrictId": 1, "Latitude": 23.03866, "Longitude": 120.66609, "IVRNo": 5244, "EXTVoiceNo": 13314, "traveltime": 0, "holidayTraveltime": 0}, {"Id": "3368", "pgp": 0, "GoBack": 1, "SID": 16691, "NameZh": "Dingsinfa", "RouteId": 8033, "SeqNo": 18, "Terminal": 0, "DistrictId": 1, "Latitude": 23.043154, "Longitude": 120.66779, "IVRNo": 13368, "EXTVoiceNo": 13368, "traveltime": 0, "holidayTraveltime": 0}, {"Id": "7173", "pgp": 0, "GoBack": 1, "SID": 17885, "NameZh": "Camp Area", "RouteId": 8033, "SeqNo": 19, "Terminal": 0, "DistrictId": 1, "Latitude": 23.050373, "Longitude": 120.675128, "IVRNo": 9985, "EXTVoiceNo": 17173, "traveltime": 0, "holidayTraveltime": 0}, {"Id": "3346", "pgp": 0, "GoBack": 1, "SID": 17886, "NameZh": "Puwei", "RouteId": 8033, "SeqNo": 20, "Terminal": 0, "DistrictId": 1, "Latitude": 23.051944, "Longitude": 120.675689, "IVRNo": 11218, "EXTVoiceNo": 13346, "traveltime": 0, "holidayTraveltime": 0}, {"Id": "1334", "pgp": 0, "GoBack": 1, "SID": 17887, "NameZh": "Sinkai Memorial Park", "RouteId": 8033, "SeqNo": 21, "Terminal": 0, "DistrictId": 1, "Latitude": 23.057072, "Longitude": 120.67737, "IVRNo": 9991, "EXTVoiceNo": 11334, "traveltime": 0, "holidayTraveltime": 0}, {"Id": "7172", "pgp": 0, "GoBack": 1, "SID": 17888, "NameZh": "Sinkai", "RouteId": 8033, "SeqNo": 22, "Terminal": 0, "DistrictId": 1, "Latitude": 23.063877, "Longitude": 120.681492, "IVRNo": 9989, "EXTVoiceNo": 17172, "traveltime": 0, "holidayTraveltime": 0}, {"Id": "7164", "pgp": 0, "GoBack": 1, "SID": 17889, "NameZh": "Bulao Hot Spring", "RouteId": 8033, "SeqNo": 23, "Terminal": 0, "DistrictId": 1, "Latitude": 23.066155, "Longitude": 120.684976, "IVRNo": 9992, "EXTVoiceNo": 17164, "traveltime": 0, "holidayTraveltime": 0}, {"Id": "1737", "pgp": 0, "GoBack": 1, "SID": 17370, "NameZh": "Meilun Mountain", "RouteId": 8033, "SeqNo": 24, "Terminal": 1, "DistrictId": 1, "Latitude": 23.067628, "Longitude": 120.685768, "IVRNo": 1737, "EXTVoiceNo": 1737, "traveltime": 0, "holidayTraveltime": 0}, {"Id": "1737", "pgp": 0, "GoBack": 2, "SID": 17377, "NameZh": "Meilun Mountain", "RouteId": 8033, "SeqNo": 1, "Terminal": 0, "DistrictId": 1, "Latitude": 23.067766, "Longitude": 120.685704, "IVRNo": 1737, "EXTVoiceNo": 1737, "traveltime": 0, "holidayTraveltime": 0}, {"Id": "7164", "pgp": 0, "GoBack": 2, "SID": 17956, "NameZh": "Bulao Hot Spring", "RouteId": 8033, "SeqNo": 2, "Terminal": 0, "DistrictId": 1, "Latitude": 23.066155, "Longitude": 120.684976, "IVRNo": 9992, "EXTVoiceNo": 17164, "traveltime": 0, "holidayTraveltime": 0}, {"Id": "7172", "pgp": 0, "GoBack": 2, "SID": 17890, "NameZh": "Sinkai", "RouteId": 8033, "SeqNo": 3, "Terminal": 0, "DistrictId": 1, "Latitude": 23.064001, "Longitude": 120.681532, "IVRNo": 9989, "EXTVoiceNo": 17172, "traveltime": 0, "holidayTraveltime": 0}, {"Id": "1334", "pgp": 0, "GoBack": 2, "SID": 17891, "NameZh": "Sinkai Memorial Park", "RouteId": 8033, "SeqNo": 4, "Terminal": 0, "DistrictId": 1, "Latitude": 23.057148, "Longitude": 120.677354, "IVRNo": 9991, "EXTVoiceNo": 11334, "traveltime": 0, "holidayTraveltime": 0}, {"Id": "3346", "pgp": 0, "GoBack": 2, "SID": 17892, "NameZh": "Puwei", "RouteId": 8033, "SeqNo": 5, "Terminal": 0, "DistrictId": 1, "Latitude": 23.052068, "Longitude": 120.675711, "IVRNo": 11218, "EXTVoiceNo": 13346, "traveltime": 0, "holidayTraveltime": 0}, {"Id": "7173", "pgp": 0, "GoBack": 2, "SID": 17893, "NameZh": "Camp Area", "RouteId": 8033, "SeqNo": 6, "Terminal": 0, "DistrictId": 1, "Latitude": 23.050613, "Longitude": 120.675089, "IVRNo": 9985, "EXTVoiceNo": 17173, "traveltime": 0, "holidayTraveltime": 0}, {"Id": "3368", "pgp": 0, "GoBack": 2, "SID": 16692, "NameZh": "Dingsinfa", "RouteId": 8033, "SeqNo": 7, "Terminal": 0, "DistrictId": 1, "Latitude": 23.04317, "Longitude": 120.66769, "IVRNo": 13368, "EXTVoiceNo": 13368, "traveltime": 0, "holidayTraveltime": 0}, {"Id": "3314", "pgp": 0, "GoBack": 2, "SID": 16693, "NameZh": "Heping Village", "RouteId": 8033, "SeqNo": 8, "Terminal": 0, "DistrictId": 1, "Latitude": 23.03872, "Longitude": 120.66605, "IVRNo": 5244, "EXTVoiceNo": 13314, "traveltime": 0, "holidayTraveltime": 0}, {"Id": "3304", "pgp": 0, "GoBack": 2, "SID": 16694, "NameZh": "Hueiyao (Liouguei)", "RouteId": 8033, "SeqNo": 9, "Terminal": 0, "DistrictId": 1, "Latitude": 23.03527, "Longitude": 120.66515, "IVRNo": 13304, "EXTVoiceNo": 13304, "traveltime": 0, "holidayTraveltime": 0}, {"Id": "3391", "pgp": 0, "GoBack": 2, "SID": 16695, "NameZh": "Xinfa Elementary School", "RouteId": 8033, "SeqNo": 10, "Terminal": 0, "DistrictId": 1, "Latitude": 23.03173, "Longitude": 120.66364, "IVRNo": 13391, "EXTVoiceNo": 13391, "traveltime": 0, "holidayTraveltime": 0}, {"Id": "1654", "pgp": 0, "GoBack": 2, "SID": 16696, "NameZh": "Sinfa", "RouteId": 8033, "SeqNo": 11, "Terminal": 0, "DistrictId": 1, "Latitude": 23.028347, "Longitude": 120.663283, "IVRNo": 11654, "EXTVoiceNo": 11654, "traveltime": 0, "holidayTraveltime": 0}, {"Id": "1715", "pgp": 0, "GoBack": 2, "SID": 16697, "NameZh": "Shihetou", "RouteId": 8033, "SeqNo": 12, "Terminal": 0, "DistrictId": 1, "Latitude": 23.0223, "Longitude": 120.66405, "IVRNo": 11715, "EXTVoiceNo": 11715, "traveltime": 0, "holidayTraveltime": 0}, {"Id": "0277", "pgp": 0, "GoBack": 2, "SID": 16698, "NameZh": "Beijiou Pond", "RouteId": 8033, "SeqNo": 13, "Terminal": 0, "DistrictId": 1, "Latitude": 23.01538, "Longitude": 120.6653, "IVRNo": 10564, "EXTVoiceNo": 20277, "traveltime": 0, "holidayTraveltime": 0}, {"Id": "3438", "pgp": 0, "GoBack": 2, "SID": 16699, "NameZh": "Jioutan Pond", "RouteId": 8033, "SeqNo": 14, "Terminal": 0, "DistrictId": 1, "Latitude": 23.01242, "Longitude": 120.66539, "IVRNo": 13438, "EXTVoiceNo": 13438, "traveltime": 0, "holidayTraveltime": 0}, {"Id": "3312", "pgp": 0, "GoBack": 2, "SID": 16700, "NameZh": "Children`s home", "RouteId": 8033, "SeqNo": 15, "Terminal": 0, "DistrictId": 1, "Latitude": 23.00609, "Longitude": 120.65581, "IVRNo": 13312, "EXTVoiceNo": 13312, "traveltime": 0, "holidayTraveltime": 0}, {"Id": "0530", "pgp": 0, "GoBack": 2, "SID": 13915, "NameZh": "North Singlong", "RouteId": 8033, "SeqNo": 16, "Terminal": 0, "DistrictId": 1, "Latitude": 23.006514, "Longitude": 120.649581, "IVRNo": 530, "EXTVoiceNo": 530, "traveltime": 0, "holidayTraveltime": 0}, {"Id": "3427", "pgp": 0, "GoBack": 2, "SID": 16701, "NameZh": "Singlong", "RouteId": 8033, "SeqNo": 17, "Terminal": 0, "DistrictId": 1, "Latitude": 23.00517, "Longitude": 120.64838, "IVRNo": 11989, "EXTVoiceNo": 13427, "traveltime": 0, "holidayTraveltime": 0}, {"Id": "0237", "pgp": 0, "GoBack": 2, "SID": 16702, "NameZh": "Muye Company (Liouguei)", "RouteId": 8033, "SeqNo": 18, "Terminal": 0, "DistrictId": 1, "Latitude": 23.00045, "Longitude": 120.64486, "IVRNo": 5265, "EXTVoiceNo": 20237, "traveltime": 0, "holidayTraveltime": 0}, {"Id": "0935", "pgp": 0, "GoBack": 2, "SID": 16703, "NameZh": "Jhongsing (Sinfa Highway: Provincial Highway 27)", "RouteId": 8033, "SeqNo": 19, "Terminal": 0, "DistrictId": 1, "Latitude": 22.99638, "Longitude": 120.64298, "IVRNo": 935, "EXTVoiceNo": 935, "traveltime": 0, "holidayTraveltime": 0}, {"Id": "0202", "pgp": 0, "GoBack": 2, "SID": 16704, "NameZh": "Liouguei Gridge", "RouteId": 8033, "SeqNo": 20, "Terminal": 0, "DistrictId": 1, "Latitude": 22.99664, "Longitude": 120.64144, "IVRNo": 13274, "EXTVoiceNo": 20202, "traveltime": 0, "holidayTraveltime": 0}, {"Id": "1228", "pgp": 0, "GoBack": 2, "SID": 16705, "NameZh": "Liouguei Before the Theater", "RouteId": 8033, "SeqNo": 21, "Terminal": 0, "DistrictId": 1, "Latitude": 22.99534, "Longitude": 120.63769, "IVRNo": 13486, "EXTVoiceNo": 21228, "traveltime": 0, "holidayTraveltime": 0}, {"Id": "1239", "pgp": 0, "GoBack": 2, "SID": 16706, "NameZh": "Liouguei Farmers` Association (Taiping Rd.)", "RouteId": 8033, "SeqNo": 22, "Terminal": 0, "DistrictId": 1, "Latitude": 22.99593, "Longitude": 120.63494, "IVRNo": 1239, "EXTVoiceNo": 1239, "traveltime": 0, "holidayTraveltime": 0}, {"Id": "1226", "pgp": 0, "GoBack": 2, "SID": 16707, "NameZh": "Liouguei  Jienei", "RouteId": 8033, "SeqNo": 23, "Terminal": 0, "DistrictId": 1, "Latitude": 22.997153, "Longitude": 120.634415, "IVRNo": 11534, "EXTVoiceNo": 21226, "traveltime": 0, "holidayTraveltime": 0}, {"Id": "0203", "pgp": 0, "GoBack": 2, "SID": 16708, "NameZh": "Liouguei Station", "RouteId": 8033, "SeqNo": 24, "Terminal": 1, "DistrictId": 1, "Latitude": 22.99792, "Longitude": 120.63455, "IVRNo": 10397, "EXTVoiceNo": 20203, "traveltime": 0, "holidayTraveltime": 0}], "zh": [{"Id": "0203", "pgp": 0, "GoBack": 1, "SID": 16675, "NameZh": "\u516d\u9f9c\u7ad9", "RouteId": 8033, "SeqNo": 1, "Terminal": 0, "DistrictId": 1, "Latitude": 22.99792, "Longitude": 120.63455, "IVRNo": 10397, "EXTVoiceNo": 20203, "traveltime": 0, "holidayTraveltime": 0}, {"Id": "1226", "pgp": 0, "GoBack": 1, "SID": 16676, "NameZh": "\u516d\u9f9c\u8857\u5167", "RouteId": 8033, "SeqNo": 2, "Terminal": 0, "DistrictId": 1, "Latitude": 22.99709, "Longitude": 120.63428, "IVRNo": 11534, "EXTVoiceNo": 21226, "traveltime": 0, "holidayTraveltime": 0}, {"Id": "1227", "pgp": 0, "GoBack": 1, "SID": 16677, "NameZh": "\u516d\u9f9c\u8fb2\u6703(\u5149\u5fa9\u8def)", "RouteId": 8033, "SeqNo": 3, "Terminal": 0, "DistrictId": 1, "Latitude": 22.9959, "Longitude": 120.63487, "IVRNo": 11761, "EXTVoiceNo": 21227, "traveltime": 0, "holidayTraveltime": 0}, {"Id": "1228", "pgp": 0, "GoBack": 1, "SID": 16678, "NameZh": "\u516d\u9f9c\u6232\u9662\u524d", "RouteId": 8033, "SeqNo": 4, "Terminal": 0, "DistrictId": 1, "Latitude": 22.995249, "Longitude": 120.637678, "IVRNo": 13486, "EXTVoiceNo": 21228, "traveltime": 0, "holidayTraveltime": 0}, {"Id": "0202", "pgp": 0, "GoBack": 1, "SID": 16679, "NameZh": "\u516d\u9f9c\u5927\u6a4b", "RouteId": 8033, "SeqNo": 5, "Terminal": 0, "DistrictId": 1, "Latitude": 22.996507, "Longitude": 120.641496, "IVRNo": 13274, "EXTVoiceNo": 20202, "traveltime": 0, "holidayTraveltime": 0}, {"Id": "0935", "pgp": 0, "GoBack": 1, "SID": 16680, "NameZh": "\u4e2d\u8208(\u65b0\u767c\u516c\u8def)", "RouteId": 8033, "SeqNo": 6, "Terminal": 0, "DistrictId": 1, "Latitude": 22.99604, "Longitude": 120.64302, "IVRNo": 935, "EXTVoiceNo": 935, "traveltime": 0, "holidayTraveltime": 0}, {"Id": "0237", "pgp": 0, "GoBack": 1, "SID": 16681, "NameZh": "\u6728\u696d\u516c\u53f8(\u516d\u9f9c)", "RouteId": 8033, "SeqNo": 7, "Terminal": 0, "DistrictId": 1, "Latitude": 23.00041, "Longitude": 120.64494, "IVRNo": 5265, "EXTVoiceNo": 20237, "traveltime": 0, "holidayTraveltime": 0}, {"Id": "3427", "pgp": 0, "GoBack": 1, "SID": 16682, "NameZh": "\u8208\u74cf", "RouteId": 8033, "SeqNo": 8, "Terminal": 0, "DistrictId": 1, "Latitude": 23.00512, "Longitude": 120.64851, "IVRNo": 11989, "EXTVoiceNo": 13427, "traveltime": 0, "holidayTraveltime": 0}, {"Id": "0530", "pgp": 0, "GoBack": 1, "SID": 13829, "NameZh": "\u5317\u8208\u9f8d", "RouteId": 8033, "SeqNo": 9, "Terminal": 0, "DistrictId": 1, "Latitude": 23.006369, "Longitude": 120.649449, "IVRNo": 530, "EXTVoiceNo": 530, "traveltime": 0, "holidayTraveltime": 0}, {"Id": "3312", "pgp": 0, "GoBack": 1, "SID": 16683, "NameZh": "\u80b2\u5e7c\u9662", "RouteId": 8033, "SeqNo": 10, "Terminal": 0, "DistrictId": 1, "Latitude": 23.00599, "Longitude": 120.656, "IVRNo": 13312, "EXTVoiceNo": 13312, "traveltime": 0, "holidayTraveltime": 0}, {"Id": "3438", "pgp": 0, "GoBack": 1, "SID": 16684, "NameZh": "\u820a\u6f6d", "RouteId": 8033, "SeqNo": 11, "Terminal": 0, "DistrictId": 1, "Latitude": 23.01246, "Longitude": 120.66544, "IVRNo": 13438, "EXTVoiceNo": 13438, "traveltime": 0, "holidayTraveltime": 0}, {"Id": "0277", "pgp": 0, "GoBack": 1, "SID": 16685, "NameZh": "\u5317\u820a\u6f6d", "RouteId": 8033, "SeqNo": 12, "Terminal": 0, "DistrictId": 1, "Latitude": 23.01569, "Longitude": 120.66545, "IVRNo": 10564, "EXTVoiceNo": 20277, "traveltime": 0, "holidayTraveltime": 0}, {"Id": "1715", "pgp": 0, "GoBack": 1, "SID": 16686, "NameZh": "\u7345\u984d\u982d", "RouteId": 8033, "SeqNo": 13, "Terminal": 0, "DistrictId": 1, "Latitude": 23.02234, "Longitude": 120.66417, "IVRNo": 11715, "EXTVoiceNo": 11715, "traveltime": 0, "holidayTraveltime": 0}, {"Id": "1654", "pgp": 0, "GoBack": 1, "SID": 16687, "NameZh": "\u65b0\u767c", "RouteId": 8033, "SeqNo": 14, "Terminal": 0, "DistrictId": 1, "Latitude": 23.02837, "Longitude": 120.66338, "IVRNo": 11654, "EXTVoiceNo": 11654, "traveltime": 0, "holidayTraveltime": 0}, {"Id": "3391", "pgp": 0, "GoBack": 1, "SID": 16688, "NameZh": "\u65b0\u767c\u570b\u5c0f", "RouteId": 8033, "SeqNo": 15, "Terminal": 0, "DistrictId": 1, "Latitude": 23.031705, "Longitude": 120.663771, "IVRNo": 13391, "EXTVoiceNo": 13391, "traveltime": 0, "holidayTraveltime": 0}, {"Id": "3304", "pgp": 0, "GoBack": 1, "SID": 16689, "NameZh": "\u7070\u7aaf(\u516d\u9f9c)", "RouteId": 8033, "SeqNo": 16, "Terminal": 0, "DistrictId": 1, "Latitude": 23.03528, "Longitude": 120.66524, "IVRNo": 13304, "EXTVoiceNo": 13304, "traveltime": 0, "holidayTraveltime": 0}, {"Id": "3314", "pgp": 0, "GoBack": 1, "SID": 16690, "NameZh": "\u548c\u5e73\u91cc", "RouteId": 8033, "SeqNo": 17, "Terminal": 0, "DistrictId": 1, "Latitude": 23.03866, "Longitude": 120.66609, "IVRNo": 5244, "EXTVoiceNo": 13314, "traveltime": 0, "holidayTraveltime": 0}, {"Id": "3368", "pgp": 0, "GoBack": 1, "SID": 16691, "NameZh": "\u9802\u65b0\u767c", "RouteId": 8033, "SeqNo": 18, "Terminal": 0, "DistrictId": 1, "Latitude": 23.043154, "Longitude": 120.66779, "IVRNo": 13368, "EXTVoiceNo": 13368, "traveltime": 0, "holidayTraveltime": 0}, {"Id": "7173", "pgp": 0, "GoBack": 1, "SID": 17885, "NameZh": "\u9732\u71df\u5340", "RouteId": 8033, "SeqNo": 19, "Terminal": 0, "DistrictId": 1, "Latitude": 23.050373, "Longitude": 120.675128, "IVRNo": 9985, "EXTVoiceNo": 17173, "traveltime": 0, "holidayTraveltime": 0}, {"Id": "3346", "pgp": 0, "GoBack": 1, "SID": 17886, "NameZh": "\u57d4\u5c3e", "RouteId": 8033, "SeqNo": 20, "Terminal": 0, "DistrictId": 1, "Latitude": 23.051944, "Longitude": 120.675689, "IVRNo": 11218, "EXTVoiceNo": 13346, "traveltime": 0, "holidayTraveltime": 0}, {"Id": "1334", "pgp": 0, "GoBack": 1, "SID": 17887, "NameZh": "\u65b0\u958b\u7d00\u5ff5\u516c\u5712", "RouteId": 8033, "SeqNo": 21, "Terminal": 0, "DistrictId": 1, "Latitude": 23.057072, "Longitude": 120.67737, "IVRNo": 9991, "EXTVoiceNo": 11334, "traveltime": 0, "holidayTraveltime": 0}, {"Id": "7172", "pgp": 0, "GoBack": 1, "SID": 17888, "NameZh": "\u65b0\u958b", "RouteId": 8033, "SeqNo": 22, "Terminal": 0, "DistrictId": 1, "Latitude": 23.063877, "Longitude": 120.681492, "IVRNo": 9989, "EXTVoiceNo": 17172, "traveltime": 0, "holidayTraveltime": 0}, {"Id": "7164", "pgp": 0, "GoBack": 1, "SID": 17889, "NameZh": "\u4e0d\u8001\u6eab\u6cc9", "RouteId": 8033, "SeqNo": 23, "Terminal": 0, "DistrictId": 1, "Latitude": 23.066155, "Longitude": 120.684976, "IVRNo": 9992, "EXTVoiceNo": 17164, "traveltime": 0, "holidayTraveltime": 0}, {"Id": "1737", "pgp": 0, "GoBack": 1, "SID": 17370, "NameZh": "\u7f8e\u5d19\u5c71", "RouteId": 8033, "SeqNo": 24, "Terminal": 1, "DistrictId": 1, "Latitude": 23.067628, "Longitude": 120.685768, "IVRNo": 1737, "EXTVoiceNo": 1737, "traveltime": 0, "holidayTraveltime": 0}, {"Id": "1737", "pgp": 0, "GoBack": 2, "SID": 17377, "NameZh": "\u7f8e\u5d19\u5c71", "RouteId": 8033, "SeqNo": 1, "Terminal": 0, "DistrictId": 1, "Latitude": 23.067766, "Longitude": 120.685704, "IVRNo": 1737, "EXTVoiceNo": 1737, "traveltime": 0, "holidayTraveltime": 0}, {"Id": "7164", "pgp": 0, "GoBack": 2, "SID": 17956, "NameZh": "\u4e0d\u8001\u6eab\u6cc9", "RouteId": 8033, "SeqNo": 2, "Terminal": 0, "DistrictId": 1, "Latitude": 23.066155, "Longitude": 120.684976, "IVRNo": 9992, "EXTVoiceNo": 17164, "traveltime": 0, "holidayTraveltime": 0}, {"Id": "7172", "pgp": 0, "GoBack": 2, "SID": 17890, "NameZh": "\u65b0\u958b", "RouteId": 8033, "SeqNo": 3, "Terminal": 0, "DistrictId": 1, "Latitude": 23.064001, "Longitude": 120.681532, "IVRNo": 9989, "EXTVoiceNo": 17172, "traveltime": 0, "holidayTraveltime": 0}, {"Id": "1334", "pgp": 0, "GoBack": 2, "SID": 17891, "NameZh": "\u65b0\u958b\u7d00\u5ff5\u516c\u5712", "RouteId": 8033, "SeqNo": 4, "Terminal": 0, "DistrictId": 1, "Latitude": 23.057148, "Longitude": 120.677354, "IVRNo": 9991, "EXTVoiceNo": 11334, "traveltime": 0, "holidayTraveltime": 0}, {"Id": "3346", "pgp": 0, "GoBack": 2, "SID": 17892, "NameZh": "\u57d4\u5c3e", "RouteId": 8033, "SeqNo": 5, "Terminal": 0, "DistrictId": 1, "Latitude": 23.052068, "Longitude": 120.675711, "IVRNo": 11218, "EXTVoiceNo": 13346, "traveltime": 0, "holidayTraveltime": 0}, {"Id": "7173", "pgp": 0, "GoBack": 2, "SID": 17893, "NameZh": "\u9732\u71df\u5340", "RouteId": 8033, "SeqNo": 6, "Terminal": 0, "DistrictId": 1, "Latitude": 23.050613, "Longitude": 120.675089, "IVRNo": 9985, "EXTVoiceNo": 17173, "traveltime": 0, "holidayTraveltime": 0}, {"Id": "3368", "pgp": 0, "GoBack": 2, "SID": 16692, "NameZh": "\u9802\u65b0\u767c", "RouteId": 8033, "SeqNo": 7, "Terminal": 0, "DistrictId": 1, "Latitude": 23.04317, "Longitude": 120.66769, "IVRNo": 13368, "EXTVoiceNo": 13368, "traveltime": 0, "holidayTraveltime": 0}, {"Id": "3314", "pgp": 0, "GoBack": 2, "SID": 16693, "NameZh": "\u548c\u5e73\u91cc", "RouteId": 8033, "SeqNo": 8, "Terminal": 0, "DistrictId": 1, "Latitude": 23.03872, "Longitude": 120.66605, "IVRNo": 5244, "EXTVoiceNo": 13314, "traveltime": 0, "holidayTraveltime": 0}, {"Id": "3304", "pgp": 0, "GoBack": 2, "SID": 16694, "NameZh": "\u7070\u7aaf(\u516d\u9f9c)", "RouteId": 8033, "SeqNo": 9, "Terminal": 0, "DistrictId": 1, "Latitude": 23.03527, "Longitude": 120.66515, "IVRNo": 13304, "EXTVoiceNo": 13304, "traveltime": 0, "holidayTraveltime": 0}, {"Id": "3391", "pgp": 0, "GoBack": 2, "SID": 16695, "NameZh": "\u65b0\u767c\u570b\u5c0f", "RouteId": 8033, "SeqNo": 10, "Terminal": 0, "DistrictId": 1, "Latitude": 23.03173, "Longitude": 120.66364, "IVRNo": 13391, "EXTVoiceNo": 13391, "traveltime": 0, "holidayTraveltime": 0}, {"Id": "1654", "pgp": 0, "GoBack": 2, "SID": 16696, "NameZh": "\u65b0\u767c", "RouteId": 8033, "SeqNo": 11, "Terminal": 0, "DistrictId": 1, "Latitude": 23.028347, "Longitude": 120.663283, "IVRNo": 11654, "EXTVoiceNo": 11654, "traveltime": 0, "holidayTraveltime": 0}, {"Id": "1715", "pgp": 0, "GoBack": 2, "SID": 16697, "NameZh": "\u7345\u984d\u982d", "RouteId": 8033, "SeqNo": 12, "Terminal": 0, "DistrictId": 1, "Latitude": 23.0223, "Longitude": 120.66405, "IVRNo": 11715, "EXTVoiceNo": 11715, "traveltime": 0, "holidayTraveltime": 0}, {"Id": "0277", "pgp": 0, "GoBack": 2, "SID": 16698, "NameZh": "\u5317\u820a\u6f6d", "RouteId": 8033, "SeqNo": 13, "Terminal": 0, "DistrictId": 1, "Latitude": 23.01538, "Longitude": 120.6653, "IVRNo": 10564, "EXTVoiceNo": 20277, "traveltime": 0, "holidayTraveltime": 0}, {"Id": "3438", "pgp": 0, "GoBack": 2, "SID": 16699, "NameZh": "\u820a\u6f6d", "RouteId": 8033, "SeqNo": 14, "Terminal": 0, "DistrictId": 1, "Latitude": 23.01242, "Longitude": 120.66539, "IVRNo": 13438, "EXTVoiceNo": 13438, "traveltime": 0, "holidayTraveltime": 0}, {"Id": "3312", "pgp": 0, "GoBack": 2, "SID": 16700, "NameZh": "\u80b2\u5e7c\u9662", "RouteId": 8033, "SeqNo": 15, "Terminal": 0, "DistrictId": 1, "Latitude": 23.00609, "Longitude": 120.65581, "IVRNo": 13312, "EXTVoiceNo": 13312, "traveltime": 0, "holidayTraveltime": 0}, {"Id": "0530", "pgp": 0, "GoBack": 2, "SID": 13915, "NameZh": "\u5317\u8208\u9f8d", "RouteId": 8033, "SeqNo": 16, "Terminal": 0, "DistrictId": 1, "Latitude": 23.006514, "Longitude": 120.649581, "IVRNo": 530, "EXTVoiceNo": 530, "traveltime": 0, "holidayTraveltime": 0}, {"Id": "3427", "pgp": 0, "GoBack": 2, "SID": 16701, "NameZh": "\u8208\u74cf", "RouteId": 8033, "SeqNo": 17, "Terminal": 0, "DistrictId": 1, "Latitude": 23.00517, "Longitude": 120.64838, "IVRNo": 11989, "EXTVoiceNo": 13427, "traveltime": 0, "holidayTraveltime": 0}, {"Id": "0237", "pgp": 0, "GoBack": 2, "SID": 16702, "NameZh": "\u6728\u696d\u516c\u53f8(\u516d\u9f9c)", "RouteId": 8033, "SeqNo": 18, "Terminal": 0, "DistrictId": 1, "Latitude": 23.00045, "Longitude": 120.64486, "IVRNo": 5265, "EXTVoiceNo": 20237, "traveltime": 0, "holidayTraveltime": 0}, {"Id": "0935", "pgp": 0, "GoBack": 2, "SID": 16703, "NameZh": "\u4e2d\u8208(\u65b0\u767c\u516c\u8def)", "RouteId": 8033, "SeqNo": 19, "Terminal": 0, "DistrictId": 1, "Latitude": 22.99638, "Longitude": 120.64298, "IVRNo": 935, "EXTVoiceNo": 935, "traveltime": 0, "holidayTraveltime": 0}, {"Id": "0202", "pgp": 0, "GoBack": 2, "SID": 16704, "NameZh": "\u516d\u9f9c\u5927\u6a4b", "RouteId": 8033, "SeqNo": 20, "Terminal": 0, "DistrictId": 1, "Latitude": 22.99664, "Longitude": 120.64144, "IVRNo": 13274, "EXTVoiceNo": 20202, "traveltime": 0, "holidayTraveltime": 0}, {"Id": "1228", "pgp": 0, "GoBack": 2, "SID": 16705, "NameZh": "\u516d\u9f9c\u6232\u9662\u524d", "RouteId": 8033, "SeqNo": 21, "Terminal": 0, "DistrictId": 1, "Latitude": 22.99534, "Longitude": 120.63769, "IVRNo": 13486, "EXTVoiceNo": 21228, "traveltime": 0, "holidayTraveltime": 0}, {"Id": "1239", "pgp": 0, "GoBack": 2, "SID": 16706, "NameZh": "\u516d\u9f9c\u8fb2\u6703(\u592a\u5e73\u8def)", "RouteId": 8033, "SeqNo": 22, "Terminal": 0, "DistrictId": 1, "Latitude": 22.99593, "Longitude": 120.63494, "IVRNo": 1239, "EXTVoiceNo": 1239, "traveltime": 0, "holidayTraveltime": 0}, {"Id": "1226", "pgp": 0, "GoBack": 2, "SID": 16707, "NameZh": "\u516d\u9f9c\u8857\u5167", "RouteId": 8033, "SeqNo": 23, "Terminal": 0, "DistrictId": 1, "Latitude": 22.997153, "Longitude": 120.634415, "IVRNo": 11534, "EXTVoiceNo": 21226, "traveltime": 0, "holidayTraveltime": 0}, {"Id": "0203", "pgp": 0, "GoBack": 2, "SID": 16708, "NameZh": "\u516d\u9f9c\u7ad9", "RouteId": 8033, "SeqNo": 24, "Terminal": 1, "DistrictId": 1, "Latitude": 22.99792, "Longitude": 120.63455, "IVRNo": 10397, "EXTVoiceNo": 20203, "traveltime": 0, "holidayTraveltime": 0}]}