{"en": [{"Id": "3412", "pgp": 0, "GoBack": 1, "SID": 16709, "NameZh": "Cishan Bus Transfer Station", "RouteId": 8074, "SeqNo": 1, "Terminal": 0, "DistrictId": 1, "Latitude": 22.883969, "Longitude": 120.484325, "IVRNo": 9717, "EXTVoiceNo": 13412, "traveltime": 0, "holidayTraveltime": 0}, {"Id": "9718", "pgp": 0, "GoBack": 1, "SID": 16710, "NameZh": "Yanping Rd. (Cishan District Office)", "RouteId": 8074, "SeqNo": 2, "Terminal": 0, "DistrictId": 1, "Latitude": 22.88761, "Longitude": 120.483247, "IVRNo": 9718, "EXTVoiceNo": 9718, "traveltime": 0, "holidayTraveltime": 0}, {"Id": "9374", "pgp": 0, "GoBack": 1, "SID": 2336, "NameZh": "Cishan Market", "RouteId": 8074, "SeqNo": 3, "Terminal": 0, "DistrictId": 1, "Latitude": 22.889889, "Longitude": 120.483465, "IVRNo": 9953, "EXTVoiceNo": 9374, "traveltime": 0, "holidayTraveltime": 0}, {"Id": "1197", "pgp": 0, "GoBack": 1, "SID": 16712, "NameZh": "Jhonghua Rd. Intersection (Ci)", "RouteId": 8074, "SeqNo": 4, "Terminal": 0, "DistrictId": 1, "Latitude": 22.89278, "Longitude": 120.4833, "IVRNo": 1180, "EXTVoiceNo": 21197, "traveltime": 0, "holidayTraveltime": 0}, {"Id": "1828", "pgp": 0, "GoBack": 1, "SID": 16713, "NameZh": "Cishan North Station", "RouteId": 8074, "SeqNo": 5, "Terminal": 0, "DistrictId": 1, "Latitude": 22.896043, "Longitude": 120.483457, "IVRNo": 9142, "EXTVoiceNo": 11828, "traveltime": 0, "holidayTraveltime": 0}, {"Id": "0478", "pgp": 0, "GoBack": 1, "SID": 2448, "NameZh": "Cishan Motor Vehicles Supervision Station", "RouteId": 8074, "SeqNo": 6, "Terminal": 0, "DistrictId": 1, "Latitude": 22.90059, "Longitude": 120.47939, "IVRNo": 2582, "EXTVoiceNo": 478, "traveltime": 0, "holidayTraveltime": 0}, {"Id": "1159", "pgp": 0, "GoBack": 1, "SID": 16715, "NameZh": "Chaotian Temple (Ciwun Rd.)", "RouteId": 8074, "SeqNo": 7, "Terminal": 0, "DistrictId": 1, "Latitude": 22.904329, "Longitude": 120.479228, "IVRNo": 1159, "EXTVoiceNo": 1159, "traveltime": 0, "holidayTraveltime": 0}, {"Id": "2022", "pgp": 0, "GoBack": 1, "SID": 16716, "NameZh": "Lingding", "RouteId": 8074, "SeqNo": 8, "Terminal": 0, "DistrictId": 1, "Latitude": 22.90826, "Longitude": 120.47456, "IVRNo": 9144, "EXTVoiceNo": 12022, "traveltime": 0, "holidayTraveltime": 0}, {"Id": "0355", "pgp": 0, "GoBack": 1, "SID": 16717, "NameZh": "Shihgou", "RouteId": 8074, "SeqNo": 9, "Terminal": 0, "DistrictId": 1, "Latitude": 22.911329, "Longitude": 120.466239, "IVRNo": 9116, "EXTVoiceNo": 20355, "traveltime": 0, "holidayTraveltime": 0}, {"Id": "0017", "pgp": 0, "GoBack": 1, "SID": 16718, "NameZh": "Erceng Bridge", "RouteId": 8074, "SeqNo": 10, "Terminal": 0, "DistrictId": 1, "Latitude": 22.91712, "Longitude": 120.46231, "IVRNo": 9145, "EXTVoiceNo": 20017, "traveltime": 0, "holidayTraveltime": 0}, {"Id": "0895", "pgp": 0, "GoBack": 1, "SID": 16719, "NameZh": "Farmers` Association (Neimen)", "RouteId": 8074, "SeqNo": 11, "Terminal": 0, "DistrictId": 1, "Latitude": 22.91737, "Longitude": 120.45692, "IVRNo": 895, "EXTVoiceNo": 895, "traveltime": 0, "holidayTraveltime": 0}, {"Id": "2117", "pgp": 0, "GoBack": 1, "SID": 16720, "NameZh": "Guanyin Pavilion", "RouteId": 8074, "SeqNo": 12, "Terminal": 0, "DistrictId": 1, "Latitude": 22.91833, "Longitude": 120.45387, "IVRNo": 9147, "EXTVoiceNo": 12117, "traveltime": 0, "holidayTraveltime": 0}, {"Id": "0155", "pgp": 0, "GoBack": 1, "SID": 16721, "NameZh": "Jhongpu", "RouteId": 8074, "SeqNo": 13, "Terminal": 0, "DistrictId": 1, "Latitude": 22.92002, "Longitude": 120.45116, "IVRNo": 9724, "EXTVoiceNo": 20155, "traveltime": 0, "holidayTraveltime": 0}, {"Id": "1217", "pgp": 0, "GoBack": 1, "SID": 16722, "NameZh": "Neimen Junior High School", "RouteId": 8074, "SeqNo": 14, "Terminal": 0, "DistrictId": 1, "Latitude": 22.92253, "Longitude": 120.45337, "IVRNo": 10377, "EXTVoiceNo": 21217, "traveltime": 0, "holidayTraveltime": 0}, {"Id": "0156", "pgp": 0, "GoBack": 1, "SID": 16723, "NameZh": "Jhongputou", "RouteId": 8074, "SeqNo": 15, "Terminal": 0, "DistrictId": 1, "Latitude": 22.92349, "Longitude": 120.45396, "IVRNo": 9149, "EXTVoiceNo": 20156, "traveltime": 0, "holidayTraveltime": 0}, {"Id": "1530", "pgp": 0, "GoBack": 1, "SID": 16724, "NameZh": "Caigongkeng", "RouteId": 8074, "SeqNo": 16, "Terminal": 0, "DistrictId": 1, "Latitude": 22.927358, "Longitude": 120.456747, "IVRNo": 11530, "EXTVoiceNo": 11530, "traveltime": 0, "holidayTraveltime": 0}, {"Id": "1221", "pgp": 0, "GoBack": 1, "SID": 16725, "NameZh": "Neipu Bridge", "RouteId": 8074, "SeqNo": 17, "Terminal": 0, "DistrictId": 1, "Latitude": 22.93177, "Longitude": 120.45972, "IVRNo": 10381, "EXTVoiceNo": 21221, "traveltime": 0, "holidayTraveltime": 0}, {"Id": "1126", "pgp": 0, "GoBack": 1, "SID": 16726, "NameZh": "Shihsanjia", "RouteId": 8074, "SeqNo": 18, "Terminal": 0, "DistrictId": 1, "Latitude": 22.93676, "Longitude": 120.46151, "IVRNo": 10055, "EXTVoiceNo": 21126, "traveltime": 0, "holidayTraveltime": 0}, {"Id": "1216", "pgp": 0, "GoBack": 1, "SID": 16727, "NameZh": "Neimen Primary School", "RouteId": 8074, "SeqNo": 19, "Terminal": 0, "DistrictId": 1, "Latitude": 22.939569, "Longitude": 120.46144, "IVRNo": 10375, "EXTVoiceNo": 21216, "traveltime": 0, "holidayTraveltime": 0}, {"Id": "1218", "pgp": 0, "GoBack": 1, "SID": 16728, "NameZh": "Neimen District Office", "RouteId": 8074, "SeqNo": 20, "Terminal": 0, "DistrictId": 1, "Latitude": 22.94167, "Longitude": 120.46239, "IVRNo": 896, "EXTVoiceNo": 21218, "traveltime": 0, "holidayTraveltime": 0}, {"Id": "1215", "pgp": 0, "GoBack": 1, "SID": 16729, "NameZh": "Neimen", "RouteId": 8074, "SeqNo": 21, "Terminal": 1, "DistrictId": 1, "Latitude": 22.94509, "Longitude": 120.4637, "IVRNo": 10373, "EXTVoiceNo": 21215, "traveltime": 0, "holidayTraveltime": 0}, {"Id": "1215", "pgp": 0, "GoBack": 2, "SID": 16764, "NameZh": "Neimen", "RouteId": 8074, "SeqNo": 1, "Terminal": 0, "DistrictId": 1, "Latitude": 22.94508, "Longitude": 120.46355, "IVRNo": 10373, "EXTVoiceNo": 21215, "traveltime": 0, "holidayTraveltime": 0}, {"Id": "1218", "pgp": 0, "GoBack": 2, "SID": 16765, "NameZh": "Neimen District Office", "RouteId": 8074, "SeqNo": 2, "Terminal": 0, "DistrictId": 1, "Latitude": 22.94189, "Longitude": 120.46225, "IVRNo": 896, "EXTVoiceNo": 21218, "traveltime": 0, "holidayTraveltime": 0}, {"Id": "1216", "pgp": 0, "GoBack": 2, "SID": 16766, "NameZh": "Neimen Primary School", "RouteId": 8074, "SeqNo": 3, "Terminal": 0, "DistrictId": 1, "Latitude": 22.93956, "Longitude": 120.4613, "IVRNo": 10375, "EXTVoiceNo": 21216, "traveltime": 0, "holidayTraveltime": 0}, {"Id": "1126", "pgp": 0, "GoBack": 2, "SID": 16767, "NameZh": "Shihsanjia", "RouteId": 8074, "SeqNo": 4, "Terminal": 0, "DistrictId": 1, "Latitude": 22.93671, "Longitude": 120.46141, "IVRNo": 10055, "EXTVoiceNo": 21126, "traveltime": 0, "holidayTraveltime": 0}, {"Id": "1221", "pgp": 0, "GoBack": 2, "SID": 16768, "NameZh": "Neipu Bridge", "RouteId": 8074, "SeqNo": 5, "Terminal": 0, "DistrictId": 1, "Latitude": 22.93141, "Longitude": 120.45939, "IVRNo": 10381, "EXTVoiceNo": 21221, "traveltime": 0, "holidayTraveltime": 0}, {"Id": "1530", "pgp": 0, "GoBack": 2, "SID": 16769, "NameZh": "Caigongkeng", "RouteId": 8074, "SeqNo": 6, "Terminal": 0, "DistrictId": 1, "Latitude": 22.92746, "Longitude": 120.4567, "IVRNo": 11530, "EXTVoiceNo": 11530, "traveltime": 0, "holidayTraveltime": 0}, {"Id": "0156", "pgp": 0, "GoBack": 2, "SID": 16770, "NameZh": "Jhongputou", "RouteId": 8074, "SeqNo": 7, "Terminal": 0, "DistrictId": 1, "Latitude": 22.92357, "Longitude": 120.45393, "IVRNo": 9149, "EXTVoiceNo": 20156, "traveltime": 0, "holidayTraveltime": 0}, {"Id": "1217", "pgp": 0, "GoBack": 2, "SID": 16771, "NameZh": "Neimen Junior High School", "RouteId": 8074, "SeqNo": 8, "Terminal": 0, "DistrictId": 1, "Latitude": 22.92239, "Longitude": 120.45319, "IVRNo": 10377, "EXTVoiceNo": 21217, "traveltime": 0, "holidayTraveltime": 0}, {"Id": "0155", "pgp": 0, "GoBack": 2, "SID": 16772, "NameZh": "Jhongpu", "RouteId": 8074, "SeqNo": 9, "Terminal": 0, "DistrictId": 1, "Latitude": 22.92003, "Longitude": 120.45112, "IVRNo": 9724, "EXTVoiceNo": 20155, "traveltime": 0, "holidayTraveltime": 0}, {"Id": "2117", "pgp": 0, "GoBack": 2, "SID": 16773, "NameZh": "Guanyin Pavilion", "RouteId": 8074, "SeqNo": 10, "Terminal": 0, "DistrictId": 1, "Latitude": 22.918242, "Longitude": 120.453839, "IVRNo": 9147, "EXTVoiceNo": 12117, "traveltime": 0, "holidayTraveltime": 0}, {"Id": "0895", "pgp": 0, "GoBack": 2, "SID": 16774, "NameZh": "Farmers` Association (Neimen)", "RouteId": 8074, "SeqNo": 11, "Terminal": 0, "DistrictId": 1, "Latitude": 22.91721, "Longitude": 120.45712, "IVRNo": 895, "EXTVoiceNo": 895, "traveltime": 0, "holidayTraveltime": 0}, {"Id": "0017", "pgp": 0, "GoBack": 2, "SID": 16775, "NameZh": "Erceng Bridge", "RouteId": 8074, "SeqNo": 12, "Terminal": 0, "DistrictId": 1, "Latitude": 22.91713, "Longitude": 120.46149, "IVRNo": 9145, "EXTVoiceNo": 20017, "traveltime": 0, "holidayTraveltime": 0}, {"Id": "0355", "pgp": 0, "GoBack": 2, "SID": 16776, "NameZh": "Shihgou", "RouteId": 8074, "SeqNo": 13, "Terminal": 0, "DistrictId": 1, "Latitude": 22.9112, "Longitude": 120.46606, "IVRNo": 9116, "EXTVoiceNo": 20355, "traveltime": 0, "holidayTraveltime": 0}, {"Id": "2022", "pgp": 0, "GoBack": 2, "SID": 16777, "NameZh": "Lingding", "RouteId": 8074, "SeqNo": 14, "Terminal": 0, "DistrictId": 1, "Latitude": 22.906832, "Longitude": 120.475079, "IVRNo": 9144, "EXTVoiceNo": 12022, "traveltime": 0, "holidayTraveltime": 0}, {"Id": "1159", "pgp": 0, "GoBack": 2, "SID": 16778, "NameZh": "Chaotian Temple (Ciwun Rd.)", "RouteId": 8074, "SeqNo": 15, "Terminal": 0, "DistrictId": 1, "Latitude": 22.903691, "Longitude": 120.479159, "IVRNo": 1159, "EXTVoiceNo": 1159, "traveltime": 0, "holidayTraveltime": 0}, {"Id": "0478", "pgp": 0, "GoBack": 2, "SID": 2653, "NameZh": "Cishan Motor Vehicles Supervision Station", "RouteId": 8074, "SeqNo": 16, "Terminal": 0, "DistrictId": 1, "Latitude": 22.90052, "Longitude": 120.4791, "IVRNo": 2582, "EXTVoiceNo": 478, "traveltime": 0, "holidayTraveltime": 0}, {"Id": "1828", "pgp": 0, "GoBack": 2, "SID": 16780, "NameZh": "Cishan North Station", "RouteId": 8074, "SeqNo": 17, "Terminal": 0, "DistrictId": 1, "Latitude": 22.896043, "Longitude": 120.483457, "IVRNo": 9142, "EXTVoiceNo": 11828, "traveltime": 0, "holidayTraveltime": 0}, {"Id": "1197", "pgp": 0, "GoBack": 2, "SID": 16781, "NameZh": "Jhonghua Rd. Intersection (Ci)", "RouteId": 8074, "SeqNo": 18, "Terminal": 0, "DistrictId": 1, "Latitude": 22.89268, "Longitude": 120.48355, "IVRNo": 1180, "EXTVoiceNo": 21197, "traveltime": 0, "holidayTraveltime": 0}, {"Id": "9374", "pgp": 0, "GoBack": 2, "SID": 2669, "NameZh": "Cishan Market", "RouteId": 8074, "SeqNo": 19, "Terminal": 0, "DistrictId": 1, "Latitude": 22.8899, "Longitude": 120.48332, "IVRNo": 9953, "EXTVoiceNo": 9374, "traveltime": 0, "holidayTraveltime": 0}, {"Id": "9718", "pgp": 0, "GoBack": 2, "SID": 16783, "NameZh": "Yanping Rd. (Cishan District Office)", "RouteId": 8074, "SeqNo": 20, "Terminal": 0, "DistrictId": 1, "Latitude": 22.88762, "Longitude": 120.48313, "IVRNo": 9718, "EXTVoiceNo": 9718, "traveltime": 0, "holidayTraveltime": 0}, {"Id": "3412", "pgp": 0, "GoBack": 2, "SID": 16083, "NameZh": "Cishan Bus Transfer Station", "RouteId": 8074, "SeqNo": 21, "Terminal": 1, "DistrictId": 1, "Latitude": 22.883651, "Longitude": 120.484555, "IVRNo": 9717, "EXTVoiceNo": 13412, "traveltime": 0, "holidayTraveltime": 0}], "zh": [{"Id": "3412", "pgp": 0, "GoBack": 1, "SID": 16709, "NameZh": "\u65d7\u5c71\u8f49\u904b\u7ad9", "RouteId": 8074, "SeqNo": 1, "Terminal": 0, "DistrictId": 1, "Latitude": 22.883969, "Longitude": 120.484325, "IVRNo": 9717, "EXTVoiceNo": 13412, "traveltime": 0, "holidayTraveltime": 0}, {"Id": "9718", "pgp": 0, "GoBack": 1, "SID": 16710, "NameZh": "\u5ef6\u5e73\u8def(\u65d7\u5c71\u5340\u516c\u6240)", "RouteId": 8074, "SeqNo": 2, "Terminal": 0, "DistrictId": 1, "Latitude": 22.88761, "Longitude": 120.483247, "IVRNo": 9718, "EXTVoiceNo": 9718, "traveltime": 0, "holidayTraveltime": 0}, {"Id": "9374", "pgp": 0, "GoBack": 1, "SID": 2336, "NameZh": "\u65d7\u5c71\u5e02\u5834", "RouteId": 8074, "SeqNo": 3, "Terminal": 0, "DistrictId": 1, "Latitude": 22.889889, "Longitude": 120.483465, "IVRNo": 9953, "EXTVoiceNo": 9374, "traveltime": 0, "holidayTraveltime": 0}, {"Id": "1197", "pgp": 0, "GoBack": 1, "SID": 16712, "NameZh": "\u4e2d\u83ef\u8def\u53e3(\u65d7)", "RouteId": 8074, "SeqNo": 4, "Terminal": 0, "DistrictId": 1, "Latitude": 22.89278, "Longitude": 120.4833, "IVRNo": 1180, "EXTVoiceNo": 21197, "traveltime": 0, "holidayTraveltime": 0}, {"Id": "1828", "pgp": 0, "GoBack": 1, "SID": 16713, "NameZh": "\u65d7\u5c71\u5317\u7ad9", "RouteId": 8074, "SeqNo": 5, "Terminal": 0, "DistrictId": 1, "Latitude": 22.896043, "Longitude": 120.483457, "IVRNo": 9142, "EXTVoiceNo": 11828, "traveltime": 0, "holidayTraveltime": 0}, {"Id": "0478", "pgp": 0, "GoBack": 1, "SID": 2448, "NameZh": "\u65d7\u5c71\u76e3\u7406\u7ad9", "RouteId": 8074, "SeqNo": 6, "Terminal": 0, "DistrictId": 1, "Latitude": 22.90059, "Longitude": 120.47939, "IVRNo": 2582, "EXTVoiceNo": 478, "traveltime": 0, "holidayTraveltime": 0}, {"Id": "1159", "pgp": 0, "GoBack": 1, "SID": 16715, "NameZh": "\u671d\u5929\u5bae(\u65d7\u6587\u8def)", "RouteId": 8074, "SeqNo": 7, "Terminal": 0, "DistrictId": 1, "Latitude": 22.904329, "Longitude": 120.479228, "IVRNo": 1159, "EXTVoiceNo": 1159, "traveltime": 0, "holidayTraveltime": 0}, {"Id": "2022", "pgp": 0, "GoBack": 1, "SID": 16716, "NameZh": "\u5dba\u9802", "RouteId": 8074, "SeqNo": 8, "Terminal": 0, "DistrictId": 1, "Latitude": 22.90826, "Longitude": 120.47456, "IVRNo": 9144, "EXTVoiceNo": 12022, "traveltime": 0, "holidayTraveltime": 0}, {"Id": "0355", "pgp": 0, "GoBack": 1, "SID": 16717, "NameZh": "\u77f3\u6e9d", "RouteId": 8074, "SeqNo": 9, "Terminal": 0, "DistrictId": 1, "Latitude": 22.911329, "Longitude": 120.466239, "IVRNo": 9116, "EXTVoiceNo": 20355, "traveltime": 0, "holidayTraveltime": 0}, {"Id": "0017", "pgp": 0, "GoBack": 1, "SID": 16718, "NameZh": "\u4e8c\u5c64\u6a4b", "RouteId": 8074, "SeqNo": 10, "Terminal": 0, "DistrictId": 1, "Latitude": 22.91712, "Longitude": 120.46231, "IVRNo": 9145, "EXTVoiceNo": 20017, "traveltime": 0, "holidayTraveltime": 0}, {"Id": "0895", "pgp": 0, "GoBack": 1, "SID": 16719, "NameZh": "\u8fb2\u6703(\u5167\u9580)", "RouteId": 8074, "SeqNo": 11, "Terminal": 0, "DistrictId": 1, "Latitude": 22.91737, "Longitude": 120.45692, "IVRNo": 895, "EXTVoiceNo": 895, "traveltime": 0, "holidayTraveltime": 0}, {"Id": "2117", "pgp": 0, "GoBack": 1, "SID": 16720, "NameZh": "\u89c0\u97f3\u4ead", "RouteId": 8074, "SeqNo": 12, "Terminal": 0, "DistrictId": 1, "Latitude": 22.91833, "Longitude": 120.45387, "IVRNo": 9147, "EXTVoiceNo": 12117, "traveltime": 0, "holidayTraveltime": 0}, {"Id": "0155", "pgp": 0, "GoBack": 1, "SID": 16721, "NameZh": "\u4e2d\u57d4", "RouteId": 8074, "SeqNo": 13, "Terminal": 0, "DistrictId": 1, "Latitude": 22.92002, "Longitude": 120.45116, "IVRNo": 9724, "EXTVoiceNo": 20155, "traveltime": 0, "holidayTraveltime": 0}, {"Id": "1217", "pgp": 0, "GoBack": 1, "SID": 16722, "NameZh": "\u5167\u9580\u570b\u4e2d", "RouteId": 8074, "SeqNo": 14, "Terminal": 0, "DistrictId": 1, "Latitude": 22.92253, "Longitude": 120.45337, "IVRNo": 10377, "EXTVoiceNo": 21217, "traveltime": 0, "holidayTraveltime": 0}, {"Id": "0156", "pgp": 0, "GoBack": 1, "SID": 16723, "NameZh": "\u4e2d\u57d4\u982d", "RouteId": 8074, "SeqNo": 15, "Terminal": 0, "DistrictId": 1, "Latitude": 22.92349, "Longitude": 120.45396, "IVRNo": 9149, "EXTVoiceNo": 20156, "traveltime": 0, "holidayTraveltime": 0}, {"Id": "1530", "pgp": 0, "GoBack": 1, "SID": 16724, "NameZh": "\u83dc\u516c\u5751", "RouteId": 8074, "SeqNo": 16, "Terminal": 0, "DistrictId": 1, "Latitude": 22.927358, "Longitude": 120.456747, "IVRNo": 11530, "EXTVoiceNo": 11530, "traveltime": 0, "holidayTraveltime": 0}, {"Id": "1221", "pgp": 0, "GoBack": 1, "SID": 16725, "NameZh": "\u5167\u57d4\u6a4b", "RouteId": 8074, "SeqNo": 17, "Terminal": 0, "DistrictId": 1, "Latitude": 22.93177, "Longitude": 120.45972, "IVRNo": 10381, "EXTVoiceNo": 21221, "traveltime": 0, "holidayTraveltime": 0}, {"Id": "1126", "pgp": 0, "GoBack": 1, "SID": 16726, "NameZh": "\u5341\u4e09\u7532", "RouteId": 8074, "SeqNo": 18, "Terminal": 0, "DistrictId": 1, "Latitude": 22.93676, "Longitude": 120.46151, "IVRNo": 10055, "EXTVoiceNo": 21126, "traveltime": 0, "holidayTraveltime": 0}, {"Id": "1216", "pgp": 0, "GoBack": 1, "SID": 16727, "NameZh": "\u5167\u9580\u570b\u5c0f", "RouteId": 8074, "SeqNo": 19, "Terminal": 0, "DistrictId": 1, "Latitude": 22.939569, "Longitude": 120.46144, "IVRNo": 10375, "EXTVoiceNo": 21216, "traveltime": 0, "holidayTraveltime": 0}, {"Id": "1218", "pgp": 0, "GoBack": 1, "SID": 16728, "NameZh": "\u5167\u9580\u5340\u516c\u6240", "RouteId": 8074, "SeqNo": 20, "Terminal": 0, "DistrictId": 1, "Latitude": 22.94167, "Longitude": 120.46239, "IVRNo": 896, "EXTVoiceNo": 21218, "traveltime": 0, "holidayTraveltime": 0}, {"Id": "1215", "pgp": 0, "GoBack": 1, "SID": 16729, "NameZh": "\u5167\u9580", "RouteId": 8074, "SeqNo": 21, "Terminal": 1, "DistrictId": 1, "Latitude": 22.94509, "Longitude": 120.4637, "IVRNo": 10373, "EXTVoiceNo": 21215, "traveltime": 0, "holidayTraveltime": 0}, {"Id": "1215", "pgp": 0, "GoBack": 2, "SID": 16764, "NameZh": "\u5167\u9580", "RouteId": 8074, "SeqNo": 1, "Terminal": 0, "DistrictId": 1, "Latitude": 22.94508, "Longitude": 120.46355, "IVRNo": 10373, "EXTVoiceNo": 21215, "traveltime": 0, "holidayTraveltime": 0}, {"Id": "1218", "pgp": 0, "GoBack": 2, "SID": 16765, "NameZh": "\u5167\u9580\u5340\u516c\u6240", "RouteId": 8074, "SeqNo": 2, "Terminal": 0, "DistrictId": 1, "Latitude": 22.94189, "Longitude": 120.46225, "IVRNo": 896, "EXTVoiceNo": 21218, "traveltime": 0, "holidayTraveltime": 0}, {"Id": "1216", "pgp": 0, "GoBack": 2, "SID": 16766, "NameZh": "\u5167\u9580\u570b\u5c0f", "RouteId": 8074, "SeqNo": 3, "Terminal": 0, "DistrictId": 1, "Latitude": 22.93956, "Longitude": 120.4613, "IVRNo": 10375, "EXTVoiceNo": 21216, "traveltime": 0, "holidayTraveltime": 0}, {"Id": "1126", "pgp": 0, "GoBack": 2, "SID": 16767, "NameZh": "\u5341\u4e09\u7532", "RouteId": 8074, "SeqNo": 4, "Terminal": 0, "DistrictId": 1, "Latitude": 22.93671, "Longitude": 120.46141, "IVRNo": 10055, "EXTVoiceNo": 21126, "traveltime": 0, "holidayTraveltime": 0}, {"Id": "1221", "pgp": 0, "GoBack": 2, "SID": 16768, "NameZh": "\u5167\u57d4\u6a4b", "RouteId": 8074, "SeqNo": 5, "Terminal": 0, "DistrictId": 1, "Latitude": 22.93141, "Longitude": 120.45939, "IVRNo": 10381, "EXTVoiceNo": 21221, "traveltime": 0, "holidayTraveltime": 0}, {"Id": "1530", "pgp": 0, "GoBack": 2, "SID": 16769, "NameZh": "\u83dc\u516c\u5751", "RouteId": 8074, "SeqNo": 6, "Terminal": 0, "DistrictId": 1, "Latitude": 22.92746, "Longitude": 120.4567, "IVRNo": 11530, "EXTVoiceNo": 11530, "traveltime": 0, "holidayTraveltime": 0}, {"Id": "0156", "pgp": 0, "GoBack": 2, "SID": 16770, "NameZh": "\u4e2d\u57d4\u982d", "RouteId": 8074, "SeqNo": 7, "Terminal": 0, "DistrictId": 1, "Latitude": 22.92357, "Longitude": 120.45393, "IVRNo": 9149, "EXTVoiceNo": 20156, "traveltime": 0, "holidayTraveltime": 0}, {"Id": "1217", "pgp": 0, "GoBack": 2, "SID": 16771, "NameZh": "\u5167\u9580\u570b\u4e2d", "RouteId": 8074, "SeqNo": 8, "Terminal": 0, "DistrictId": 1, "Latitude": 22.92239, "Longitude": 120.45319, "IVRNo": 10377, "EXTVoiceNo": 21217, "traveltime": 0, "holidayTraveltime": 0}, {"Id": "0155", "pgp": 0, "GoBack": 2, "SID": 16772, "NameZh": "\u4e2d\u57d4", "RouteId": 8074, "SeqNo": 9, "Terminal": 0, "DistrictId": 1, "Latitude": 22.92003, "Longitude": 120.45112, "IVRNo": 9724, "EXTVoiceNo": 20155, "traveltime": 0, "holidayTraveltime": 0}, {"Id": "2117", "pgp": 0, "GoBack": 2, "SID": 16773, "NameZh": "\u89c0\u97f3\u4ead", "RouteId": 8074, "SeqNo": 10, "Terminal": 0, "DistrictId": 1, "Latitude": 22.918242, "Longitude": 120.453839, "IVRNo": 9147, "EXTVoiceNo": 12117, "traveltime": 0, "holidayTraveltime": 0}, {"Id": "0895", "pgp": 0, "GoBack": 2, "SID": 16774, "NameZh": "\u8fb2\u6703(\u5167\u9580)", "RouteId": 8074, "SeqNo": 11, "Terminal": 0, "DistrictId": 1, "Latitude": 22.91721, "Longitude": 120.45712, "IVRNo": 895, "EXTVoiceNo": 895, "traveltime": 0, "holidayTraveltime": 0}, {"Id": "0017", "pgp": 0, "GoBack": 2, "SID": 16775, "NameZh": "\u4e8c\u5c64\u6a4b", "RouteId": 8074, "SeqNo": 12, "Terminal": 0, "DistrictId": 1, "Latitude": 22.91713, "Longitude": 120.46149, "IVRNo": 9145, "EXTVoiceNo": 20017, "traveltime": 0, "holidayTraveltime": 0}, {"Id": "0355", "pgp": 0, "GoBack": 2, "SID": 16776, "NameZh": "\u77f3\u6e9d", "RouteId": 8074, "SeqNo": 13, "Terminal": 0, "DistrictId": 1, "Latitude": 22.9112, "Longitude": 120.46606, "IVRNo": 9116, "EXTVoiceNo": 20355, "traveltime": 0, "holidayTraveltime": 0}, {"Id": "2022", "pgp": 0, "GoBack": 2, "SID": 16777, "NameZh": "\u5dba\u9802", "RouteId": 8074, "SeqNo": 14, "Terminal": 0, "DistrictId": 1, "Latitude": 22.906832, "Longitude": 120.475079, "IVRNo": 9144, "EXTVoiceNo": 12022, "traveltime": 0, "holidayTraveltime": 0}, {"Id": "1159", "pgp": 0, "GoBack": 2, "SID": 16778, "NameZh": "\u671d\u5929\u5bae(\u65d7\u6587\u8def)", "RouteId": 8074, "SeqNo": 15, "Terminal": 0, "DistrictId": 1, "Latitude": 22.903691, "Longitude": 120.479159, "IVRNo": 1159, "EXTVoiceNo": 1159, "traveltime": 0, "holidayTraveltime": 0}, {"Id": "0478", "pgp": 0, "GoBack": 2, "SID": 2653, "NameZh": "\u65d7\u5c71\u76e3\u7406\u7ad9", "RouteId": 8074, "SeqNo": 16, "Terminal": 0, "DistrictId": 1, "Latitude": 22.90052, "Longitude": 120.4791, "IVRNo": 2582, "EXTVoiceNo": 478, "traveltime": 0, "holidayTraveltime": 0}, {"Id": "1828", "pgp": 0, "GoBack": 2, "SID": 16780, "NameZh": "\u65d7\u5c71\u5317\u7ad9", "RouteId": 8074, "SeqNo": 17, "Terminal": 0, "DistrictId": 1, "Latitude": 22.896043, "Longitude": 120.483457, "IVRNo": 9142, "EXTVoiceNo": 11828, "traveltime": 0, "holidayTraveltime": 0}, {"Id": "1197", "pgp": 0, "GoBack": 2, "SID": 16781, "NameZh": "\u4e2d\u83ef\u8def\u53e3(\u65d7)", "RouteId": 8074, "SeqNo": 18, "Terminal": 0, "DistrictId": 1, "Latitude": 22.89268, "Longitude": 120.48355, "IVRNo": 1180, "EXTVoiceNo": 21197, "traveltime": 0, "holidayTraveltime": 0}, {"Id": "9374", "pgp": 0, "GoBack": 2, "SID": 2669, "NameZh": "\u65d7\u5c71\u5e02\u5834", "RouteId": 8074, "SeqNo": 19, "Terminal": 0, "DistrictId": 1, "Latitude": 22.8899, "Longitude": 120.48332, "IVRNo": 9953, "EXTVoiceNo": 9374, "traveltime": 0, "holidayTraveltime": 0}, {"Id": "9718", "pgp": 0, "GoBack": 2, "SID": 16783, "NameZh": "\u5ef6\u5e73\u8def(\u65d7\u5c71\u5340\u516c\u6240)", "RouteId": 8074, "SeqNo": 20, "Terminal": 0, "DistrictId": 1, "Latitude": 22.88762, "Longitude": 120.48313, "IVRNo": 9718, "EXTVoiceNo": 9718, "traveltime": 0, "holidayTraveltime": 0}, {"Id": "3412", "pgp": 0, "GoBack": 2, "SID": 16083, "NameZh": "\u65d7\u5c71\u8f49\u904b\u7ad9", "RouteId": 8074, "SeqNo": 21, "Terminal": 1, "DistrictId": 1, "Latitude": 22.883651, "Longitude": 120.484555, "IVRNo": 9717, "EXTVoiceNo": 13412, "traveltime": 0, "holidayTraveltime": 0}]}