{"en": [{"Id": "4613", "pgp": 0, "GoBack": 1, "SID": 14546, "NameZh": "Cijin Seaside resort", "RouteId": 1161, "SeqNo": 1, "Terminal": 0, "DistrictId": 1, "Latitude": 22.610237, "Longitude": 120.268143, "IVRNo": 4616, "EXTVoiceNo": 4613, "traveltime": 0, "holidayTraveltime": 0}, {"Id": "2370", "pgp": 0, "GoBack": 1, "SID": 18150, "NameZh": "Cijin Shell Museum", "RouteId": 1161, "SeqNo": 2, "Terminal": 0, "DistrictId": 1, "Latitude": 22.60254, "Longitude": 120.274679, "IVRNo": 18150, "EXTVoiceNo": 32370, "traveltime": 0, "holidayTraveltime": 0}, {"Id": "3260", "pgp": 0, "GoBack": 1, "SID": 2307, "NameZh": "Windmill Park", "RouteId": 1161, "SeqNo": 3, "Terminal": 0, "DistrictId": 1, "Latitude": 22.589894, "Longitude": 120.284576, "IVRNo": 3260, "EXTVoiceNo": 3260, "traveltime": 0, "holidayTraveltime": 0}, {"Id": "3220", "pgp": 0, "GoBack": 1, "SID": 6047, "NameZh": "Cijin Junior High School", "RouteId": 1161, "SeqNo": 4, "Terminal": 0, "DistrictId": 1, "Latitude": 22.588482, "Longitude": 120.285715, "IVRNo": 3220, "EXTVoiceNo": 3220, "traveltime": 0, "holidayTraveltime": 0}, {"Id": "3246", "pgp": 0, "GoBack": 1, "SID": 1814, "NameZh": "Da Shan Elementary School", "RouteId": 1161, "SeqNo": 5, "Terminal": 0, "DistrictId": 1, "Latitude": 22.587504, "Longitude": 120.288632, "IVRNo": 3246, "EXTVoiceNo": 3246, "traveltime": 0, "holidayTraveltime": 0}, {"Id": "3262", "pgp": 0, "GoBack": 1, "SID": 2616, "NameZh": "Museum of Marine Exploration Kaohsiung", "RouteId": 1161, "SeqNo": 6, "Terminal": 0, "DistrictId": 1, "Latitude": 22.588858, "Longitude": 120.288375, "IVRNo": 3262, "EXTVoiceNo": 3262, "traveltime": 0, "holidayTraveltime": 0}, {"Id": "3616", "pgp": 0, "GoBack": 1, "SID": 16084, "NameZh": "YM Museum of Marine Exploration (Cijin Port Parking Lot)", "RouteId": 1161, "SeqNo": 7, "Terminal": 0, "DistrictId": 1, "Latitude": 22.589423, "Longitude": 120.287514, "IVRNo": 9237, "EXTVoiceNo": 3616, "traveltime": 0, "holidayTraveltime": 0}, {"Id": "3600", "pgp": 0, "GoBack": 1, "SID": 2606, "NameZh": "Cijin Fishing Port", "RouteId": 1161, "SeqNo": 8, "Terminal": 0, "DistrictId": 1, "Latitude": 22.59045, "Longitude": 120.286783, "IVRNo": 3600, "EXTVoiceNo": 3600, "traveltime": 0, "holidayTraveltime": 0}, {"Id": "3244", "pgp": 0, "GoBack": 1, "SID": 18254, "NameZh": "Ci Jin Hospital (Cingjing Temple)", "RouteId": 1161, "SeqNo": 9, "Terminal": 0, "DistrictId": 1, "Latitude": 22.591173, "Longitude": 120.285392, "IVRNo": 3244, "EXTVoiceNo": 3244, "traveltime": 0, "holidayTraveltime": 0}, {"Id": "3243", "pgp": 0, "GoBack": 1, "SID": 18401, "NameZh": "Haising Kindergarten", "RouteId": 1161, "SeqNo": 10, "Terminal": 0, "DistrictId": 1, "Latitude": 22.592798, "Longitude": 120.283989, "IVRNo": 3243, "EXTVoiceNo": 3243, "traveltime": 0, "holidayTraveltime": 0}, {"Id": "3242", "pgp": 0, "GoBack": 1, "SID": 8143, "NameZh": "Rubber Plant", "RouteId": 1161, "SeqNo": 11, "Terminal": 0, "DistrictId": 1, "Latitude": 22.594766, "Longitude": 120.282435, "IVRNo": 3242, "EXTVoiceNo": 3242, "traveltime": 0, "holidayTraveltime": 0}, {"Id": "3240", "pgp": 0, "GoBack": 1, "SID": 8144, "NameZh": "Wusong", "RouteId": 1161, "SeqNo": 12, "Terminal": 0, "DistrictId": 1, "Latitude": 22.598423, "Longitude": 120.280184, "IVRNo": 3240, "EXTVoiceNo": 3240, "traveltime": 0, "holidayTraveltime": 0}, {"Id": "3239", "pgp": 0, "GoBack": 1, "SID": 8197, "NameZh": "Dingwusong", "RouteId": 1161, "SeqNo": 13, "Terminal": 0, "DistrictId": 1, "Latitude": 22.598423, "Longitude": 120.280184, "IVRNo": 3239, "EXTVoiceNo": 3239, "traveltime": 0, "holidayTraveltime": 0}, {"Id": "3238", "pgp": 0, "GoBack": 1, "SID": 8198, "NameZh": "Jhongjhou 3rd Rd.", "RouteId": 1161, "SeqNo": 14, "Terminal": 0, "DistrictId": 1, "Latitude": 22.601817, "Longitude": 120.276919, "IVRNo": 3238, "EXTVoiceNo": 3238, "traveltime": 0, "holidayTraveltime": 0}, {"Id": "3225", "pgp": 0, "GoBack": 1, "SID": 2261, "NameZh": "Telecom Office (Cijin)", "RouteId": 1161, "SeqNo": 15, "Terminal": 0, "DistrictId": 1, "Latitude": 22.603526, "Longitude": 120.27547, "IVRNo": 2323, "EXTVoiceNo": 3225, "traveltime": 0, "holidayTraveltime": 0}, {"Id": "3226", "pgp": 0, "GoBack": 1, "SID": 2262, "NameZh": "Jhongjhou Rd.", "RouteId": 1161, "SeqNo": 16, "Terminal": 0, "DistrictId": 1, "Latitude": 22.606152, "Longitude": 120.273712, "IVRNo": 3226, "EXTVoiceNo": 3226, "traveltime": 0, "holidayTraveltime": 0}, {"Id": "3227", "pgp": 0, "GoBack": 1, "SID": 2263, "NameZh": "Cijin Elementary School", "RouteId": 1161, "SeqNo": 17, "Terminal": 0, "DistrictId": 1, "Latitude": 22.608205, "Longitude": 120.272293, "IVRNo": 3227, "EXTVoiceNo": 3227, "traveltime": 0, "holidayTraveltime": 0}, {"Id": "8207", "pgp": 0, "GoBack": 1, "SID": 2264, "NameZh": "Community Center (Cijing District)", "RouteId": 1161, "SeqNo": 18, "Terminal": 0, "DistrictId": 1, "Latitude": 22.610581, "Longitude": 120.270886, "IVRNo": 1148, "EXTVoiceNo": 8207, "traveltime": 0, "holidayTraveltime": 0}, {"Id": "3229", "pgp": 0, "GoBack": 1, "SID": 18307, "NameZh": "Cijin Market", "RouteId": 1161, "SeqNo": 19, "Terminal": 0, "DistrictId": 1, "Latitude": 22.612199, "Longitude": 120.269749, "IVRNo": 3229, "EXTVoiceNo": 3229, "traveltime": 0, "holidayTraveltime": 0}, {"Id": "3230", "pgp": 0, "GoBack": 1, "SID": 2271, "NameZh": "Cijin Ferry Pier", "RouteId": 1161, "SeqNo": 20, "Terminal": 0, "DistrictId": 1, "Latitude": 22.613808, "Longitude": 120.269722, "IVRNo": 3230, "EXTVoiceNo": 3230, "traveltime": 0, "holidayTraveltime": 0}, {"Id": "3231", "pgp": 0, "GoBack": 1, "SID": 2272, "NameZh": "Cihou Light House", "RouteId": 1161, "SeqNo": 21, "Terminal": 0, "DistrictId": 1, "Latitude": 22.61437, "Longitude": 120.26724, "IVRNo": 3231, "EXTVoiceNo": 3231, "traveltime": 0, "holidayTraveltime": 0}, {"Id": "3232", "pgp": 0, "GoBack": 1, "SID": 2275, "NameZh": "Tianhou Temple (Tongshan Rd.)", "RouteId": 1161, "SeqNo": 22, "Terminal": 0, "DistrictId": 1, "Latitude": 22.61293, "Longitude": 120.26878, "IVRNo": 1165, "EXTVoiceNo": 3232, "traveltime": 0, "holidayTraveltime": 0}, {"Id": "3229", "pgp": 0, "GoBack": 1, "SID": 18348, "NameZh": "Cijin Market", "RouteId": 1161, "SeqNo": 23, "Terminal": 0, "DistrictId": 1, "Latitude": 22.612199, "Longitude": 120.269749, "IVRNo": 3229, "EXTVoiceNo": 3229, "traveltime": 0, "holidayTraveltime": 0}, {"Id": "4613", "pgp": 0, "GoBack": 1, "SID": 14581, "NameZh": "Cijin Seaside resort", "RouteId": 1161, "SeqNo": 24, "Terminal": 1, "DistrictId": 1, "Latitude": 22.610475, "Longitude": 120.268159, "IVRNo": 4616, "EXTVoiceNo": 4613, "traveltime": 0, "holidayTraveltime": 0}], "zh": [{"Id": "4613", "pgp": 0, "GoBack": 1, "SID": 14546, "NameZh": "\u65d7\u6d25\u6d77\u6c34\u6d74\u5834", "RouteId": 1161, "SeqNo": 1, "Terminal": 0, "DistrictId": 1, "Latitude": 22.610237, "Longitude": 120.268143, "IVRNo": 4616, "EXTVoiceNo": 4613, "traveltime": 0, "holidayTraveltime": 0}, {"Id": "2370", "pgp": 0, "GoBack": 1, "SID": 18150, "NameZh": "\u8c9d\u6bbc\u9928", "RouteId": 1161, "SeqNo": 2, "Terminal": 0, "DistrictId": 1, "Latitude": 22.60254, "Longitude": 120.274679, "IVRNo": 18150, "EXTVoiceNo": 32370, "traveltime": 0, "holidayTraveltime": 0}, {"Id": "3260", "pgp": 0, "GoBack": 1, "SID": 2307, "NameZh": "\u98a8\u8eca\u516c\u5712", "RouteId": 1161, "SeqNo": 3, "Terminal": 0, "DistrictId": 1, "Latitude": 22.589894, "Longitude": 120.284576, "IVRNo": 3260, "EXTVoiceNo": 3260, "traveltime": 0, "holidayTraveltime": 0}, {"Id": "3220", "pgp": 0, "GoBack": 1, "SID": 6047, "NameZh": "\u65d7\u6d25\u570b\u4e2d", "RouteId": 1161, "SeqNo": 4, "Terminal": 0, "DistrictId": 1, "Latitude": 22.588482, "Longitude": 120.285715, "IVRNo": 3220, "EXTVoiceNo": 3220, "traveltime": 0, "holidayTraveltime": 0}, {"Id": "3246", "pgp": 0, "GoBack": 1, "SID": 1814, "NameZh": "\u5927\u6c55\u570b\u5c0f", "RouteId": 1161, "SeqNo": 5, "Terminal": 0, "DistrictId": 1, "Latitude": 22.587504, "Longitude": 120.288632, "IVRNo": 3246, "EXTVoiceNo": 3246, "traveltime": 0, "holidayTraveltime": 0}, {"Id": "3262", "pgp": 0, "GoBack": 1, "SID": 2616, "NameZh": "\u6d77\u6d0b\u63a2\u7d22\u9928", "RouteId": 1161, "SeqNo": 6, "Terminal": 0, "DistrictId": 1, "Latitude": 22.588858, "Longitude": 120.288375, "IVRNo": 3262, "EXTVoiceNo": 3262, "traveltime": 0, "holidayTraveltime": 0}, {"Id": "3616", "pgp": 0, "GoBack": 1, "SID": 16084, "NameZh": "\u6d77\u6d0b\u63a2\u7d22\u9928(\u65d7\u6d25\u6f01\u6e2f\u505c\u8eca\u5834)", "RouteId": 1161, "SeqNo": 7, "Terminal": 0, "DistrictId": 1, "Latitude": 22.589423, "Longitude": 120.287514, "IVRNo": 9237, "EXTVoiceNo": 3616, "traveltime": 0, "holidayTraveltime": 0}, {"Id": "3600", "pgp": 0, "GoBack": 1, "SID": 2606, "NameZh": "\u65d7\u6d25\u6f01\u6e2f", "RouteId": 1161, "SeqNo": 8, "Terminal": 0, "DistrictId": 1, "Latitude": 22.59045, "Longitude": 120.286783, "IVRNo": 3600, "EXTVoiceNo": 3600, "traveltime": 0, "holidayTraveltime": 0}, {"Id": "3244", "pgp": 0, "GoBack": 1, "SID": 18254, "NameZh": "\u65d7\u6d25\u91ab\u9662(\u6e05\u975c\u5bfa)", "RouteId": 1161, "SeqNo": 9, "Terminal": 0, "DistrictId": 1, "Latitude": 22.591173, "Longitude": 120.285392, "IVRNo": 3244, "EXTVoiceNo": 3244, "traveltime": 0, "holidayTraveltime": 0}, {"Id": "3243", "pgp": 0, "GoBack": 1, "SID": 18401, "NameZh": "\u6d77\u661f\u5e7c\u7a1a\u5712", "RouteId": 1161, "SeqNo": 10, "Terminal": 0, "DistrictId": 1, "Latitude": 22.592798, "Longitude": 120.283989, "IVRNo": 3243, "EXTVoiceNo": 3243, "traveltime": 0, "holidayTraveltime": 0}, {"Id": "3242", "pgp": 0, "GoBack": 1, "SID": 8143, "NameZh": "\u6a61\u81a0\u5ee0", "RouteId": 1161, "SeqNo": 11, "Terminal": 0, "DistrictId": 1, "Latitude": 22.594766, "Longitude": 120.282435, "IVRNo": 3242, "EXTVoiceNo": 3242, "traveltime": 0, "holidayTraveltime": 0}, {"Id": "3240", "pgp": 0, "GoBack": 1, "SID": 8144, "NameZh": "\u70cf\u677e", "RouteId": 1161, "SeqNo": 12, "Terminal": 0, "DistrictId": 1, "Latitude": 22.598423, "Longitude": 120.280184, "IVRNo": 3240, "EXTVoiceNo": 3240, "traveltime": 0, "holidayTraveltime": 0}, {"Id": "3239", "pgp": 0, "GoBack": 1, "SID": 8197, "NameZh": "\u9802\u70cf\u677e", "RouteId": 1161, "SeqNo": 13, "Terminal": 0, "DistrictId": 1, "Latitude": 22.598423, "Longitude": 120.280184, "IVRNo": 3239, "EXTVoiceNo": 3239, "traveltime": 0, "holidayTraveltime": 0}, {"Id": "3238", "pgp": 0, "GoBack": 1, "SID": 8198, "NameZh": "\u4e2d\u6d32\u4e09\u8def", "RouteId": 1161, "SeqNo": 14, "Terminal": 0, "DistrictId": 1, "Latitude": 22.601817, "Longitude": 120.276919, "IVRNo": 3238, "EXTVoiceNo": 3238, "traveltime": 0, "holidayTraveltime": 0}, {"Id": "3225", "pgp": 0, "GoBack": 1, "SID": 2261, "NameZh": "\u96fb\u4fe1\u5c40(\u65d7\u6d25)", "RouteId": 1161, "SeqNo": 15, "Terminal": 0, "DistrictId": 1, "Latitude": 22.603526, "Longitude": 120.27547, "IVRNo": 2323, "EXTVoiceNo": 3225, "traveltime": 0, "holidayTraveltime": 0}, {"Id": "3226", "pgp": 0, "GoBack": 1, "SID": 2262, "NameZh": "\u4e2d\u6d32\u8def", "RouteId": 1161, "SeqNo": 16, "Terminal": 0, "DistrictId": 1, "Latitude": 22.606152, "Longitude": 120.273712, "IVRNo": 3226, "EXTVoiceNo": 3226, "traveltime": 0, "holidayTraveltime": 0}, {"Id": "3227", "pgp": 0, "GoBack": 1, "SID": 2263, "NameZh": "\u65d7\u6d25\u570b\u5c0f", "RouteId": 1161, "SeqNo": 17, "Terminal": 0, "DistrictId": 1, "Latitude": 22.608205, "Longitude": 120.272293, "IVRNo": 3227, "EXTVoiceNo": 3227, "traveltime": 0, "holidayTraveltime": 0}, {"Id": "8207", "pgp": 0, "GoBack": 1, "SID": 2264, "NameZh": "\u6d3b\u52d5\u4e2d\u5fc3(\u65d7\u6d25\u5340)", "RouteId": 1161, "SeqNo": 18, "Terminal": 0, "DistrictId": 1, "Latitude": 22.610581, "Longitude": 120.270886, "IVRNo": 1148, "EXTVoiceNo": 8207, "traveltime": 0, "holidayTraveltime": 0}, {"Id": "3229", "pgp": 0, "GoBack": 1, "SID": 18307, "NameZh": "\u65d7\u6d25\u5e02\u5834", "RouteId": 1161, "SeqNo": 19, "Terminal": 0, "DistrictId": 1, "Latitude": 22.612199, "Longitude": 120.269749, "IVRNo": 3229, "EXTVoiceNo": 3229, "traveltime": 0, "holidayTraveltime": 0}, {"Id": "3230", "pgp": 0, "GoBack": 1, "SID": 2271, "NameZh": "\u65d7\u6d25\u8f2a\u6e21\u7ad9", "RouteId": 1161, "SeqNo": 20, "Terminal": 0, "DistrictId": 1, "Latitude": 22.613808, "Longitude": 120.269722, "IVRNo": 3230, "EXTVoiceNo": 3230, "traveltime": 0, "holidayTraveltime": 0}, {"Id": "3231", "pgp": 0, "GoBack": 1, "SID": 2272, "NameZh": "\u65d7\u540e\u71c8\u5854", "RouteId": 1161, "SeqNo": 21, "Terminal": 0, "DistrictId": 1, "Latitude": 22.61437, "Longitude": 120.26724, "IVRNo": 3231, "EXTVoiceNo": 3231, "traveltime": 0, "holidayTraveltime": 0}, {"Id": "3232", "pgp": 0, "GoBack": 1, "SID": 2275, "NameZh": "\u5929\u540e\u5bae(\u901a\u5c71\u8def)", "RouteId": 1161, "SeqNo": 22, "Terminal": 0, "DistrictId": 1, "Latitude": 22.61293, "Longitude": 120.26878, "IVRNo": 1165, "EXTVoiceNo": 3232, "traveltime": 0, "holidayTraveltime": 0}, {"Id": "3229", "pgp": 0, "GoBack": 1, "SID": 18348, "NameZh": "\u65d7\u6d25\u5e02\u5834", "RouteId": 1161, "SeqNo": 23, "Terminal": 0, "DistrictId": 1, "Latitude": 22.612199, "Longitude": 120.269749, "IVRNo": 3229, "EXTVoiceNo": 3229, "traveltime": 0, "holidayTraveltime": 0}, {"Id": "4613", "pgp": 0, "GoBack": 1, "SID": 14581, "NameZh": "\u65d7\u6d25\u6d77\u6c34\u6d74\u5834", "RouteId": 1161, "SeqNo": 24, "Terminal": 1, "DistrictId": 1, "Latitude": 22.610475, "Longitude": 120.268159, "IVRNo": 4616, "EXTVoiceNo": 4613, "traveltime": 0, "holidayTraveltime": 0}]}