{"en": [{"Id": "8930", "pgp": 0, "GoBack": 1, "SID": 1141, "NameZh": "MRT Caoya Station", "RouteId": 510, "SeqNo": 1, "Terminal": 0, "DistrictId": 1, "Latitude": 22.57949, "Longitude": 120.327696, "IVRNo": 2064, "EXTVoiceNo": 8930, "traveltime": 0, "holidayTraveltime": 0}, {"Id": "2031", "pgp": 0, "GoBack": 1, "SID": 1053, "NameZh": "Caoya", "RouteId": 510, "SeqNo": 2, "Terminal": 0, "DistrictId": 1, "Latitude": 22.577058, "Longitude": 120.323756, "IVRNo": 2031, "EXTVoiceNo": 2031, "traveltime": 0, "holidayTraveltime": 0}, {"Id": "2032", "pgp": 0, "GoBack": 1, "SID": 1057, "NameZh": "Caoya Market", "RouteId": 510, "SeqNo": 3, "Terminal": 0, "DistrictId": 1, "Latitude": 22.578575, "Longitude": 120.322445, "IVRNo": 2032, "EXTVoiceNo": 2032, "traveltime": 0, "holidayTraveltime": 0}, {"Id": "2033", "pgp": 0, "GoBack": 1, "SID": 1061, "NameZh": "North Caoya", "RouteId": 510, "SeqNo": 4, "Terminal": 0, "DistrictId": 1, "Latitude": 22.580586, "Longitude": 120.322929, "IVRNo": 2033, "EXTVoiceNo": 2033, "traveltime": 0, "holidayTraveltime": 0}, {"Id": "2034", "pgp": 0, "GoBack": 1, "SID": 1062, "NameZh": "Cianjhen Junior High School", "RouteId": 510, "SeqNo": 5, "Terminal": 0, "DistrictId": 1, "Latitude": 22.58362, "Longitude": 120.322271, "IVRNo": 2034, "EXTVoiceNo": 2034, "traveltime": 0, "holidayTraveltime": 0}, {"Id": "2709", "pgp": 0, "GoBack": 1, "SID": 1126, "NameZh": "MRT Cianjhen Senior High School Station (Labor Administration Center )", "RouteId": 510, "SeqNo": 6, "Terminal": 0, "DistrictId": 1, "Latitude": 22.587664, "Longitude": 120.322362, "IVRNo": 2521, "EXTVoiceNo": 2709, "traveltime": 0, "holidayTraveltime": 0}, {"Id": "0758", "pgp": 0, "GoBack": 1, "SID": 7887, "NameZh": "Fu Cheng Senior High School", "RouteId": 510, "SeqNo": 7, "Terminal": 0, "DistrictId": 1, "Latitude": 22.59, "Longitude": 120.32431, "IVRNo": 585, "EXTVoiceNo": 758, "traveltime": 0, "holidayTraveltime": 0}, {"Id": "0759", "pgp": 0, "GoBack": 1, "SID": 7886, "NameZh": "Yaguang 3rd. Village", "RouteId": 510, "SeqNo": 8, "Terminal": 0, "DistrictId": 1, "Latitude": 22.59238, "Longitude": 120.32693, "IVRNo": 756, "EXTVoiceNo": 759, "traveltime": 0, "holidayTraveltime": 0}, {"Id": "1108", "pgp": 0, "GoBack": 1, "SID": 7884, "NameZh": "Wujia", "RouteId": 510, "SeqNo": 9, "Terminal": 0, "DistrictId": 1, "Latitude": 22.592884, "Longitude": 120.327763, "IVRNo": 1108, "EXTVoiceNo": 1108, "traveltime": 0, "holidayTraveltime": 0}, {"Id": "1107", "pgp": 0, "GoBack": 1, "SID": 7885, "NameZh": "Sieshan Hall", "RouteId": 510, "SeqNo": 10, "Terminal": 0, "DistrictId": 1, "Latitude": 22.59415, "Longitude": 120.32953, "IVRNo": 1107, "EXTVoiceNo": 1107, "traveltime": 0, "holidayTraveltime": 0}, {"Id": "1106", "pgp": 0, "GoBack": 1, "SID": 8653, "NameZh": "Wujia Market", "RouteId": 510, "SeqNo": 11, "Terminal": 0, "DistrictId": 1, "Latitude": 22.59571, "Longitude": 120.3316, "IVRNo": 1106, "EXTVoiceNo": 1106, "traveltime": 0, "holidayTraveltime": 0}, {"Id": "1105", "pgp": 0, "GoBack": 1, "SID": 7883, "NameZh": "Wujia Farmers` Association", "RouteId": 510, "SeqNo": 12, "Terminal": 0, "DistrictId": 1, "Latitude": 22.59656, "Longitude": 120.33363, "IVRNo": 1105, "EXTVoiceNo": 1105, "traveltime": 0, "holidayTraveltime": 0}, {"Id": "1104", "pgp": 0, "GoBack": 1, "SID": 18266, "NameZh": "Wujia Police Station", "RouteId": 510, "SeqNo": 13, "Terminal": 0, "DistrictId": 1, "Latitude": 22.59751, "Longitude": 120.33528, "IVRNo": 1104, "EXTVoiceNo": 1104, "traveltime": 0, "holidayTraveltime": 0}, {"Id": "0174", "pgp": 0, "GoBack": 1, "SID": 7882, "NameZh": "Wujia Elementary School", "RouteId": 510, "SeqNo": 14, "Terminal": 0, "DistrictId": 1, "Latitude": 22.59838, "Longitude": 120.33645, "IVRNo": 755, "EXTVoiceNo": 20174, "traveltime": 0, "holidayTraveltime": 0}, {"Id": "1103", "pgp": 0, "GoBack": 1, "SID": 8078, "NameZh": "Yijia (Fongshan)", "RouteId": 510, "SeqNo": 15, "Terminal": 0, "DistrictId": 1, "Latitude": 22.600062, "Longitude": 120.338694, "IVRNo": 9319, "EXTVoiceNo": 1103, "traveltime": 0, "holidayTraveltime": 0}, {"Id": "1113", "pgp": 0, "GoBack": 1, "SID": 15905, "NameZh": "Cheng Yi Senior High School", "RouteId": 510, "SeqNo": 16, "Terminal": 0, "DistrictId": 1, "Latitude": 22.6011, "Longitude": 120.34016, "IVRNo": 9318, "EXTVoiceNo": 1113, "traveltime": 0, "holidayTraveltime": 0}, {"Id": "0075", "pgp": 0, "GoBack": 1, "SID": 17957, "NameZh": "Laoye Village", "RouteId": 510, "SeqNo": 17, "Terminal": 0, "DistrictId": 1, "Latitude": 22.603895, "Longitude": 120.344347, "IVRNo": 75, "EXTVoiceNo": 75, "traveltime": 0, "holidayTraveltime": 0}, {"Id": "0866", "pgp": 0, "GoBack": 1, "SID": 12329, "NameZh": "Rueilong E. Rd. Intersection (Nanjing Rd.)", "RouteId": 510, "SeqNo": 18, "Terminal": 0, "DistrictId": 1, "Latitude": 22.60621, "Longitude": 120.34588, "IVRNo": 754, "EXTVoiceNo": 20866, "traveltime": 0, "holidayTraveltime": 0}, {"Id": "9131", "pgp": 0, "GoBack": 1, "SID": 17339, "NameZh": "Feng-Hsin Senior High School (Nanjing Rd.)", "RouteId": 510, "SeqNo": 19, "Terminal": 0, "DistrictId": 1, "Latitude": 22.61334, "Longitude": 120.34567, "IVRNo": 9137, "EXTVoiceNo": 9131, "traveltime": 0, "holidayTraveltime": 0}, {"Id": "1085", "pgp": 0, "GoBack": 1, "SID": 17507, "NameZh": "Nanjing Rd. (Wei Wu Ying Center for the Arts)", "RouteId": 510, "SeqNo": 20, "Terminal": 0, "DistrictId": 1, "Latitude": 22.617789, "Longitude": 120.3457, "IVRNo": 642, "EXTVoiceNo": 21085, "traveltime": 0, "holidayTraveltime": 0}, {"Id": "0145", "pgp": 0, "GoBack": 1, "SID": 18259, "NameZh": "Kaohsiung Armed Forces General Hospital (MRT Weiwuying Station)", "RouteId": 510, "SeqNo": 21, "Terminal": 0, "DistrictId": 1, "Latitude": 22.625427, "Longitude": 120.340362, "IVRNo": 51, "EXTVoiceNo": 145, "traveltime": 0, "holidayTraveltime": 0}, {"Id": "0003", "pgp": 0, "GoBack": 1, "SID": 3523, "NameZh": "Jhongjheng Senior High school", "RouteId": 510, "SeqNo": 22, "Terminal": 0, "DistrictId": 1, "Latitude": 22.626183, "Longitude": 120.338283, "IVRNo": 3, "EXTVoiceNo": 3, "traveltime": 0, "holidayTraveltime": 0}, {"Id": "7602", "pgp": 0, "GoBack": 1, "SID": 14552, "NameZh": "E-Da Hospital", "RouteId": 510, "SeqNo": 23, "Terminal": 0, "DistrictId": 1, "Latitude": 22.76495, "Longitude": 120.36415, "IVRNo": 7126, "EXTVoiceNo": 7602, "traveltime": 0, "holidayTraveltime": 0}, {"Id": "9111", "pgp": 0, "GoBack": 1, "SID": 7313, "NameZh": "Kaohsiung Detention Center", "RouteId": 510, "SeqNo": 24, "Terminal": 0, "DistrictId": 1, "Latitude": 22.76131, "Longitude": 120.36909, "IVRNo": 7614, "EXTVoiceNo": 9111, "traveltime": 0, "holidayTraveltime": 0}, {"Id": "9208", "pgp": 0, "GoBack": 1, "SID": 18231, "NameZh": "Main Entrance to Shu-Te University", "RouteId": 510, "SeqNo": 25, "Terminal": 0, "DistrictId": 1, "Latitude": 22.764895, "Longitude": 120.375167, "IVRNo": 9759, "EXTVoiceNo": 9208, "traveltime": 0, "holidayTraveltime": 0}, {"Id": "9996", "pgp": 0, "GoBack": 1, "SID": 7320, "NameZh": "Jhuci (National Kaohsiung University of Science and Technology, Yanchao)", "RouteId": 510, "SeqNo": 26, "Terminal": 0, "DistrictId": 1, "Latitude": 22.77233, "Longitude": 120.40123, "IVRNo": 713, "EXTVoiceNo": 19996, "traveltime": 0, "holidayTraveltime": 0}, {"Id": "2363", "pgp": 0, "GoBack": 1, "SID": 18326, "NameZh": "NKNU, Yanchao Campus (Gueiyanshihchao)", "RouteId": 510, "SeqNo": 27, "Terminal": 1, "DistrictId": 1, "Latitude": 22.786881, "Longitude": 120.404642, "IVRNo": 5191, "EXTVoiceNo": 32363, "traveltime": 0, "holidayTraveltime": 0}, {"Id": "2363", "pgp": 0, "GoBack": 2, "SID": 18329, "NameZh": "NKNU, Yanchao Campus (Gueiyanshihchao)", "RouteId": 510, "SeqNo": 1, "Terminal": 0, "DistrictId": 1, "Latitude": 22.786796, "Longitude": 120.404717, "IVRNo": 5191, "EXTVoiceNo": 32363, "traveltime": 0, "holidayTraveltime": 0}, {"Id": "9996", "pgp": 0, "GoBack": 2, "SID": 7228, "NameZh": "Jhuci (National Kaohsiung University of Science and Technology, Yanchao)", "RouteId": 510, "SeqNo": 2, "Terminal": 0, "DistrictId": 1, "Latitude": 22.77251, "Longitude": 120.40142, "IVRNo": 713, "EXTVoiceNo": 19996, "traveltime": 0, "holidayTraveltime": 0}, {"Id": "9208", "pgp": 0, "GoBack": 2, "SID": 18232, "NameZh": "Main Entrance to Shu-Te University", "RouteId": 510, "SeqNo": 3, "Terminal": 0, "DistrictId": 1, "Latitude": 22.764811, "Longitude": 120.374686, "IVRNo": 9759, "EXTVoiceNo": 9208, "traveltime": 0, "holidayTraveltime": 0}, {"Id": "9111", "pgp": 0, "GoBack": 2, "SID": 7235, "NameZh": "Kaohsiung Detention Center", "RouteId": 510, "SeqNo": 4, "Terminal": 0, "DistrictId": 1, "Latitude": 22.76158, "Longitude": 120.36913, "IVRNo": 7614, "EXTVoiceNo": 9111, "traveltime": 0, "holidayTraveltime": 0}, {"Id": "7602", "pgp": 0, "GoBack": 2, "SID": 14574, "NameZh": "E-Da Hospital", "RouteId": 510, "SeqNo": 5, "Terminal": 0, "DistrictId": 1, "Latitude": 22.76495, "Longitude": 120.36415, "IVRNo": 7126, "EXTVoiceNo": 7602, "traveltime": 0, "holidayTraveltime": 0}, {"Id": "0003", "pgp": 0, "GoBack": 2, "SID": 3524, "NameZh": "Jhongjheng Senior High school", "RouteId": 510, "SeqNo": 6, "Terminal": 0, "DistrictId": 1, "Latitude": 22.626135, "Longitude": 120.337789, "IVRNo": 3, "EXTVoiceNo": 3, "traveltime": 0, "holidayTraveltime": 0}, {"Id": "0145", "pgp": 0, "GoBack": 2, "SID": 18396, "NameZh": "Kaohsiung Armed Forces General Hospital (MRT Weiwuying Station)", "RouteId": 510, "SeqNo": 7, "Terminal": 0, "DistrictId": 1, "Latitude": 22.625498, "Longitude": 120.339705, "IVRNo": 51, "EXTVoiceNo": 145, "traveltime": 0, "holidayTraveltime": 0}, {"Id": "1085", "pgp": 0, "GoBack": 2, "SID": 17522, "NameZh": "Nanjing Rd. (Wei Wu Ying Center for the Arts)", "RouteId": 510, "SeqNo": 8, "Terminal": 0, "DistrictId": 1, "Latitude": 22.617774, "Longitude": 120.345464, "IVRNo": 642, "EXTVoiceNo": 21085, "traveltime": 0, "holidayTraveltime": 0}, {"Id": "9131", "pgp": 0, "GoBack": 2, "SID": 17408, "NameZh": "Feng-Hsin Senior High School (Nanjing Rd.)", "RouteId": 510, "SeqNo": 9, "Terminal": 0, "DistrictId": 1, "Latitude": 22.61379, "Longitude": 120.3455, "IVRNo": 9137, "EXTVoiceNo": 9131, "traveltime": 0, "holidayTraveltime": 0}, {"Id": "0866", "pgp": 0, "GoBack": 2, "SID": 12333, "NameZh": "Rueilong E. Rd. Intersection (Nanjing Rd.)", "RouteId": 510, "SeqNo": 10, "Terminal": 0, "DistrictId": 1, "Latitude": 22.60604, "Longitude": 120.34565, "IVRNo": 754, "EXTVoiceNo": 20866, "traveltime": 0, "holidayTraveltime": 0}, {"Id": "0075", "pgp": 0, "GoBack": 2, "SID": 18239, "NameZh": "Laoye Village", "RouteId": 510, "SeqNo": 11, "Terminal": 0, "DistrictId": 1, "Latitude": 22.603954, "Longitude": 120.344237, "IVRNo": 75, "EXTVoiceNo": 75, "traveltime": 0, "holidayTraveltime": 0}, {"Id": "1113", "pgp": 0, "GoBack": 2, "SID": 16089, "NameZh": "Cheng Yi Senior High School", "RouteId": 510, "SeqNo": 12, "Terminal": 0, "DistrictId": 1, "Latitude": 22.601333, "Longitude": 120.34027, "IVRNo": 9318, "EXTVoiceNo": 1113, "traveltime": 0, "holidayTraveltime": 0}, {"Id": "1103", "pgp": 0, "GoBack": 2, "SID": 7881, "NameZh": "Yijia (Fongshan)", "RouteId": 510, "SeqNo": 13, "Terminal": 0, "DistrictId": 1, "Latitude": 22.600247, "Longitude": 120.338658, "IVRNo": 9319, "EXTVoiceNo": 1103, "traveltime": 0, "holidayTraveltime": 0}, {"Id": "0174", "pgp": 0, "GoBack": 2, "SID": 8077, "NameZh": "Wujia Elementary School", "RouteId": 510, "SeqNo": 14, "Terminal": 0, "DistrictId": 1, "Latitude": 22.598406, "Longitude": 120.336295, "IVRNo": 755, "EXTVoiceNo": 20174, "traveltime": 0, "holidayTraveltime": 0}, {"Id": "1104", "pgp": 0, "GoBack": 2, "SID": 18389, "NameZh": "Wujia Police Station", "RouteId": 510, "SeqNo": 15, "Terminal": 0, "DistrictId": 1, "Latitude": 22.5976, "Longitude": 120.33524, "IVRNo": 1104, "EXTVoiceNo": 1104, "traveltime": 0, "holidayTraveltime": 0}, {"Id": "1105", "pgp": 0, "GoBack": 2, "SID": 8076, "NameZh": "Wujia Farmers` Association", "RouteId": 510, "SeqNo": 16, "Terminal": 0, "DistrictId": 1, "Latitude": 22.596436, "Longitude": 120.333116, "IVRNo": 1105, "EXTVoiceNo": 1105, "traveltime": 0, "holidayTraveltime": 0}, {"Id": "1106", "pgp": 0, "GoBack": 2, "SID": 8668, "NameZh": "Wujia Market", "RouteId": 510, "SeqNo": 17, "Terminal": 0, "DistrictId": 1, "Latitude": 22.59583, "Longitude": 120.33161, "IVRNo": 1106, "EXTVoiceNo": 1106, "traveltime": 0, "holidayTraveltime": 0}, {"Id": "1107", "pgp": 0, "GoBack": 2, "SID": 8074, "NameZh": "Sieshan Hall", "RouteId": 510, "SeqNo": 18, "Terminal": 0, "DistrictId": 1, "Latitude": 22.594152, "Longitude": 120.329366, "IVRNo": 1107, "EXTVoiceNo": 1107, "traveltime": 0, "holidayTraveltime": 0}, {"Id": "1108", "pgp": 0, "GoBack": 2, "SID": 8075, "NameZh": "Wujia", "RouteId": 510, "SeqNo": 19, "Terminal": 0, "DistrictId": 1, "Latitude": 22.5929, "Longitude": 120.3276, "IVRNo": 1108, "EXTVoiceNo": 1108, "traveltime": 0, "holidayTraveltime": 0}, {"Id": "0759", "pgp": 0, "GoBack": 2, "SID": 8073, "NameZh": "Yaguang 3rd. Village", "RouteId": 510, "SeqNo": 20, "Terminal": 0, "DistrictId": 1, "Latitude": 22.59203, "Longitude": 120.32663, "IVRNo": 756, "EXTVoiceNo": 759, "traveltime": 0, "holidayTraveltime": 0}, {"Id": "0758", "pgp": 0, "GoBack": 2, "SID": 8072, "NameZh": "Fu Cheng Senior High School", "RouteId": 510, "SeqNo": 21, "Terminal": 0, "DistrictId": 1, "Latitude": 22.59035, "Longitude": 120.32445, "IVRNo": 585, "EXTVoiceNo": 758, "traveltime": 0, "holidayTraveltime": 0}, {"Id": "2709", "pgp": 0, "GoBack": 2, "SID": 1970, "NameZh": "MRT Cianjhen Senior High School Station (Labor Administration Center )", "RouteId": 510, "SeqNo": 22, "Terminal": 0, "DistrictId": 1, "Latitude": 22.587954, "Longitude": 120.321752, "IVRNo": 2521, "EXTVoiceNo": 2709, "traveltime": 0, "holidayTraveltime": 0}, {"Id": "2760", "pgp": 0, "GoBack": 2, "SID": 1999, "NameZh": "Mingjheng Community", "RouteId": 510, "SeqNo": 23, "Terminal": 0, "DistrictId": 1, "Latitude": 22.583015, "Longitude": 120.326083, "IVRNo": 2707, "EXTVoiceNo": 2760, "traveltime": 0, "holidayTraveltime": 0}, {"Id": "2761", "pgp": 0, "GoBack": 2, "SID": 2000, "NameZh": "Ming Jheng Elementary School (MRT Caoya Station)", "RouteId": 510, "SeqNo": 24, "Terminal": 1, "DistrictId": 1, "Latitude": 22.581139, "Longitude": 120.327655, "IVRNo": 2706, "EXTVoiceNo": 2761, "traveltime": 0, "holidayTraveltime": 0}], "zh": [{"Id": "8930", "pgp": 0, "GoBack": 1, "SID": 1141, "NameZh": "\u6377\u904b\u8349\u8859\u7ad9", "RouteId": 510, "SeqNo": 1, "Terminal": 0, "DistrictId": 1, "Latitude": 22.57949, "Longitude": 120.327696, "IVRNo": 2064, "EXTVoiceNo": 8930, "traveltime": 0, "holidayTraveltime": 0}, {"Id": "2031", "pgp": 0, "GoBack": 1, "SID": 1053, "NameZh": "\u8349\u8859", "RouteId": 510, "SeqNo": 2, "Terminal": 0, "DistrictId": 1, "Latitude": 22.577058, "Longitude": 120.323756, "IVRNo": 2031, "EXTVoiceNo": 2031, "traveltime": 0, "holidayTraveltime": 0}, {"Id": "2032", "pgp": 0, "GoBack": 1, "SID": 1057, "NameZh": "\u8349\u8859\u5e02\u5834", "RouteId": 510, "SeqNo": 3, "Terminal": 0, "DistrictId": 1, "Latitude": 22.578575, "Longitude": 120.322445, "IVRNo": 2032, "EXTVoiceNo": 2032, "traveltime": 0, "holidayTraveltime": 0}, {"Id": "2033", "pgp": 0, "GoBack": 1, "SID": 1061, "NameZh": "\u5317\u8349\u8859", "RouteId": 510, "SeqNo": 4, "Terminal": 0, "DistrictId": 1, "Latitude": 22.580586, "Longitude": 120.322929, "IVRNo": 2033, "EXTVoiceNo": 2033, "traveltime": 0, "holidayTraveltime": 0}, {"Id": "2034", "pgp": 0, "GoBack": 1, "SID": 1062, "NameZh": "\u524d\u93ae\u570b\u4e2d", "RouteId": 510, "SeqNo": 5, "Terminal": 0, "DistrictId": 1, "Latitude": 22.58362, "Longitude": 120.322271, "IVRNo": 2034, "EXTVoiceNo": 2034, "traveltime": 0, "holidayTraveltime": 0}, {"Id": "2709", "pgp": 0, "GoBack": 1, "SID": 1126, "NameZh": "\u6377\u904b\u524d\u93ae\u9ad8\u4e2d\u7ad9(\u52de\u5de5\u884c\u653f\u4e2d\u5fc3)", "RouteId": 510, "SeqNo": 6, "Terminal": 0, "DistrictId": 1, "Latitude": 22.587664, "Longitude": 120.322362, "IVRNo": 2521, "EXTVoiceNo": 2709, "traveltime": 0, "holidayTraveltime": 0}, {"Id": "0758", "pgp": 0, "GoBack": 1, "SID": 7887, "NameZh": "\u798f\u8aa0\u9ad8\u4e2d", "RouteId": 510, "SeqNo": 7, "Terminal": 0, "DistrictId": 1, "Latitude": 22.59, "Longitude": 120.32431, "IVRNo": 585, "EXTVoiceNo": 758, "traveltime": 0, "holidayTraveltime": 0}, {"Id": "0759", "pgp": 0, "GoBack": 1, "SID": 7886, "NameZh": "\u930f\u5149\u4e09\u6751", "RouteId": 510, "SeqNo": 8, "Terminal": 0, "DistrictId": 1, "Latitude": 22.59238, "Longitude": 120.32693, "IVRNo": 756, "EXTVoiceNo": 759, "traveltime": 0, "holidayTraveltime": 0}, {"Id": "1108", "pgp": 0, "GoBack": 1, "SID": 7884, "NameZh": "\u4e94\u7532", "RouteId": 510, "SeqNo": 9, "Terminal": 0, "DistrictId": 1, "Latitude": 22.592884, "Longitude": 120.327763, "IVRNo": 1108, "EXTVoiceNo": 1108, "traveltime": 0, "holidayTraveltime": 0}, {"Id": "1107", "pgp": 0, "GoBack": 1, "SID": 7885, "NameZh": "\u5354\u5584\u5802", "RouteId": 510, "SeqNo": 10, "Terminal": 0, "DistrictId": 1, "Latitude": 22.59415, "Longitude": 120.32953, "IVRNo": 1107, "EXTVoiceNo": 1107, "traveltime": 0, "holidayTraveltime": 0}, {"Id": "1106", "pgp": 0, "GoBack": 1, "SID": 8653, "NameZh": "\u4e94\u7532\u5e02\u5834", "RouteId": 510, "SeqNo": 11, "Terminal": 0, "DistrictId": 1, "Latitude": 22.59571, "Longitude": 120.3316, "IVRNo": 1106, "EXTVoiceNo": 1106, "traveltime": 0, "holidayTraveltime": 0}, {"Id": "1105", "pgp": 0, "GoBack": 1, "SID": 7883, "NameZh": "\u4e94\u7532\u8fb2\u6703", "RouteId": 510, "SeqNo": 12, "Terminal": 0, "DistrictId": 1, "Latitude": 22.59656, "Longitude": 120.33363, "IVRNo": 1105, "EXTVoiceNo": 1105, "traveltime": 0, "holidayTraveltime": 0}, {"Id": "1104", "pgp": 0, "GoBack": 1, "SID": 18266, "NameZh": "\u4e94\u7532\u6d3e\u51fa\u6240", "RouteId": 510, "SeqNo": 13, "Terminal": 0, "DistrictId": 1, "Latitude": 22.59751, "Longitude": 120.33528, "IVRNo": 1104, "EXTVoiceNo": 1104, "traveltime": 0, "holidayTraveltime": 0}, {"Id": "0174", "pgp": 0, "GoBack": 1, "SID": 7882, "NameZh": "\u4e94\u7532\u570b\u5c0f", "RouteId": 510, "SeqNo": 14, "Terminal": 0, "DistrictId": 1, "Latitude": 22.59838, "Longitude": 120.33645, "IVRNo": 755, "EXTVoiceNo": 20174, "traveltime": 0, "holidayTraveltime": 0}, {"Id": "1103", "pgp": 0, "GoBack": 1, "SID": 8078, "NameZh": "\u4e00\u7532(\u9cf3\u5c71)", "RouteId": 510, "SeqNo": 15, "Terminal": 0, "DistrictId": 1, "Latitude": 22.600062, "Longitude": 120.338694, "IVRNo": 9319, "EXTVoiceNo": 1103, "traveltime": 0, "holidayTraveltime": 0}, {"Id": "1113", "pgp": 0, "GoBack": 1, "SID": 15905, "NameZh": "\u6b63\u7fa9\u9ad8\u4e2d", "RouteId": 510, "SeqNo": 16, "Terminal": 0, "DistrictId": 1, "Latitude": 22.6011, "Longitude": 120.34016, "IVRNo": 9318, "EXTVoiceNo": 1113, "traveltime": 0, "holidayTraveltime": 0}, {"Id": "0075", "pgp": 0, "GoBack": 1, "SID": 17957, "NameZh": "\u8001\u723a\u91cc", "RouteId": 510, "SeqNo": 17, "Terminal": 0, "DistrictId": 1, "Latitude": 22.603895, "Longitude": 120.344347, "IVRNo": 75, "EXTVoiceNo": 75, "traveltime": 0, "holidayTraveltime": 0}, {"Id": "0866", "pgp": 0, "GoBack": 1, "SID": 12329, "NameZh": "\u745e\u9686\u6771\u8def\u53e3(\u5357\u4eac\u8def)", "RouteId": 510, "SeqNo": 18, "Terminal": 0, "DistrictId": 1, "Latitude": 22.60621, "Longitude": 120.34588, "IVRNo": 754, "EXTVoiceNo": 20866, "traveltime": 0, "holidayTraveltime": 0}, {"Id": "9131", "pgp": 0, "GoBack": 1, "SID": 17339, "NameZh": "\u9cf3\u65b0\u9ad8\u4e2d(\u5357\u4eac\u8def)", "RouteId": 510, "SeqNo": 19, "Terminal": 0, "DistrictId": 1, "Latitude": 22.61334, "Longitude": 120.34567, "IVRNo": 9137, "EXTVoiceNo": 9131, "traveltime": 0, "holidayTraveltime": 0}, {"Id": "1085", "pgp": 0, "GoBack": 1, "SID": 17507, "NameZh": "\u5357\u4eac\u8def(\u885b\u6b66\u71df\u85dd\u8853\u6587\u5316\u4e2d\u5fc3)", "RouteId": 510, "SeqNo": 20, "Terminal": 0, "DistrictId": 1, "Latitude": 22.617789, "Longitude": 120.3457, "IVRNo": 642, "EXTVoiceNo": 21085, "traveltime": 0, "holidayTraveltime": 0}, {"Id": "0145", "pgp": 0, "GoBack": 1, "SID": 18259, "NameZh": "\u570b\u8ecd\u9ad8\u96c4\u7e3d\u91ab\u9662(\u6377\u904b\u885b\u6b66\u71df\u7ad9)", "RouteId": 510, "SeqNo": 21, "Terminal": 0, "DistrictId": 1, "Latitude": 22.625427, "Longitude": 120.340362, "IVRNo": 51, "EXTVoiceNo": 145, "traveltime": 0, "holidayTraveltime": 0}, {"Id": "0003", "pgp": 0, "GoBack": 1, "SID": 3523, "NameZh": "\u4e2d\u6b63\u9ad8\u4e2d", "RouteId": 510, "SeqNo": 22, "Terminal": 0, "DistrictId": 1, "Latitude": 22.626183, "Longitude": 120.338283, "IVRNo": 3, "EXTVoiceNo": 3, "traveltime": 0, "holidayTraveltime": 0}, {"Id": "7602", "pgp": 0, "GoBack": 1, "SID": 14552, "NameZh": "\u7fa9\u5927\u91ab\u9662", "RouteId": 510, "SeqNo": 23, "Terminal": 0, "DistrictId": 1, "Latitude": 22.76495, "Longitude": 120.36415, "IVRNo": 7126, "EXTVoiceNo": 7602, "traveltime": 0, "holidayTraveltime": 0}, {"Id": "9111", "pgp": 0, "GoBack": 1, "SID": 7313, "NameZh": "\u9ad8\u96c4\u770b\u5b88\u6240", "RouteId": 510, "SeqNo": 24, "Terminal": 0, "DistrictId": 1, "Latitude": 22.76131, "Longitude": 120.36909, "IVRNo": 7614, "EXTVoiceNo": 9111, "traveltime": 0, "holidayTraveltime": 0}, {"Id": "9208", "pgp": 0, "GoBack": 1, "SID": 18231, "NameZh": "\u6a39\u79d1\u5927\u9580\u53e3", "RouteId": 510, "SeqNo": 25, "Terminal": 0, "DistrictId": 1, "Latitude": 22.764895, "Longitude": 120.375167, "IVRNo": 9759, "EXTVoiceNo": 9208, "traveltime": 0, "holidayTraveltime": 0}, {"Id": "9996", "pgp": 0, "GoBack": 1, "SID": 7320, "NameZh": "\u7af9\u5d0e(\u9ad8\u96c4\u79d1\u5927.\u71d5\u5de2)", "RouteId": 510, "SeqNo": 26, "Terminal": 0, "DistrictId": 1, "Latitude": 22.77233, "Longitude": 120.40123, "IVRNo": 713, "EXTVoiceNo": 19996, "traveltime": 0, "holidayTraveltime": 0}, {"Id": "2363", "pgp": 0, "GoBack": 1, "SID": 18326, "NameZh": "\u9ad8\u5e2b\u5927\u71d5\u5de2\u6821\u5340(\u6b78\u71d5\u98df\u5de2)", "RouteId": 510, "SeqNo": 27, "Terminal": 1, "DistrictId": 1, "Latitude": 22.786881, "Longitude": 120.404642, "IVRNo": 5191, "EXTVoiceNo": 32363, "traveltime": 0, "holidayTraveltime": 0}, {"Id": "2363", "pgp": 0, "GoBack": 2, "SID": 18329, "NameZh": "\u9ad8\u5e2b\u5927\u71d5\u5de2\u6821\u5340(\u6b78\u71d5\u98df\u5de2)", "RouteId": 510, "SeqNo": 1, "Terminal": 0, "DistrictId": 1, "Latitude": 22.786796, "Longitude": 120.404717, "IVRNo": 5191, "EXTVoiceNo": 32363, "traveltime": 0, "holidayTraveltime": 0}, {"Id": "9996", "pgp": 0, "GoBack": 2, "SID": 7228, "NameZh": "\u7af9\u5d0e(\u9ad8\u96c4\u79d1\u5927.\u71d5\u5de2)", "RouteId": 510, "SeqNo": 2, "Terminal": 0, "DistrictId": 1, "Latitude": 22.77251, "Longitude": 120.40142, "IVRNo": 713, "EXTVoiceNo": 19996, "traveltime": 0, "holidayTraveltime": 0}, {"Id": "9208", "pgp": 0, "GoBack": 2, "SID": 18232, "NameZh": "\u6a39\u79d1\u5927\u9580\u53e3", "RouteId": 510, "SeqNo": 3, "Terminal": 0, "DistrictId": 1, "Latitude": 22.764811, "Longitude": 120.374686, "IVRNo": 9759, "EXTVoiceNo": 9208, "traveltime": 0, "holidayTraveltime": 0}, {"Id": "9111", "pgp": 0, "GoBack": 2, "SID": 7235, "NameZh": "\u9ad8\u96c4\u770b\u5b88\u6240", "RouteId": 510, "SeqNo": 4, "Terminal": 0, "DistrictId": 1, "Latitude": 22.76158, "Longitude": 120.36913, "IVRNo": 7614, "EXTVoiceNo": 9111, "traveltime": 0, "holidayTraveltime": 0}, {"Id": "7602", "pgp": 0, "GoBack": 2, "SID": 14574, "NameZh": "\u7fa9\u5927\u91ab\u9662", "RouteId": 510, "SeqNo": 5, "Terminal": 0, "DistrictId": 1, "Latitude": 22.76495, "Longitude": 120.36415, "IVRNo": 7126, "EXTVoiceNo": 7602, "traveltime": 0, "holidayTraveltime": 0}, {"Id": "0003", "pgp": 0, "GoBack": 2, "SID": 3524, "NameZh": "\u4e2d\u6b63\u9ad8\u4e2d", "RouteId": 510, "SeqNo": 6, "Terminal": 0, "DistrictId": 1, "Latitude": 22.626135, "Longitude": 120.337789, "IVRNo": 3, "EXTVoiceNo": 3, "traveltime": 0, "holidayTraveltime": 0}, {"Id": "0145", "pgp": 0, "GoBack": 2, "SID": 18396, "NameZh": "\u570b\u8ecd\u9ad8\u96c4\u7e3d\u91ab\u9662(\u6377\u904b\u885b\u6b66\u71df\u7ad9)", "RouteId": 510, "SeqNo": 7, "Terminal": 0, "DistrictId": 1, "Latitude": 22.625498, "Longitude": 120.339705, "IVRNo": 51, "EXTVoiceNo": 145, "traveltime": 0, "holidayTraveltime": 0}, {"Id": "1085", "pgp": 0, "GoBack": 2, "SID": 17522, "NameZh": "\u5357\u4eac\u8def(\u885b\u6b66\u71df\u85dd\u8853\u6587\u5316\u4e2d\u5fc3)", "RouteId": 510, "SeqNo": 8, "Terminal": 0, "DistrictId": 1, "Latitude": 22.617774, "Longitude": 120.345464, "IVRNo": 642, "EXTVoiceNo": 21085, "traveltime": 0, "holidayTraveltime": 0}, {"Id": "9131", "pgp": 0, "GoBack": 2, "SID": 17408, "NameZh": "\u9cf3\u65b0\u9ad8\u4e2d(\u5357\u4eac\u8def)", "RouteId": 510, "SeqNo": 9, "Terminal": 0, "DistrictId": 1, "Latitude": 22.61379, "Longitude": 120.3455, "IVRNo": 9137, "EXTVoiceNo": 9131, "traveltime": 0, "holidayTraveltime": 0}, {"Id": "0866", "pgp": 0, "GoBack": 2, "SID": 12333, "NameZh": "\u745e\u9686\u6771\u8def\u53e3(\u5357\u4eac\u8def)", "RouteId": 510, "SeqNo": 10, "Terminal": 0, "DistrictId": 1, "Latitude": 22.60604, "Longitude": 120.34565, "IVRNo": 754, "EXTVoiceNo": 20866, "traveltime": 0, "holidayTraveltime": 0}, {"Id": "0075", "pgp": 0, "GoBack": 2, "SID": 18239, "NameZh": "\u8001\u723a\u91cc", "RouteId": 510, "SeqNo": 11, "Terminal": 0, "DistrictId": 1, "Latitude": 22.603954, "Longitude": 120.344237, "IVRNo": 75, "EXTVoiceNo": 75, "traveltime": 0, "holidayTraveltime": 0}, {"Id": "1113", "pgp": 0, "GoBack": 2, "SID": 16089, "NameZh": "\u6b63\u7fa9\u9ad8\u4e2d", "RouteId": 510, "SeqNo": 12, "Terminal": 0, "DistrictId": 1, "Latitude": 22.601333, "Longitude": 120.34027, "IVRNo": 9318, "EXTVoiceNo": 1113, "traveltime": 0, "holidayTraveltime": 0}, {"Id": "1103", "pgp": 0, "GoBack": 2, "SID": 7881, "NameZh": "\u4e00\u7532(\u9cf3\u5c71)", "RouteId": 510, "SeqNo": 13, "Terminal": 0, "DistrictId": 1, "Latitude": 22.600247, "Longitude": 120.338658, "IVRNo": 9319, "EXTVoiceNo": 1103, "traveltime": 0, "holidayTraveltime": 0}, {"Id": "0174", "pgp": 0, "GoBack": 2, "SID": 8077, "NameZh": "\u4e94\u7532\u570b\u5c0f", "RouteId": 510, "SeqNo": 14, "Terminal": 0, "DistrictId": 1, "Latitude": 22.598406, "Longitude": 120.336295, "IVRNo": 755, "EXTVoiceNo": 20174, "traveltime": 0, "holidayTraveltime": 0}, {"Id": "1104", "pgp": 0, "GoBack": 2, "SID": 18389, "NameZh": "\u4e94\u7532\u6d3e\u51fa\u6240", "RouteId": 510, "SeqNo": 15, "Terminal": 0, "DistrictId": 1, "Latitude": 22.5976, "Longitude": 120.33524, "IVRNo": 1104, "EXTVoiceNo": 1104, "traveltime": 0, "holidayTraveltime": 0}, {"Id": "1105", "pgp": 0, "GoBack": 2, "SID": 8076, "NameZh": "\u4e94\u7532\u8fb2\u6703", "RouteId": 510, "SeqNo": 16, "Terminal": 0, "DistrictId": 1, "Latitude": 22.596436, "Longitude": 120.333116, "IVRNo": 1105, "EXTVoiceNo": 1105, "traveltime": 0, "holidayTraveltime": 0}, {"Id": "1106", "pgp": 0, "GoBack": 2, "SID": 8668, "NameZh": "\u4e94\u7532\u5e02\u5834", "RouteId": 510, "SeqNo": 17, "Terminal": 0, "DistrictId": 1, "Latitude": 22.59583, "Longitude": 120.33161, "IVRNo": 1106, "EXTVoiceNo": 1106, "traveltime": 0, "holidayTraveltime": 0}, {"Id": "1107", "pgp": 0, "GoBack": 2, "SID": 8074, "NameZh": "\u5354\u5584\u5802", "RouteId": 510, "SeqNo": 18, "Terminal": 0, "DistrictId": 1, "Latitude": 22.594152, "Longitude": 120.329366, "IVRNo": 1107, "EXTVoiceNo": 1107, "traveltime": 0, "holidayTraveltime": 0}, {"Id": "1108", "pgp": 0, "GoBack": 2, "SID": 8075, "NameZh": "\u4e94\u7532", "RouteId": 510, "SeqNo": 19, "Terminal": 0, "DistrictId": 1, "Latitude": 22.5929, "Longitude": 120.3276, "IVRNo": 1108, "EXTVoiceNo": 1108, "traveltime": 0, "holidayTraveltime": 0}, {"Id": "0759", "pgp": 0, "GoBack": 2, "SID": 8073, "NameZh": "\u930f\u5149\u4e09\u6751", "RouteId": 510, "SeqNo": 20, "Terminal": 0, "DistrictId": 1, "Latitude": 22.59203, "Longitude": 120.32663, "IVRNo": 756, "EXTVoiceNo": 759, "traveltime": 0, "holidayTraveltime": 0}, {"Id": "0758", "pgp": 0, "GoBack": 2, "SID": 8072, "NameZh": "\u798f\u8aa0\u9ad8\u4e2d", "RouteId": 510, "SeqNo": 21, "Terminal": 0, "DistrictId": 1, "Latitude": 22.59035, "Longitude": 120.32445, "IVRNo": 585, "EXTVoiceNo": 758, "traveltime": 0, "holidayTraveltime": 0}, {"Id": "2709", "pgp": 0, "GoBack": 2, "SID": 1970, "NameZh": "\u6377\u904b\u524d\u93ae\u9ad8\u4e2d\u7ad9(\u52de\u5de5\u884c\u653f\u4e2d\u5fc3)", "RouteId": 510, "SeqNo": 22, "Terminal": 0, "DistrictId": 1, "Latitude": 22.587954, "Longitude": 120.321752, "IVRNo": 2521, "EXTVoiceNo": 2709, "traveltime": 0, "holidayTraveltime": 0}, {"Id": "2760", "pgp": 0, "GoBack": 2, "SID": 1999, "NameZh": "\u660e\u6b63\u793e\u5340", "RouteId": 510, "SeqNo": 23, "Terminal": 0, "DistrictId": 1, "Latitude": 22.583015, "Longitude": 120.326083, "IVRNo": 2707, "EXTVoiceNo": 2760, "traveltime": 0, "holidayTraveltime": 0}, {"Id": "2761", "pgp": 0, "GoBack": 2, "SID": 2000, "NameZh": "\u660e\u6b63\u570b\u5c0f(\u6377\u904b\u8349\u8859\u7ad9)", "RouteId": 510, "SeqNo": 24, "Terminal": 1, "DistrictId": 1, "Latitude": 22.581139, "Longitude": 120.327655, "IVRNo": 2706, "EXTVoiceNo": 2761, "traveltime": 0, "holidayTraveltime": 0}]}