{"en": [{"Id": "5026", "pgp": 0, "GoBack": 1, "SID": 11055, "NameZh": "THSR Zuoying Station", "RouteId": 252, "SeqNo": 1, "Terminal": 0, "DistrictId": 1, "Latitude": 22.689216, "Longitude": 120.307466, "IVRNo": 5026, "EXTVoiceNo": 5026, "traveltime": 0, "holidayTraveltime": 0}, {"Id": "8887", "pgp": 0, "GoBack": 1, "SID": 11112, "NameZh": "Jhouzai Wetland", "RouteId": 252, "SeqNo": 2, "Terminal": 0, "DistrictId": 1, "Latitude": 22.680492, "Longitude": 120.29736, "IVRNo": 483, "EXTVoiceNo": 8887, "traveltime": 0, "holidayTraveltime": 0}, {"Id": "8890", "pgp": 0, "GoBack": 1, "SID": 11047, "NameZh": "Kaohsiung Museum of Military Dependents Village", "RouteId": 252, "SeqNo": 3, "Terminal": 0, "DistrictId": 1, "Latitude": 22.677471, "Longitude": 120.293394, "IVRNo": 9448, "EXTVoiceNo": 8890, "traveltime": 0, "holidayTraveltime": 0}, {"Id": "8891", "pgp": 0, "GoBack": 1, "SID": 11048, "NameZh": "Jioucheng East Gate", "RouteId": 252, "SeqNo": 4, "Terminal": 0, "DistrictId": 1, "Latitude": 22.675612, "Longitude": 120.291516, "IVRNo": 9449, "EXTVoiceNo": 8891, "traveltime": 0, "holidayTraveltime": 0}, {"Id": "8892", "pgp": 0, "GoBack": 1, "SID": 11049, "NameZh": "Jioucheng South Gate", "RouteId": 252, "SeqNo": 5, "Terminal": 0, "DistrictId": 1, "Latitude": 22.674391, "Longitude": 120.286615, "IVRNo": 9450, "EXTVoiceNo": 8892, "traveltime": 0, "holidayTraveltime": 0}, {"Id": "8894", "pgp": 0, "GoBack": 1, "SID": 11051, "NameZh": "Jioucheng North Gate", "RouteId": 252, "SeqNo": 6, "Terminal": 0, "DistrictId": 1, "Latitude": 22.680321, "Longitude": 120.289381, "IVRNo": 484, "EXTVoiceNo": 8894, "traveltime": 0, "holidayTraveltime": 0}, {"Id": "8889", "pgp": 0, "GoBack": 1, "SID": 11046, "NameZh": "Chongsheng Temple", "RouteId": 252, "SeqNo": 7, "Terminal": 0, "DistrictId": 1, "Latitude": 22.682946, "Longitude": 120.292865, "IVRNo": 9447, "EXTVoiceNo": 8889, "traveltime": 0, "holidayTraveltime": 0}, {"Id": "1072", "pgp": 0, "GoBack": 1, "SID": 11126, "NameZh": "Confucian Temple", "RouteId": 252, "SeqNo": 8, "Terminal": 0, "DistrictId": 1, "Latitude": 22.688509, "Longitude": 120.297948, "IVRNo": 8827, "EXTVoiceNo": 21072, "traveltime": 0, "holidayTraveltime": 0}, {"Id": "5026", "pgp": 0, "GoBack": 1, "SID": 12292, "NameZh": "THSR Zuoying Station", "RouteId": 252, "SeqNo": 9, "Terminal": 0, "DistrictId": 1, "Latitude": 22.68871, "Longitude": 120.307691, "IVRNo": 5026, "EXTVoiceNo": 5026, "traveltime": 0, "holidayTraveltime": 0}], "zh": [{"Id": "5026", "pgp": 0, "GoBack": 1, "SID": 11055, "NameZh": "\u9ad8\u9435\u5de6\u71df\u7ad9", "RouteId": 252, "SeqNo": 1, "Terminal": 0, "DistrictId": 1, "Latitude": 22.689216, "Longitude": 120.307466, "IVRNo": 5026, "EXTVoiceNo": 5026, "traveltime": 0, "holidayTraveltime": 0}, {"Id": "8887", "pgp": 0, "GoBack": 1, "SID": 11112, "NameZh": "\u6d32\u4ed4\u6ebc\u5730", "RouteId": 252, "SeqNo": 2, "Terminal": 0, "DistrictId": 1, "Latitude": 22.680492, "Longitude": 120.29736, "IVRNo": 483, "EXTVoiceNo": 8887, "traveltime": 0, "holidayTraveltime": 0}, {"Id": "8890", "pgp": 0, "GoBack": 1, "SID": 11047, "NameZh": "\u7737\u6751\u6587\u5316\u9928", "RouteId": 252, "SeqNo": 3, "Terminal": 0, "DistrictId": 1, "Latitude": 22.677471, "Longitude": 120.293394, "IVRNo": 9448, "EXTVoiceNo": 8890, "traveltime": 0, "holidayTraveltime": 0}, {"Id": "8891", "pgp": 0, "GoBack": 1, "SID": 11048, "NameZh": "\u820a\u57ce\u6771\u9580", "RouteId": 252, "SeqNo": 4, "Terminal": 0, "DistrictId": 1, "Latitude": 22.675612, "Longitude": 120.291516, "IVRNo": 9449, "EXTVoiceNo": 8891, "traveltime": 0, "holidayTraveltime": 0}, {"Id": "8892", "pgp": 0, "GoBack": 1, "SID": 11049, "NameZh": "\u820a\u57ce\u5357\u9580", "RouteId": 252, "SeqNo": 5, "Terminal": 0, "DistrictId": 1, "Latitude": 22.674391, "Longitude": 120.286615, "IVRNo": 9450, "EXTVoiceNo": 8892, "traveltime": 0, "holidayTraveltime": 0}, {"Id": "8894", "pgp": 0, "GoBack": 1, "SID": 11051, "NameZh": "\u820a\u57ce\u5317\u9580", "RouteId": 252, "SeqNo": 6, "Terminal": 0, "DistrictId": 1, "Latitude": 22.680321, "Longitude": 120.289381, "IVRNo": 484, "EXTVoiceNo": 8894, "traveltime": 0, "holidayTraveltime": 0}, {"Id": "8889", "pgp": 0, "GoBack": 1, "SID": 11046, "NameZh": "\u5d07\u8056\u7960", "RouteId": 252, "SeqNo": 7, "Terminal": 0, "DistrictId": 1, "Latitude": 22.682946, "Longitude": 120.292865, "IVRNo": 9447, "EXTVoiceNo": 8889, "traveltime": 0, "holidayTraveltime": 0}, {"Id": "1072", "pgp": 0, "GoBack": 1, "SID": 11126, "NameZh": "\u5b54\u5edf", "RouteId": 252, "SeqNo": 8, "Terminal": 0, "DistrictId": 1, "Latitude": 22.688509, "Longitude": 120.297948, "IVRNo": 8827, "EXTVoiceNo": 21072, "traveltime": 0, "holidayTraveltime": 0}, {"Id": "5026", "pgp": 0, "GoBack": 1, "SID": 12292, "NameZh": "\u9ad8\u9435\u5de6\u71df\u7ad9", "RouteId": 252, "SeqNo": 9, "Terminal": 0, "DistrictId": 1, "Latitude": 22.68871, "Longitude": 120.307691, "IVRNo": 5026, "EXTVoiceNo": 5026, "traveltime": 0, "holidayTraveltime": 0}]}