{"en": [{"Id": "0645", "pgp": 0, "GoBack": 1, "SID": 7979, "NameZh": "Cieding Station", "RouteId": 8043, "SeqNo": 1, "Terminal": 0, "DistrictId": 1, "Latitude": 22.868734, "Longitude": 120.198671, "IVRNo": 645, "EXTVoiceNo": 645, "traveltime": 0, "holidayTraveltime": 0}, {"Id": "8552", "pgp": 0, "GoBack": 1, "SID": 18157, "NameZh": "Jiankang Park", "RouteId": 8043, "SeqNo": 2, "Terminal": 0, "DistrictId": 1, "Latitude": 22.873619, "Longitude": 120.197009, "IVRNo": 9286, "EXTVoiceNo": 8552, "traveltime": 0, "holidayTraveltime": 0}, {"Id": "9263", "pgp": 0, "GoBack": 1, "SID": 8312, "NameZh": "Hsing-Da Elementary School", "RouteId": 8043, "SeqNo": 3, "Terminal": 0, "DistrictId": 1, "Latitude": 22.875399, "Longitude": 120.196344, "IVRNo": 9840, "EXTVoiceNo": 9263, "traveltime": 0, "holidayTraveltime": 0}, {"Id": "1366", "pgp": 0, "GoBack": 1, "SID": 11875, "NameZh": "Cilou Telecom Office", "RouteId": 8043, "SeqNo": 4, "Terminal": 0, "DistrictId": 1, "Latitude": 22.874576, "Longitude": 120.193723, "IVRNo": 11366, "EXTVoiceNo": 11366, "traveltime": 0, "holidayTraveltime": 0}, {"Id": "1364", "pgp": 0, "GoBack": 1, "SID": 12063, "NameZh": "Cilou Farmers` Association", "RouteId": 8043, "SeqNo": 5, "Terminal": 0, "DistrictId": 1, "Latitude": 22.873799, "Longitude": 120.191451, "IVRNo": 11364, "EXTVoiceNo": 11364, "traveltime": 0, "holidayTraveltime": 0}, {"Id": "9259", "pgp": 0, "GoBack": 1, "SID": 14534, "NameZh": "Cilou", "RouteId": 8043, "SeqNo": 6, "Terminal": 0, "DistrictId": 1, "Latitude": 22.877477, "Longitude": 120.189018, "IVRNo": 9836, "EXTVoiceNo": 9259, "traveltime": 0, "holidayTraveltime": 0}, {"Id": "0543", "pgp": 0, "GoBack": 1, "SID": 14288, "NameZh": "Beicilou", "RouteId": 8043, "SeqNo": 7, "Terminal": 0, "DistrictId": 1, "Latitude": 22.879224, "Longitude": 120.188445, "IVRNo": 10543, "EXTVoiceNo": 10543, "traveltime": 0, "holidayTraveltime": 0}, {"Id": "9257", "pgp": 0, "GoBack": 1, "SID": 17641, "NameZh": "Chenggong Bridge", "RouteId": 8043, "SeqNo": 8, "Terminal": 0, "DistrictId": 1, "Latitude": 22.889814, "Longitude": 120.187055, "IVRNo": 9834, "EXTVoiceNo": 9257, "traveltime": 0, "holidayTraveltime": 0}, {"Id": "0730", "pgp": 0, "GoBack": 1, "SID": 17642, "NameZh": "Guangding", "RouteId": 8043, "SeqNo": 9, "Terminal": 0, "DistrictId": 1, "Latitude": 22.892801, "Longitude": 120.186367, "IVRNo": 9833, "EXTVoiceNo": 10730, "traveltime": 0, "holidayTraveltime": 0}, {"Id": "1138", "pgp": 0, "GoBack": 1, "SID": 17643, "NameZh": "Qieding Farmers` Association (Siacieding)", "RouteId": 8043, "SeqNo": 10, "Terminal": 0, "DistrictId": 1, "Latitude": 22.895626, "Longitude": 120.185136, "IVRNo": 9832, "EXTVoiceNo": 21138, "traveltime": 0, "holidayTraveltime": 0}, {"Id": "9254", "pgp": 0, "GoBack": 1, "SID": 17644, "NameZh": "Dingcieding", "RouteId": 8043, "SeqNo": 11, "Terminal": 0, "DistrictId": 1, "Latitude": 22.89816, "Longitude": 120.18473, "IVRNo": 641, "EXTVoiceNo": 9254, "traveltime": 0, "holidayTraveltime": 0}, {"Id": "9253", "pgp": 0, "GoBack": 1, "SID": 17645, "NameZh": "Zengcuo", "RouteId": 8043, "SeqNo": 12, "Terminal": 0, "DistrictId": 1, "Latitude": 22.90119, "Longitude": 120.18406, "IVRNo": 9830, "EXTVoiceNo": 9253, "traveltime": 0, "holidayTraveltime": 0}, {"Id": "0640", "pgp": 0, "GoBack": 1, "SID": 17128, "NameZh": "Guosiaocian", "RouteId": 8043, "SeqNo": 13, "Terminal": 0, "DistrictId": 1, "Latitude": 22.903264, "Longitude": 120.18377, "IVRNo": 9125, "EXTVoiceNo": 640, "traveltime": 0, "holidayTraveltime": 0}, {"Id": "0907", "pgp": 0, "GoBack": 1, "SID": 17651, "NameZh": "Cieding Post Office", "RouteId": 8043, "SeqNo": 14, "Terminal": 0, "DistrictId": 1, "Latitude": 22.904212, "Longitude": 120.187016, "IVRNo": 907, "EXTVoiceNo": 907, "traveltime": 0, "holidayTraveltime": 0}, {"Id": "0717", "pgp": 0, "GoBack": 1, "SID": 17646, "NameZh": "Baiyun Village", "RouteId": 8043, "SeqNo": 15, "Terminal": 0, "DistrictId": 1, "Latitude": 22.91199, "Longitude": 120.1873, "IVRNo": 9454, "EXTVoiceNo": 10717, "traveltime": 0, "holidayTraveltime": 0}, {"Id": "9196", "pgp": 0, "GoBack": 1, "SID": 17649, "NameZh": "Baishalun", "RouteId": 8043, "SeqNo": 16, "Terminal": 0, "DistrictId": 1, "Latitude": 22.91279, "Longitude": 120.18513, "IVRNo": 9672, "EXTVoiceNo": 9196, "traveltime": 0, "holidayTraveltime": 0}, {"Id": "9197", "pgp": 0, "GoBack": 1, "SID": 17648, "NameZh": "S. Baishalun", "RouteId": 8043, "SeqNo": 17, "Terminal": 0, "DistrictId": 1, "Latitude": 22.91077, "Longitude": 120.18459, "IVRNo": 9673, "EXTVoiceNo": 9197, "traveltime": 0, "holidayTraveltime": 0}, {"Id": "2315", "pgp": 0, "GoBack": 1, "SID": 17095, "NameZh": "Cieding Telecom Office", "RouteId": 8043, "SeqNo": 18, "Terminal": 0, "DistrictId": 1, "Latitude": 22.909345, "Longitude": 120.184375, "IVRNo": 2315, "EXTVoiceNo": 2315, "traveltime": 0, "holidayTraveltime": 0}, {"Id": "0442", "pgp": 0, "GoBack": 1, "SID": 17157, "NameZh": "Weiwu Temple", "RouteId": 8043, "SeqNo": 19, "Terminal": 0, "DistrictId": 1, "Latitude": 22.907336, "Longitude": 120.183976, "IVRNo": 9123, "EXTVoiceNo": 442, "traveltime": 0, "holidayTraveltime": 0}, {"Id": "0639", "pgp": 0, "GoBack": 1, "SID": 17980, "NameZh": "Cieding District Office (Jiading Junior High School)", "RouteId": 8043, "SeqNo": 20, "Terminal": 0, "DistrictId": 1, "Latitude": 22.9064, "Longitude": 120.1837, "IVRNo": 9828, "EXTVoiceNo": 639, "traveltime": 0, "holidayTraveltime": 0}, {"Id": "0640", "pgp": 0, "GoBack": 1, "SID": 17599, "NameZh": "Guosiaocian", "RouteId": 8043, "SeqNo": 21, "Terminal": 0, "DistrictId": 1, "Latitude": 22.903264, "Longitude": 120.18377, "IVRNo": 9125, "EXTVoiceNo": 640, "traveltime": 0, "holidayTraveltime": 0}, {"Id": "9253", "pgp": 0, "GoBack": 1, "SID": 17653, "NameZh": "Zengcuo", "RouteId": 8043, "SeqNo": 22, "Terminal": 0, "DistrictId": 1, "Latitude": 22.90119, "Longitude": 120.18406, "IVRNo": 9830, "EXTVoiceNo": 9253, "traveltime": 0, "holidayTraveltime": 0}, {"Id": "9254", "pgp": 0, "GoBack": 1, "SID": 17654, "NameZh": "Dingcieding", "RouteId": 8043, "SeqNo": 23, "Terminal": 0, "DistrictId": 1, "Latitude": 22.89816, "Longitude": 120.18473, "IVRNo": 641, "EXTVoiceNo": 9254, "traveltime": 0, "holidayTraveltime": 0}, {"Id": "1138", "pgp": 0, "GoBack": 1, "SID": 17655, "NameZh": "Qieding Farmers` Association (Siacieding)", "RouteId": 8043, "SeqNo": 24, "Terminal": 0, "DistrictId": 1, "Latitude": 22.895801, "Longitude": 120.185109, "IVRNo": 9832, "EXTVoiceNo": 21138, "traveltime": 0, "holidayTraveltime": 0}, {"Id": "0730", "pgp": 0, "GoBack": 1, "SID": 17656, "NameZh": "Guangding", "RouteId": 8043, "SeqNo": 25, "Terminal": 0, "DistrictId": 1, "Latitude": 22.892918, "Longitude": 120.186329, "IVRNo": 9833, "EXTVoiceNo": 10730, "traveltime": 0, "holidayTraveltime": 0}, {"Id": "9257", "pgp": 0, "GoBack": 1, "SID": 17657, "NameZh": "Chenggong Bridge", "RouteId": 8043, "SeqNo": 26, "Terminal": 0, "DistrictId": 1, "Latitude": 22.889985, "Longitude": 120.187036, "IVRNo": 9834, "EXTVoiceNo": 9257, "traveltime": 0, "holidayTraveltime": 0}, {"Id": "0543", "pgp": 0, "GoBack": 1, "SID": 17658, "NameZh": "Beicilou", "RouteId": 8043, "SeqNo": 27, "Terminal": 0, "DistrictId": 1, "Latitude": 22.87936, "Longitude": 120.188419, "IVRNo": 10543, "EXTVoiceNo": 10543, "traveltime": 0, "holidayTraveltime": 0}, {"Id": "9259", "pgp": 0, "GoBack": 1, "SID": 17659, "NameZh": "Cilou", "RouteId": 8043, "SeqNo": 28, "Terminal": 0, "DistrictId": 1, "Latitude": 22.877601, "Longitude": 120.188955, "IVRNo": 9836, "EXTVoiceNo": 9259, "traveltime": 0, "holidayTraveltime": 0}, {"Id": "1364", "pgp": 0, "GoBack": 1, "SID": 17661, "NameZh": "Cilou Farmers` Association", "RouteId": 8043, "SeqNo": 29, "Terminal": 0, "DistrictId": 1, "Latitude": 22.873799, "Longitude": 120.191451, "IVRNo": 11364, "EXTVoiceNo": 11364, "traveltime": 0, "holidayTraveltime": 0}, {"Id": "1366", "pgp": 0, "GoBack": 1, "SID": 17660, "NameZh": "Cilou Telecom Office", "RouteId": 8043, "SeqNo": 30, "Terminal": 0, "DistrictId": 1, "Latitude": 22.874576, "Longitude": 120.193723, "IVRNo": 11366, "EXTVoiceNo": 11366, "traveltime": 0, "holidayTraveltime": 0}, {"Id": "9263", "pgp": 0, "GoBack": 1, "SID": 17662, "NameZh": "Hsing-Da Elementary School", "RouteId": 8043, "SeqNo": 31, "Terminal": 0, "DistrictId": 1, "Latitude": 22.875399, "Longitude": 120.196344, "IVRNo": 9840, "EXTVoiceNo": 9263, "traveltime": 0, "holidayTraveltime": 0}, {"Id": "0444", "pgp": 0, "GoBack": 1, "SID": 17652, "NameZh": "Coast Guard Base of Singda Harbor", "RouteId": 8043, "SeqNo": 32, "Terminal": 0, "DistrictId": 1, "Latitude": 22.876096, "Longitude": 120.201039, "IVRNo": 9455, "EXTVoiceNo": 444, "traveltime": 0, "holidayTraveltime": 0}, {"Id": "1987", "pgp": 0, "GoBack": 1, "SID": 17663, "NameZh": "Singda Fishing Port (Jhengda Rd.)", "RouteId": 8043, "SeqNo": 33, "Terminal": 0, "DistrictId": 1, "Latitude": 22.87836, "Longitude": 120.20379, "IVRNo": 9841, "EXTVoiceNo": 11987, "traveltime": 0, "holidayTraveltime": 0}, {"Id": "9266", "pgp": 0, "GoBack": 1, "SID": 17665, "NameZh": "Lovers Wharf", "RouteId": 8043, "SeqNo": 34, "Terminal": 0, "DistrictId": 1, "Latitude": 22.88059, "Longitude": 120.21119, "IVRNo": 9842, "EXTVoiceNo": 9266, "traveltime": 0, "holidayTraveltime": 0}, {"Id": "0446", "pgp": 0, "GoBack": 1, "SID": 17677, "NameZh": "Holiday Market", "RouteId": 8043, "SeqNo": 35, "Terminal": 0, "DistrictId": 1, "Latitude": 22.879432, "Longitude": 120.213945, "IVRNo": 9456, "EXTVoiceNo": 446, "traveltime": 0, "holidayTraveltime": 0}, {"Id": "9268", "pgp": 0, "GoBack": 1, "SID": 17664, "NameZh": "Singda Deep Sea Fishing Port", "RouteId": 8043, "SeqNo": 36, "Terminal": 0, "DistrictId": 1, "Latitude": 22.8767, "Longitude": 120.21397, "IVRNo": 905, "EXTVoiceNo": 9268, "traveltime": 0, "holidayTraveltime": 0}, {"Id": "1166", "pgp": 0, "GoBack": 1, "SID": 17666, "NameZh": "Dahubi", "RouteId": 8043, "SeqNo": 37, "Terminal": 0, "DistrictId": 1, "Latitude": 22.87435, "Longitude": 120.22499, "IVRNo": 10205, "EXTVoiceNo": 21166, "traveltime": 0, "holidayTraveltime": 0}, {"Id": "0475", "pgp": 0, "GoBack": 1, "SID": 17678, "NameZh": "Sinjhuhu", "RouteId": 8043, "SeqNo": 38, "Terminal": 0, "DistrictId": 1, "Latitude": 22.858533, "Longitude": 120.2279, "IVRNo": 9466, "EXTVoiceNo": 475, "traveltime": 0, "holidayTraveltime": 0}, {"Id": "0425", "pgp": 0, "GoBack": 1, "SID": 17702, "NameZh": "Sankuaicuo", "RouteId": 8043, "SeqNo": 39, "Terminal": 0, "DistrictId": 1, "Latitude": 22.850248, "Longitude": 120.229492, "IVRNo": 9467, "EXTVoiceNo": 425, "traveltime": 0, "holidayTraveltime": 0}, {"Id": "1133", "pgp": 0, "GoBack": 1, "SID": 17669, "NameZh": "Siajia", "RouteId": 8043, "SeqNo": 40, "Terminal": 0, "DistrictId": 1, "Latitude": 22.847736, "Longitude": 120.230281, "IVRNo": 10090, "EXTVoiceNo": 21133, "traveltime": 0, "holidayTraveltime": 0}, {"Id": "1040", "pgp": 0, "GoBack": 1, "SID": 17670, "NameZh": "Baoning", "RouteId": 8043, "SeqNo": 41, "Terminal": 0, "DistrictId": 1, "Latitude": 22.83512, "Longitude": 120.2346, "IVRNo": 11040, "EXTVoiceNo": 11040, "traveltime": 0, "holidayTraveltime": 0}, {"Id": "1080", "pgp": 0, "GoBack": 1, "SID": 17671, "NameZh": "Nanbaoning", "RouteId": 8043, "SeqNo": 42, "Terminal": 0, "DistrictId": 1, "Latitude": 22.8326, "Longitude": 120.2346, "IVRNo": 11080, "EXTVoiceNo": 11080, "traveltime": 0, "holidayTraveltime": 0}, {"Id": "9123", "pgp": 0, "GoBack": 1, "SID": 17672, "NameZh": "Yongan Junior High School", "RouteId": 8043, "SeqNo": 43, "Terminal": 0, "DistrictId": 1, "Latitude": 22.823458, "Longitude": 120.238091, "IVRNo": 9550, "EXTVoiceNo": 9123, "traveltime": 0, "holidayTraveltime": 0}, {"Id": "9549", "pgp": 0, "GoBack": 1, "SID": 17673, "NameZh": "Pasture", "RouteId": 8043, "SeqNo": 44, "Terminal": 0, "DistrictId": 1, "Latitude": 22.81813, "Longitude": 120.24058, "IVRNo": 9549, "EXTVoiceNo": 9549, "traveltime": 0, "holidayTraveltime": 0}, {"Id": "1054", "pgp": 0, "GoBack": 1, "SID": 17674, "NameZh": "Nantian Temple (Yongan)", "RouteId": 8043, "SeqNo": 45, "Terminal": 0, "DistrictId": 1, "Latitude": 22.8159, "Longitude": 120.24162, "IVRNo": 9548, "EXTVoiceNo": 11054, "traveltime": 0, "holidayTraveltime": 0}, {"Id": "9120", "pgp": 0, "GoBack": 1, "SID": 17675, "NameZh": "Tianwun Temple", "RouteId": 8043, "SeqNo": 46, "Terminal": 0, "DistrictId": 1, "Latitude": 22.8134, "Longitude": 120.2426, "IVRNo": 9547, "EXTVoiceNo": 9120, "traveltime": 0, "holidayTraveltime": 0}, {"Id": "0836", "pgp": 0, "GoBack": 1, "SID": 17676, "NameZh": "Siweisin", "RouteId": 8043, "SeqNo": 47, "Terminal": 0, "DistrictId": 1, "Latitude": 22.80931, "Longitude": 120.24313, "IVRNo": 836, "EXTVoiceNo": 836, "traveltime": 0, "holidayTraveltime": 0}, {"Id": "0430", "pgp": 0, "GoBack": 1, "SID": 17703, "NameZh": "Wufenzih", "RouteId": 8043, "SeqNo": 48, "Terminal": 0, "DistrictId": 1, "Latitude": 22.793455, "Longitude": 120.244138, "IVRNo": 9473, "EXTVoiceNo": 430, "traveltime": 0, "holidayTraveltime": 0}, {"Id": "9559", "pgp": 0, "GoBack": 1, "SID": 17768, "NameZh": "Mituo Gas Station", "RouteId": 8043, "SeqNo": 49, "Terminal": 0, "DistrictId": 1, "Latitude": 22.78992, "Longitude": 120.24563, "IVRNo": 9544, "EXTVoiceNo": 9559, "traveltime": 0, "holidayTraveltime": 0}, {"Id": "9116", "pgp": 0, "GoBack": 1, "SID": 17802, "NameZh": "Yancheng", "RouteId": 8043, "SeqNo": 50, "Terminal": 0, "DistrictId": 1, "Latitude": 22.78731, "Longitude": 120.24674, "IVRNo": 9543, "EXTVoiceNo": 9116, "traveltime": 0, "holidayTraveltime": 0}, {"Id": "7912", "pgp": 0, "GoBack": 1, "SID": 17679, "NameZh": "Mituo Elementary School", "RouteId": 8043, "SeqNo": 51, "Terminal": 0, "DistrictId": 1, "Latitude": 22.78417, "Longitude": 120.24792, "IVRNo": 7912, "EXTVoiceNo": 7912, "traveltime": 0, "holidayTraveltime": 0}, {"Id": "7911", "pgp": 0, "GoBack": 1, "SID": 17680, "NameZh": "Mituo District Office", "RouteId": 8043, "SeqNo": 52, "Terminal": 0, "DistrictId": 1, "Latitude": 22.780406, "Longitude": 120.249338, "IVRNo": 7911, "EXTVoiceNo": 7911, "traveltime": 0, "holidayTraveltime": 0}, {"Id": "7910", "pgp": 0, "GoBack": 1, "SID": 5348, "NameZh": "Mituo Junior High School (Jhongjheng S. Rd.)", "RouteId": 8043, "SeqNo": 53, "Terminal": 0, "DistrictId": 1, "Latitude": 22.77741, "Longitude": 120.25091, "IVRNo": 869, "EXTVoiceNo": 7910, "traveltime": 0, "holidayTraveltime": 0}, {"Id": "0014", "pgp": 0, "GoBack": 1, "SID": 17682, "NameZh": "Ergao", "RouteId": 8043, "SeqNo": 54, "Terminal": 0, "DistrictId": 1, "Latitude": 22.77394, "Longitude": 120.25437, "IVRNo": 10033, "EXTVoiceNo": 20014, "traveltime": 0, "holidayTraveltime": 0}, {"Id": "0535", "pgp": 0, "GoBack": 1, "SID": 17683, "NameZh": "Fenci Station", "RouteId": 8043, "SeqNo": 55, "Terminal": 0, "DistrictId": 1, "Latitude": 22.77039, "Longitude": 120.25809, "IVRNo": 535, "EXTVoiceNo": 535, "traveltime": 0, "holidayTraveltime": 0}, {"Id": "7908", "pgp": 0, "GoBack": 1, "SID": 17684, "NameZh": "Sinyi Rd.", "RouteId": 8043, "SeqNo": 56, "Terminal": 0, "DistrictId": 1, "Latitude": 22.762131, "Longitude": 120.262398, "IVRNo": 7908, "EXTVoiceNo": 7908, "traveltime": 0, "holidayTraveltime": 0}, {"Id": "7906", "pgp": 0, "GoBack": 1, "SID": 19115, "NameZh": "Zihguan District Office", "RouteId": 8043, "SeqNo": 57, "Terminal": 0, "DistrictId": 1, "Latitude": 22.760647, "Longitude": 120.266716, "IVRNo": 7906, "EXTVoiceNo": 7906, "traveltime": 0, "holidayTraveltime": 0}, {"Id": "1397", "pgp": 0, "GoBack": 1, "SID": 17685, "NameZh": "Zihguan", "RouteId": 8043, "SeqNo": 58, "Terminal": 0, "DistrictId": 1, "Latitude": 22.75994, "Longitude": 120.26715, "IVRNo": 11397, "EXTVoiceNo": 11397, "traveltime": 0, "holidayTraveltime": 0}, {"Id": "1084", "pgp": 0, "GoBack": 1, "SID": 17686, "NameZh": "Nanzihguan", "RouteId": 8043, "SeqNo": 59, "Terminal": 0, "DistrictId": 1, "Latitude": 22.75774, "Longitude": 120.2675, "IVRNo": 11084, "EXTVoiceNo": 11084, "traveltime": 0, "holidayTraveltime": 0}, {"Id": "0944", "pgp": 0, "GoBack": 1, "SID": 17687, "NameZh": "Tongan", "RouteId": 8043, "SeqNo": 60, "Terminal": 0, "DistrictId": 1, "Latitude": 22.75202, "Longitude": 120.26581, "IVRNo": 10944, "EXTVoiceNo": 10944, "traveltime": 0, "holidayTraveltime": 0}, {"Id": "0089", "pgp": 0, "GoBack": 1, "SID": 15349, "NameZh": "Dashejia", "RouteId": 8043, "SeqNo": 61, "Terminal": 0, "DistrictId": 1, "Latitude": 22.74805, "Longitude": 120.26321, "IVRNo": 10175, "EXTVoiceNo": 20089, "traveltime": 0, "holidayTraveltime": 0}, {"Id": "0094", "pgp": 0, "GoBack": 1, "SID": 17688, "NameZh": "Dashejia Farmers` Association (Dashe Office)", "RouteId": 8043, "SeqNo": 62, "Terminal": 0, "DistrictId": 1, "Latitude": 22.746953, "Longitude": 120.261503, "IVRNo": 8846, "EXTVoiceNo": 20094, "traveltime": 0, "holidayTraveltime": 0}, {"Id": "0868", "pgp": 0, "GoBack": 1, "SID": 17689, "NameZh": "Subtropical", "RouteId": 8043, "SeqNo": 63, "Terminal": 0, "DistrictId": 1, "Latitude": 22.74318, "Longitude": 120.26279, "IVRNo": 8847, "EXTVoiceNo": 10868, "traveltime": 0, "holidayTraveltime": 0}, {"Id": "8848", "pgp": 0, "GoBack": 1, "SID": 17690, "NameZh": "Dashe S. Rd. (Dianbao Bridge)", "RouteId": 8043, "SeqNo": 64, "Terminal": 0, "DistrictId": 1, "Latitude": 22.73866, "Longitude": 120.264722, "IVRNo": 8848, "EXTVoiceNo": 8848, "traveltime": 0, "holidayTraveltime": 0}, {"Id": "0534", "pgp": 0, "GoBack": 1, "SID": 17691, "NameZh": "Dongbao Company", "RouteId": 8043, "SeqNo": 65, "Terminal": 0, "DistrictId": 1, "Latitude": 22.734554, "Longitude": 120.26783, "IVRNo": 534, "EXTVoiceNo": 534, "traveltime": 0, "holidayTraveltime": 0}, {"Id": "0526", "pgp": 0, "GoBack": 1, "SID": 17692, "NameZh": "Cao Bridge", "RouteId": 8043, "SeqNo": 66, "Terminal": 0, "DistrictId": 1, "Latitude": 22.730922, "Longitude": 120.271152, "IVRNo": 526, "EXTVoiceNo": 526, "traveltime": 0, "holidayTraveltime": 0}, {"Id": "0525", "pgp": 0, "GoBack": 1, "SID": 17693, "NameZh": "National University of Kaohsiung (Dejhong Rd.)", "RouteId": 8043, "SeqNo": 67, "Terminal": 0, "DistrictId": 1, "Latitude": 22.727489, "Longitude": 120.273837, "IVRNo": 702, "EXTVoiceNo": 525, "traveltime": 0, "holidayTraveltime": 0}, {"Id": "7421", "pgp": 0, "GoBack": 1, "SID": 17694, "NameZh": "Yuanjhong Harbor", "RouteId": 8043, "SeqNo": 68, "Terminal": 0, "DistrictId": 1, "Latitude": 22.72232, "Longitude": 120.27837, "IVRNo": 7421, "EXTVoiceNo": 7421, "traveltime": 0, "holidayTraveltime": 0}, {"Id": "0179", "pgp": 0, "GoBack": 1, "SID": 17695, "NameZh": "Wufu Community", "RouteId": 8043, "SeqNo": 69, "Terminal": 0, "DistrictId": 1, "Latitude": 22.718896, "Longitude": 120.28389, "IVRNo": 7423, "EXTVoiceNo": 20179, "traveltime": 0, "holidayTraveltime": 0}, {"Id": "1983", "pgp": 0, "GoBack": 1, "SID": 17696, "NameZh": "Singchang Village", "RouteId": 8043, "SeqNo": 70, "Terminal": 0, "DistrictId": 1, "Latitude": 22.71708, "Longitude": 120.28715, "IVRNo": 1983, "EXTVoiceNo": 1983, "traveltime": 0, "holidayTraveltime": 0}, {"Id": "0261", "pgp": 0, "GoBack": 1, "SID": 17697, "NameZh": "Beiyouchang (Youchang St.)", "RouteId": 8043, "SeqNo": 71, "Terminal": 0, "DistrictId": 1, "Latitude": 22.714229, "Longitude": 120.289354, "IVRNo": 7406, "EXTVoiceNo": 20261, "traveltime": 0, "holidayTraveltime": 0}, {"Id": "7437", "pgp": 0, "GoBack": 1, "SID": 4618, "NameZh": "Youchang (Sanshan St. Intersection)", "RouteId": 8043, "SeqNo": 72, "Terminal": 0, "DistrictId": 1, "Latitude": 22.710838, "Longitude": 120.289329, "IVRNo": 7437, "EXTVoiceNo": 7437, "traveltime": 0, "holidayTraveltime": 0}, {"Id": "7308", "pgp": 0, "GoBack": 1, "SID": 17699, "NameZh": "Jyuguang New Village (Jyunsiao Rd.)", "RouteId": 8043, "SeqNo": 73, "Terminal": 0, "DistrictId": 1, "Latitude": 22.70614, "Longitude": 120.29276, "IVRNo": 7207, "EXTVoiceNo": 7308, "traveltime": 0, "holidayTraveltime": 0}, {"Id": "7309", "pgp": 0, "GoBack": 1, "SID": 17700, "NameZh": "Zuoying Military Hospital(World Games Blvd. Rd. Intersection)", "RouteId": 8043, "SeqNo": 74, "Terminal": 0, "DistrictId": 1, "Latitude": 22.701082, "Longitude": 120.292391, "IVRNo": 7306, "EXTVoiceNo": 7309, "traveltime": 0, "holidayTraveltime": 0}, {"Id": "2291", "pgp": 0, "GoBack": 1, "SID": 4828, "NameZh": "Zuoying Chapel (Haigong Rd.)", "RouteId": 8043, "SeqNo": 75, "Terminal": 0, "DistrictId": 1, "Latitude": 22.693622, "Longitude": 120.293497, "IVRNo": 7370, "EXTVoiceNo": 32291, "traveltime": 0, "holidayTraveltime": 0}, {"Id": "2293", "pgp": 0, "GoBack": 1, "SID": 17712, "NameZh": "Haigong Rd. (Jinsyue Rd. Intersection)", "RouteId": 8043, "SeqNo": 76, "Terminal": 0, "DistrictId": 1, "Latitude": 22.693667, "Longitude": 120.294852, "IVRNo": 7312, "EXTVoiceNo": 32293, "traveltime": 0, "holidayTraveltime": 0}, {"Id": "7368", "pgp": 0, "GoBack": 1, "SID": 17701, "NameZh": "Zuoying Senior High School", "RouteId": 8043, "SeqNo": 77, "Terminal": 0, "DistrictId": 1, "Latitude": 22.693566, "Longitude": 120.297096, "IVRNo": 7368, "EXTVoiceNo": 7368, "traveltime": 0, "holidayTraveltime": 0}, {"Id": "4787", "pgp": 0, "GoBack": 1, "SID": 19117, "NameZh": "Caigong Rd. Intersection (Zuoying Avenue)", "RouteId": 8043, "SeqNo": 78, "Terminal": 0, "DistrictId": 1, "Latitude": 22.692739, "Longitude": 120.298494, "IVRNo": 4786, "EXTVoiceNo": 4787, "traveltime": 0, "holidayTraveltime": 0}, {"Id": "0614", "pgp": 0, "GoBack": 1, "SID": 17713, "NameZh": "Fonggu Temple (Jinsyue Rd. Intersection)", "RouteId": 8043, "SeqNo": 79, "Terminal": 0, "DistrictId": 1, "Latitude": 22.69048, "Longitude": 120.29638, "IVRNo": 9001, "EXTVoiceNo": 20614, "traveltime": 0, "holidayTraveltime": 0}, {"Id": "4760", "pgp": 0, "GoBack": 1, "SID": 3398, "NameZh": "Zuoying Market", "RouteId": 8043, "SeqNo": 80, "Terminal": 0, "DistrictId": 1, "Latitude": 22.687638, "Longitude": 120.293394, "IVRNo": 4728, "EXTVoiceNo": 4760, "traveltime": 0, "holidayTraveltime": 0}, {"Id": "4761", "pgp": 0, "GoBack": 1, "SID": 17704, "NameZh": "Zuoying Avenue", "RouteId": 8043, "SeqNo": 81, "Terminal": 0, "DistrictId": 1, "Latitude": 22.68616, "Longitude": 120.29059, "IVRNo": 4727, "EXTVoiceNo": 4761, "traveltime": 0, "holidayTraveltime": 0}, {"Id": "4762", "pgp": 0, "GoBack": 1, "SID": 3273, "NameZh": "Dianzihding Rd. Intersection", "RouteId": 8043, "SeqNo": 82, "Terminal": 0, "DistrictId": 1, "Latitude": 22.68434, "Longitude": 120.289286, "IVRNo": 4726, "EXTVoiceNo": 4762, "traveltime": 0, "holidayTraveltime": 0}, {"Id": "4763", "pgp": 0, "GoBack": 1, "SID": 17706, "NameZh": "Zuoying Farmers` Association", "RouteId": 8043, "SeqNo": 83, "Terminal": 0, "DistrictId": 1, "Latitude": 22.68229, "Longitude": 120.28806, "IVRNo": 4725, "EXTVoiceNo": 4763, "traveltime": 0, "holidayTraveltime": 0}, {"Id": "8001", "pgp": 0, "GoBack": 1, "SID": 17707, "NameZh": "Zuoying South Station", "RouteId": 8043, "SeqNo": 84, "Terminal": 0, "DistrictId": 1, "Latitude": 22.679766, "Longitude": 120.287318, "IVRNo": 8000, "EXTVoiceNo": 8001, "traveltime": 0, "holidayTraveltime": 0}, {"Id": "4765", "pgp": 0, "GoBack": 1, "SID": 17708, "NameZh": "Haicing Vocational High School of Technology and Commerce", "RouteId": 8043, "SeqNo": 85, "Terminal": 0, "DistrictId": 1, "Latitude": 22.67489, "Longitude": 120.2864, "IVRNo": 4723, "EXTVoiceNo": 4765, "traveltime": 0, "holidayTraveltime": 0}, {"Id": "5844", "pgp": 0, "GoBack": 1, "SID": 17709, "NameZh": "Guomao Community", "RouteId": 8043, "SeqNo": 86, "Terminal": 0, "DistrictId": 1, "Latitude": 22.67003, "Longitude": 120.28643, "IVRNo": 5840, "EXTVoiceNo": 5844, "traveltime": 0, "holidayTraveltime": 0}, {"Id": "5845", "pgp": 0, "GoBack": 1, "SID": 17710, "NameZh": "St. Paul`s High School", "RouteId": 8043, "SeqNo": 87, "Terminal": 0, "DistrictId": 1, "Latitude": 22.6657, "Longitude": 120.29159, "IVRNo": 5839, "EXTVoiceNo": 5845, "traveltime": 0, "holidayTraveltime": 0}, {"Id": "5846", "pgp": 0, "GoBack": 1, "SID": 17711, "NameZh": "Mingcheng Rd. Intersection (Jhonghua 1st Rd.)", "RouteId": 8043, "SeqNo": 88, "Terminal": 0, "DistrictId": 1, "Latitude": 22.66276, "Longitude": 120.29241, "IVRNo": 936, "EXTVoiceNo": 5846, "traveltime": 0, "holidayTraveltime": 0}, {"Id": "0434", "pgp": 0, "GoBack": 1, "SID": 17714, "NameZh": "Kaohsiung Municipal United Hospital", "RouteId": 8043, "SeqNo": 89, "Terminal": 0, "DistrictId": 1, "Latitude": 22.65526, "Longitude": 120.29208, "IVRNo": 5836, "EXTVoiceNo": 434, "traveltime": 0, "holidayTraveltime": 0}, {"Id": "4035", "pgp": 0, "GoBack": 1, "SID": 2728, "NameZh": "Longzih Village", "RouteId": 8043, "SeqNo": 90, "Terminal": 0, "DistrictId": 1, "Latitude": 22.651714, "Longitude": 120.291914, "IVRNo": 4035, "EXTVoiceNo": 4035, "traveltime": 0, "holidayTraveltime": 0}, {"Id": "0860", "pgp": 0, "GoBack": 1, "SID": 17715, "NameZh": "Electrical Substation (Shihcyuan)", "RouteId": 8043, "SeqNo": 91, "Terminal": 0, "DistrictId": 1, "Latitude": 22.64611, "Longitude": 120.29359, "IVRNo": 860, "EXTVoiceNo": 860, "traveltime": 0, "holidayTraveltime": 0}, {"Id": "9993", "pgp": 0, "GoBack": 1, "SID": 17716, "NameZh": "Ksbus Zihli Station", "RouteId": 8043, "SeqNo": 92, "Terminal": 0, "DistrictId": 1, "Latitude": 22.644787, "Longitude": 120.296466, "IVRNo": 19993, "EXTVoiceNo": 19993, "traveltime": 0, "holidayTraveltime": 0}, {"Id": "0400", "pgp": 0, "GoBack": 1, "SID": 17717, "NameZh": "Liaoning St. Intersection (Zihli Rd.)", "RouteId": 8043, "SeqNo": 93, "Terminal": 0, "DistrictId": 1, "Latitude": 22.642134, "Longitude": 120.296124, "IVRNo": 239, "EXTVoiceNo": 20400, "traveltime": 0, "holidayTraveltime": 0}, {"Id": "0240", "pgp": 0, "GoBack": 1, "SID": 17718, "NameZh": "Kaohsiung Senior High School", "RouteId": 8043, "SeqNo": 94, "Terminal": 0, "DistrictId": 1, "Latitude": 22.63785, "Longitude": 120.29759, "IVRNo": 240, "EXTVoiceNo": 240, "traveltime": 0, "holidayTraveltime": 0}, {"Id": "9368", "pgp": 0, "GoBack": 1, "SID": 8983, "NameZh": "Kaohsiung Station (Nanhua Rd.)", "RouteId": 8043, "SeqNo": 95, "Terminal": 1, "DistrictId": 1, "Latitude": 22.637941, "Longitude": 120.303443, "IVRNo": 9034, "EXTVoiceNo": 9368, "traveltime": 0, "holidayTraveltime": 0}, {"Id": "9368", "pgp": 0, "GoBack": 2, "SID": 2146, "NameZh": "Kaohsiung Station (Nanhua Rd.)", "RouteId": 8043, "SeqNo": 1, "Terminal": 0, "DistrictId": 1, "Latitude": 22.638135, "Longitude": 120.303514, "IVRNo": 9034, "EXTVoiceNo": 9368, "traveltime": 0, "holidayTraveltime": 0}, {"Id": "0240", "pgp": 0, "GoBack": 2, "SID": 17559, "NameZh": "Kaohsiung Senior High School", "RouteId": 8043, "SeqNo": 2, "Terminal": 0, "DistrictId": 1, "Latitude": 22.63793, "Longitude": 120.29738, "IVRNo": 240, "EXTVoiceNo": 240, "traveltime": 0, "holidayTraveltime": 0}, {"Id": "0400", "pgp": 0, "GoBack": 2, "SID": 17560, "NameZh": "Liaoning St. Intersection (Zihli Rd.)", "RouteId": 8043, "SeqNo": 3, "Terminal": 0, "DistrictId": 1, "Latitude": 22.64213, "Longitude": 120.29623, "IVRNo": 239, "EXTVoiceNo": 20400, "traveltime": 0, "holidayTraveltime": 0}, {"Id": "9993", "pgp": 0, "GoBack": 2, "SID": 17561, "NameZh": "Ksbus Zihli Station", "RouteId": 8043, "SeqNo": 4, "Terminal": 0, "DistrictId": 1, "Latitude": 22.645333, "Longitude": 120.29655, "IVRNo": 19993, "EXTVoiceNo": 19993, "traveltime": 0, "holidayTraveltime": 0}, {"Id": "0860", "pgp": 0, "GoBack": 2, "SID": 17562, "NameZh": "Electrical Substation (Shihcyuan)", "RouteId": 8043, "SeqNo": 5, "Terminal": 0, "DistrictId": 1, "Latitude": 22.64625, "Longitude": 120.29351, "IVRNo": 860, "EXTVoiceNo": 860, "traveltime": 0, "holidayTraveltime": 0}, {"Id": "4035", "pgp": 0, "GoBack": 2, "SID": 2791, "NameZh": "Longzih Village", "RouteId": 8043, "SeqNo": 6, "Terminal": 0, "DistrictId": 1, "Latitude": 22.651729, "Longitude": 120.292122, "IVRNo": 4035, "EXTVoiceNo": 4035, "traveltime": 0, "holidayTraveltime": 0}, {"Id": "0434", "pgp": 0, "GoBack": 2, "SID": 17719, "NameZh": "Kaohsiung Municipal United Hospital", "RouteId": 8043, "SeqNo": 7, "Terminal": 0, "DistrictId": 1, "Latitude": 22.65511, "Longitude": 120.29231, "IVRNo": 5836, "EXTVoiceNo": 434, "traveltime": 0, "holidayTraveltime": 0}, {"Id": "5846", "pgp": 0, "GoBack": 2, "SID": 17566, "NameZh": "Mingcheng Rd. Intersection (Jhonghua 1st Rd.)", "RouteId": 8043, "SeqNo": 8, "Terminal": 0, "DistrictId": 1, "Latitude": 22.66223, "Longitude": 120.29271, "IVRNo": 936, "EXTVoiceNo": 5846, "traveltime": 0, "holidayTraveltime": 0}, {"Id": "5845", "pgp": 0, "GoBack": 2, "SID": 17567, "NameZh": "St. Paul`s High School", "RouteId": 8043, "SeqNo": 9, "Terminal": 0, "DistrictId": 1, "Latitude": 22.66533, "Longitude": 120.29234, "IVRNo": 5839, "EXTVoiceNo": 5845, "traveltime": 0, "holidayTraveltime": 0}, {"Id": "5844", "pgp": 0, "GoBack": 2, "SID": 17568, "NameZh": "Guomao Community", "RouteId": 8043, "SeqNo": 10, "Terminal": 0, "DistrictId": 1, "Latitude": 22.67112, "Longitude": 120.2867, "IVRNo": 5840, "EXTVoiceNo": 5844, "traveltime": 0, "holidayTraveltime": 0}, {"Id": "4765", "pgp": 0, "GoBack": 2, "SID": 17569, "NameZh": "Haicing Vocational High School of Technology and Commerce", "RouteId": 8043, "SeqNo": 11, "Terminal": 0, "DistrictId": 1, "Latitude": 22.67438, "Longitude": 120.28664, "IVRNo": 4723, "EXTVoiceNo": 4765, "traveltime": 0, "holidayTraveltime": 0}, {"Id": "8001", "pgp": 0, "GoBack": 2, "SID": 17570, "NameZh": "Zuoying South Station", "RouteId": 8043, "SeqNo": 12, "Terminal": 0, "DistrictId": 1, "Latitude": 22.67974, "Longitude": 120.28748, "IVRNo": 8000, "EXTVoiceNo": 8001, "traveltime": 0, "holidayTraveltime": 0}, {"Id": "4763", "pgp": 0, "GoBack": 2, "SID": 17571, "NameZh": "Zuoying Farmers` Association", "RouteId": 8043, "SeqNo": 13, "Terminal": 0, "DistrictId": 1, "Latitude": 22.68217, "Longitude": 120.28822, "IVRNo": 4725, "EXTVoiceNo": 4763, "traveltime": 0, "holidayTraveltime": 0}, {"Id": "4762", "pgp": 0, "GoBack": 2, "SID": 3426, "NameZh": "Dianzihding Rd. Intersection", "RouteId": 8043, "SeqNo": 14, "Terminal": 0, "DistrictId": 1, "Latitude": 22.684445, "Longitude": 120.289323, "IVRNo": 4726, "EXTVoiceNo": 4762, "traveltime": 0, "holidayTraveltime": 0}, {"Id": "4761", "pgp": 0, "GoBack": 2, "SID": 17573, "NameZh": "Zuoying Avenue", "RouteId": 8043, "SeqNo": 15, "Terminal": 0, "DistrictId": 1, "Latitude": 22.68622, "Longitude": 120.29119, "IVRNo": 4727, "EXTVoiceNo": 4761, "traveltime": 0, "holidayTraveltime": 0}, {"Id": "4760", "pgp": 0, "GoBack": 2, "SID": 3292, "NameZh": "Zuoying Market", "RouteId": 8043, "SeqNo": 16, "Terminal": 0, "DistrictId": 1, "Latitude": 22.687603, "Longitude": 120.293505, "IVRNo": 4728, "EXTVoiceNo": 4760, "traveltime": 0, "holidayTraveltime": 0}, {"Id": "0614", "pgp": 0, "GoBack": 2, "SID": 17574, "NameZh": "Fonggu Temple (Jinsyue Rd. Intersection)", "RouteId": 8043, "SeqNo": 17, "Terminal": 0, "DistrictId": 1, "Latitude": 22.69038, "Longitude": 120.296441, "IVRNo": 9001, "EXTVoiceNo": 20614, "traveltime": 0, "holidayTraveltime": 0}, {"Id": "4787", "pgp": 0, "GoBack": 2, "SID": 19118, "NameZh": "Caigong Rd. Intersection (Zuoying Avenue)", "RouteId": 8043, "SeqNo": 18, "Terminal": 0, "DistrictId": 1, "Latitude": 22.69263, "Longitude": 120.29866, "IVRNo": 4786, "EXTVoiceNo": 4787, "traveltime": 0, "holidayTraveltime": 0}, {"Id": "7368", "pgp": 0, "GoBack": 2, "SID": 17576, "NameZh": "Zuoying Senior High School", "RouteId": 8043, "SeqNo": 19, "Terminal": 0, "DistrictId": 1, "Latitude": 22.693685, "Longitude": 120.29716, "IVRNo": 7368, "EXTVoiceNo": 7368, "traveltime": 0, "holidayTraveltime": 0}, {"Id": "2293", "pgp": 0, "GoBack": 2, "SID": 17558, "NameZh": "Haigong Rd. (Jinsyue Rd. Intersection)", "RouteId": 8043, "SeqNo": 20, "Terminal": 0, "DistrictId": 1, "Latitude": 22.693757, "Longitude": 120.295044, "IVRNo": 7312, "EXTVoiceNo": 32293, "traveltime": 0, "holidayTraveltime": 0}, {"Id": "2291", "pgp": 0, "GoBack": 2, "SID": 4938, "NameZh": "Zuoying Chapel (Haigong Rd.)", "RouteId": 8043, "SeqNo": 21, "Terminal": 0, "DistrictId": 1, "Latitude": 22.693759, "Longitude": 120.293516, "IVRNo": 7370, "EXTVoiceNo": 32291, "traveltime": 0, "holidayTraveltime": 0}, {"Id": "7309", "pgp": 0, "GoBack": 2, "SID": 17577, "NameZh": "Zuoying Military Hospital", "RouteId": 8043, "SeqNo": 22, "Terminal": 0, "DistrictId": 1, "Latitude": 22.70247, "Longitude": 120.29259, "IVRNo": 7372, "EXTVoiceNo": 7309, "traveltime": 0, "holidayTraveltime": 0}, {"Id": "7308", "pgp": 0, "GoBack": 2, "SID": 17578, "NameZh": "Jyuguang New Village (Jyunsiao Rd.)", "RouteId": 8043, "SeqNo": 23, "Terminal": 0, "DistrictId": 1, "Latitude": 22.706149, "Longitude": 120.292938, "IVRNo": 7207, "EXTVoiceNo": 7308, "traveltime": 0, "holidayTraveltime": 0}, {"Id": "7437", "pgp": 0, "GoBack": 2, "SID": 4620, "NameZh": "Youchang (Sanshan St. Intersection)", "RouteId": 8043, "SeqNo": 24, "Terminal": 0, "DistrictId": 1, "Latitude": 22.710869, "Longitude": 120.289508, "IVRNo": 7437, "EXTVoiceNo": 7437, "traveltime": 0, "holidayTraveltime": 0}, {"Id": "0261", "pgp": 0, "GoBack": 2, "SID": 17580, "NameZh": "Beiyouchang (Youchang St.)", "RouteId": 8043, "SeqNo": 25, "Terminal": 0, "DistrictId": 1, "Latitude": 22.71437, "Longitude": 120.2895, "IVRNo": 7406, "EXTVoiceNo": 20261, "traveltime": 0, "holidayTraveltime": 0}, {"Id": "1983", "pgp": 0, "GoBack": 2, "SID": 17581, "NameZh": "Singchang Village", "RouteId": 8043, "SeqNo": 26, "Terminal": 0, "DistrictId": 1, "Latitude": 22.71715, "Longitude": 120.28712, "IVRNo": 1983, "EXTVoiceNo": 1983, "traveltime": 0, "holidayTraveltime": 0}, {"Id": "0179", "pgp": 0, "GoBack": 2, "SID": 17582, "NameZh": "Wufu Community", "RouteId": 8043, "SeqNo": 27, "Terminal": 0, "DistrictId": 1, "Latitude": 22.71902, "Longitude": 120.28397, "IVRNo": 7423, "EXTVoiceNo": 20179, "traveltime": 0, "holidayTraveltime": 0}, {"Id": "7421", "pgp": 0, "GoBack": 2, "SID": 17583, "NameZh": "Yuanjhong Harbor", "RouteId": 8043, "SeqNo": 28, "Terminal": 0, "DistrictId": 1, "Latitude": 22.72277, "Longitude": 120.27779, "IVRNo": 7421, "EXTVoiceNo": 7421, "traveltime": 0, "holidayTraveltime": 0}, {"Id": "0525", "pgp": 0, "GoBack": 2, "SID": 17584, "NameZh": "National University of Kaohsiung (Dejhong Rd.)", "RouteId": 8043, "SeqNo": 29, "Terminal": 0, "DistrictId": 1, "Latitude": 22.72774, "Longitude": 120.27396, "IVRNo": 702, "EXTVoiceNo": 525, "traveltime": 0, "holidayTraveltime": 0}, {"Id": "0526", "pgp": 0, "GoBack": 2, "SID": 17585, "NameZh": "Cao Bridge", "RouteId": 8043, "SeqNo": 30, "Terminal": 0, "DistrictId": 1, "Latitude": 22.73122, "Longitude": 120.27124, "IVRNo": 526, "EXTVoiceNo": 526, "traveltime": 0, "holidayTraveltime": 0}, {"Id": "0534", "pgp": 0, "GoBack": 2, "SID": 17586, "NameZh": "Dongbao Company", "RouteId": 8043, "SeqNo": 31, "Terminal": 0, "DistrictId": 1, "Latitude": 22.73458, "Longitude": 120.26815, "IVRNo": 534, "EXTVoiceNo": 534, "traveltime": 0, "holidayTraveltime": 0}, {"Id": "8848", "pgp": 0, "GoBack": 2, "SID": 17587, "NameZh": "Dashe S. Rd. (Dianbao Bridge)", "RouteId": 8043, "SeqNo": 32, "Terminal": 0, "DistrictId": 1, "Latitude": 22.739016, "Longitude": 120.264612, "IVRNo": 8848, "EXTVoiceNo": 8848, "traveltime": 0, "holidayTraveltime": 0}, {"Id": "0868", "pgp": 0, "GoBack": 2, "SID": 17588, "NameZh": "Subtropical", "RouteId": 8043, "SeqNo": 33, "Terminal": 0, "DistrictId": 1, "Latitude": 22.7431, "Longitude": 120.26301, "IVRNo": 8847, "EXTVoiceNo": 10868, "traveltime": 0, "holidayTraveltime": 0}, {"Id": "0094", "pgp": 0, "GoBack": 2, "SID": 17589, "NameZh": "Dashejia Farmers` Association (Dashe Office)", "RouteId": 8043, "SeqNo": 34, "Terminal": 0, "DistrictId": 1, "Latitude": 22.74706, "Longitude": 120.26125, "IVRNo": 8846, "EXTVoiceNo": 20094, "traveltime": 0, "holidayTraveltime": 0}, {"Id": "0089", "pgp": 0, "GoBack": 2, "SID": 15434, "NameZh": "Dashejia", "RouteId": 8043, "SeqNo": 35, "Terminal": 0, "DistrictId": 1, "Latitude": 22.74836, "Longitude": 120.26322, "IVRNo": 10175, "EXTVoiceNo": 20089, "traveltime": 0, "holidayTraveltime": 0}, {"Id": "0944", "pgp": 0, "GoBack": 2, "SID": 17590, "NameZh": "Tongan", "RouteId": 8043, "SeqNo": 36, "Terminal": 0, "DistrictId": 1, "Latitude": 22.75182, "Longitude": 120.26575, "IVRNo": 10944, "EXTVoiceNo": 10944, "traveltime": 0, "holidayTraveltime": 0}, {"Id": "1084", "pgp": 0, "GoBack": 2, "SID": 17591, "NameZh": "Nanzihguan", "RouteId": 8043, "SeqNo": 37, "Terminal": 0, "DistrictId": 1, "Latitude": 22.75744, "Longitude": 120.2675, "IVRNo": 11084, "EXTVoiceNo": 11084, "traveltime": 0, "holidayTraveltime": 0}, {"Id": "1397", "pgp": 0, "GoBack": 2, "SID": 17592, "NameZh": "Zihguan", "RouteId": 8043, "SeqNo": 38, "Terminal": 0, "DistrictId": 1, "Latitude": 22.75997, "Longitude": 120.26709, "IVRNo": 11397, "EXTVoiceNo": 11397, "traveltime": 0, "holidayTraveltime": 0}, {"Id": "7906", "pgp": 0, "GoBack": 2, "SID": 19116, "NameZh": "Zihguan District Office", "RouteId": 8043, "SeqNo": 39, "Terminal": 0, "DistrictId": 1, "Latitude": 22.760716, "Longitude": 120.26677, "IVRNo": 7906, "EXTVoiceNo": 7906, "traveltime": 0, "holidayTraveltime": 0}, {"Id": "7908", "pgp": 0, "GoBack": 2, "SID": 17593, "NameZh": "Sinyi Rd.", "RouteId": 8043, "SeqNo": 40, "Terminal": 0, "DistrictId": 1, "Latitude": 22.76225, "Longitude": 120.26274, "IVRNo": 7908, "EXTVoiceNo": 7908, "traveltime": 0, "holidayTraveltime": 0}, {"Id": "0535", "pgp": 0, "GoBack": 2, "SID": 17594, "NameZh": "Fenci Station", "RouteId": 8043, "SeqNo": 41, "Terminal": 0, "DistrictId": 1, "Latitude": 22.77105, "Longitude": 120.25768, "IVRNo": 535, "EXTVoiceNo": 535, "traveltime": 0, "holidayTraveltime": 0}, {"Id": "0014", "pgp": 0, "GoBack": 2, "SID": 17595, "NameZh": "Ergao", "RouteId": 8043, "SeqNo": 42, "Terminal": 0, "DistrictId": 1, "Latitude": 22.7741, "Longitude": 120.25449, "IVRNo": 10033, "EXTVoiceNo": 20014, "traveltime": 0, "holidayTraveltime": 0}, {"Id": "7910", "pgp": 0, "GoBack": 2, "SID": 5353, "NameZh": "Mituo Junior High School (Jhongjheng S. Rd.)", "RouteId": 8043, "SeqNo": 43, "Terminal": 0, "DistrictId": 1, "Latitude": 22.77741, "Longitude": 120.25091, "IVRNo": 869, "EXTVoiceNo": 7910, "traveltime": 0, "holidayTraveltime": 0}, {"Id": "7911", "pgp": 0, "GoBack": 2, "SID": 17597, "NameZh": "Mituo District Office", "RouteId": 8043, "SeqNo": 44, "Terminal": 0, "DistrictId": 1, "Latitude": 22.78044, "Longitude": 120.249366, "IVRNo": 7911, "EXTVoiceNo": 7911, "traveltime": 0, "holidayTraveltime": 0}, {"Id": "7912", "pgp": 0, "GoBack": 2, "SID": 17598, "NameZh": "Mituo Elementary School", "RouteId": 8043, "SeqNo": 45, "Terminal": 0, "DistrictId": 1, "Latitude": 22.784217, "Longitude": 120.248039, "IVRNo": 7912, "EXTVoiceNo": 7912, "traveltime": 0, "holidayTraveltime": 0}, {"Id": "9116", "pgp": 0, "GoBack": 2, "SID": 11438, "NameZh": "Yancheng", "RouteId": 8043, "SeqNo": 46, "Terminal": 0, "DistrictId": 1, "Latitude": 22.787173, "Longitude": 120.246794, "IVRNo": 9543, "EXTVoiceNo": 9116, "traveltime": 0, "holidayTraveltime": 0}, {"Id": "9559", "pgp": 0, "GoBack": 2, "SID": 17801, "NameZh": "Mituo Gas Station", "RouteId": 8043, "SeqNo": 47, "Terminal": 0, "DistrictId": 1, "Latitude": 22.78993, "Longitude": 120.24577, "IVRNo": 9544, "EXTVoiceNo": 9559, "traveltime": 0, "holidayTraveltime": 0}, {"Id": "0430", "pgp": 0, "GoBack": 2, "SID": 17563, "NameZh": "Wufenzih", "RouteId": 8043, "SeqNo": 48, "Terminal": 0, "DistrictId": 1, "Latitude": 22.793607, "Longitude": 120.244226, "IVRNo": 9473, "EXTVoiceNo": 430, "traveltime": 0, "holidayTraveltime": 0}, {"Id": "0836", "pgp": 0, "GoBack": 2, "SID": 17601, "NameZh": "Siweisin", "RouteId": 8043, "SeqNo": 49, "Terminal": 0, "DistrictId": 1, "Latitude": 22.80943, "Longitude": 120.24329, "IVRNo": 836, "EXTVoiceNo": 836, "traveltime": 0, "holidayTraveltime": 0}, {"Id": "9120", "pgp": 0, "GoBack": 2, "SID": 17602, "NameZh": "Tianwun Temple", "RouteId": 8043, "SeqNo": 50, "Terminal": 0, "DistrictId": 1, "Latitude": 22.8133, "Longitude": 120.2428, "IVRNo": 9547, "EXTVoiceNo": 9120, "traveltime": 0, "holidayTraveltime": 0}, {"Id": "1054", "pgp": 0, "GoBack": 2, "SID": 17603, "NameZh": "Nantian Temple (Yongan)", "RouteId": 8043, "SeqNo": 51, "Terminal": 0, "DistrictId": 1, "Latitude": 22.81667, "Longitude": 120.24147, "IVRNo": 9548, "EXTVoiceNo": 11054, "traveltime": 0, "holidayTraveltime": 0}, {"Id": "9549", "pgp": 0, "GoBack": 2, "SID": 17604, "NameZh": "Pasture", "RouteId": 8043, "SeqNo": 52, "Terminal": 0, "DistrictId": 1, "Latitude": 22.81874, "Longitude": 120.24044, "IVRNo": 9549, "EXTVoiceNo": 9549, "traveltime": 0, "holidayTraveltime": 0}, {"Id": "9123", "pgp": 0, "GoBack": 2, "SID": 17605, "NameZh": "Yongan Junior High School", "RouteId": 8043, "SeqNo": 53, "Terminal": 0, "DistrictId": 1, "Latitude": 22.82355, "Longitude": 120.2383, "IVRNo": 9550, "EXTVoiceNo": 9123, "traveltime": 0, "holidayTraveltime": 0}, {"Id": "1080", "pgp": 0, "GoBack": 2, "SID": 17606, "NameZh": "Nanbaoning", "RouteId": 8043, "SeqNo": 54, "Terminal": 0, "DistrictId": 1, "Latitude": 22.832608, "Longitude": 120.234815, "IVRNo": 11080, "EXTVoiceNo": 11080, "traveltime": 0, "holidayTraveltime": 0}, {"Id": "1040", "pgp": 0, "GoBack": 2, "SID": 17607, "NameZh": "Baoning", "RouteId": 8043, "SeqNo": 55, "Terminal": 0, "DistrictId": 1, "Latitude": 22.83536, "Longitude": 120.23471, "IVRNo": 11040, "EXTVoiceNo": 11040, "traveltime": 0, "holidayTraveltime": 0}, {"Id": "1133", "pgp": 0, "GoBack": 2, "SID": 17608, "NameZh": "Siajia", "RouteId": 8043, "SeqNo": 56, "Terminal": 0, "DistrictId": 1, "Latitude": 22.84777, "Longitude": 120.23038, "IVRNo": 10090, "EXTVoiceNo": 21133, "traveltime": 0, "holidayTraveltime": 0}, {"Id": "0425", "pgp": 0, "GoBack": 2, "SID": 17564, "NameZh": "Sankuaicuo", "RouteId": 8043, "SeqNo": 57, "Terminal": 0, "DistrictId": 1, "Latitude": 22.850189, "Longitude": 120.229614, "IVRNo": 9467, "EXTVoiceNo": 425, "traveltime": 0, "holidayTraveltime": 0}, {"Id": "0475", "pgp": 0, "GoBack": 2, "SID": 17565, "NameZh": "Sinjhuhu", "RouteId": 8043, "SeqNo": 58, "Terminal": 0, "DistrictId": 1, "Latitude": 22.858485, "Longitude": 120.227982, "IVRNo": 9466, "EXTVoiceNo": 475, "traveltime": 0, "holidayTraveltime": 0}, {"Id": "1166", "pgp": 0, "GoBack": 2, "SID": 17611, "NameZh": "Dahubi", "RouteId": 8043, "SeqNo": 59, "Terminal": 0, "DistrictId": 1, "Latitude": 22.87453, "Longitude": 120.22507, "IVRNo": 10205, "EXTVoiceNo": 21166, "traveltime": 0, "holidayTraveltime": 0}, {"Id": "9268", "pgp": 0, "GoBack": 2, "SID": 17612, "NameZh": "Singda Deep Sea Fishing Port", "RouteId": 8043, "SeqNo": 60, "Terminal": 0, "DistrictId": 1, "Latitude": 22.87682, "Longitude": 120.21428, "IVRNo": 905, "EXTVoiceNo": 9268, "traveltime": 0, "holidayTraveltime": 0}, {"Id": "0446", "pgp": 0, "GoBack": 2, "SID": 17600, "NameZh": "Holiday Market", "RouteId": 8043, "SeqNo": 61, "Terminal": 0, "DistrictId": 1, "Latitude": 22.879199, "Longitude": 120.214164, "IVRNo": 9456, "EXTVoiceNo": 446, "traveltime": 0, "holidayTraveltime": 0}, {"Id": "9266", "pgp": 0, "GoBack": 2, "SID": 17613, "NameZh": "Lovers Wharf", "RouteId": 8043, "SeqNo": 62, "Terminal": 0, "DistrictId": 1, "Latitude": 22.88083, "Longitude": 120.21133, "IVRNo": 9842, "EXTVoiceNo": 9266, "traveltime": 0, "holidayTraveltime": 0}, {"Id": "1987", "pgp": 0, "GoBack": 2, "SID": 17614, "NameZh": "Singda Fishing Port (Jhengda Rd.)", "RouteId": 8043, "SeqNo": 63, "Terminal": 0, "DistrictId": 1, "Latitude": 22.87883, "Longitude": 120.20391, "IVRNo": 9841, "EXTVoiceNo": 11987, "traveltime": 0, "holidayTraveltime": 0}, {"Id": "0444", "pgp": 0, "GoBack": 2, "SID": 17625, "NameZh": "Coast Guard Base of Singda Harbor", "RouteId": 8043, "SeqNo": 64, "Terminal": 0, "DistrictId": 1, "Latitude": 22.876358, "Longitude": 120.201054, "IVRNo": 9455, "EXTVoiceNo": 444, "traveltime": 0, "holidayTraveltime": 0}, {"Id": "9263", "pgp": 0, "GoBack": 2, "SID": 17615, "NameZh": "Hsing-Da Elementary School", "RouteId": 8043, "SeqNo": 65, "Terminal": 0, "DistrictId": 1, "Latitude": 22.875399, "Longitude": 120.196344, "IVRNo": 9840, "EXTVoiceNo": 9263, "traveltime": 0, "holidayTraveltime": 0}, {"Id": "1366", "pgp": 0, "GoBack": 2, "SID": 17617, "NameZh": "Cilou Telecom Office", "RouteId": 8043, "SeqNo": 66, "Terminal": 0, "DistrictId": 1, "Latitude": 22.874667, "Longitude": 120.19401, "IVRNo": 11366, "EXTVoiceNo": 11366, "traveltime": 0, "holidayTraveltime": 0}, {"Id": "1364", "pgp": 0, "GoBack": 2, "SID": 17616, "NameZh": "Cilou Farmers` Association", "RouteId": 8043, "SeqNo": 67, "Terminal": 0, "DistrictId": 1, "Latitude": 22.873799, "Longitude": 120.191451, "IVRNo": 11364, "EXTVoiceNo": 11364, "traveltime": 0, "holidayTraveltime": 0}, {"Id": "9259", "pgp": 0, "GoBack": 2, "SID": 17618, "NameZh": "Cilou", "RouteId": 8043, "SeqNo": 68, "Terminal": 0, "DistrictId": 1, "Latitude": 22.877477, "Longitude": 120.189018, "IVRNo": 9836, "EXTVoiceNo": 9259, "traveltime": 0, "holidayTraveltime": 0}, {"Id": "0543", "pgp": 0, "GoBack": 2, "SID": 17619, "NameZh": "Beicilou", "RouteId": 8043, "SeqNo": 69, "Terminal": 0, "DistrictId": 1, "Latitude": 22.879224, "Longitude": 120.188445, "IVRNo": 10543, "EXTVoiceNo": 10543, "traveltime": 0, "holidayTraveltime": 0}, {"Id": "9257", "pgp": 0, "GoBack": 2, "SID": 17636, "NameZh": "Chenggong Bridge", "RouteId": 8043, "SeqNo": 70, "Terminal": 0, "DistrictId": 1, "Latitude": 22.889814, "Longitude": 120.187055, "IVRNo": 9834, "EXTVoiceNo": 9257, "traveltime": 0, "holidayTraveltime": 0}, {"Id": "0730", "pgp": 0, "GoBack": 2, "SID": 17621, "NameZh": "Guangding", "RouteId": 8043, "SeqNo": 71, "Terminal": 0, "DistrictId": 1, "Latitude": 22.892801, "Longitude": 120.186367, "IVRNo": 9833, "EXTVoiceNo": 10730, "traveltime": 0, "holidayTraveltime": 0}, {"Id": "1138", "pgp": 0, "GoBack": 2, "SID": 17622, "NameZh": "Qieding Farmers` Association (Siacieding)", "RouteId": 8043, "SeqNo": 72, "Terminal": 0, "DistrictId": 1, "Latitude": 22.895626, "Longitude": 120.185136, "IVRNo": 9832, "EXTVoiceNo": 21138, "traveltime": 0, "holidayTraveltime": 0}, {"Id": "9254", "pgp": 0, "GoBack": 2, "SID": 17623, "NameZh": "Dingcieding", "RouteId": 8043, "SeqNo": 73, "Terminal": 0, "DistrictId": 1, "Latitude": 22.89816, "Longitude": 120.18473, "IVRNo": 641, "EXTVoiceNo": 9254, "traveltime": 0, "holidayTraveltime": 0}, {"Id": "9253", "pgp": 0, "GoBack": 2, "SID": 17632, "NameZh": "Zengcuo", "RouteId": 8043, "SeqNo": 74, "Terminal": 0, "DistrictId": 1, "Latitude": 22.90119, "Longitude": 120.18406, "IVRNo": 9830, "EXTVoiceNo": 9253, "traveltime": 0, "holidayTraveltime": 0}, {"Id": "0640", "pgp": 0, "GoBack": 2, "SID": 17631, "NameZh": "Guosiaocian", "RouteId": 8043, "SeqNo": 75, "Terminal": 0, "DistrictId": 1, "Latitude": 22.903264, "Longitude": 120.18377, "IVRNo": 9125, "EXTVoiceNo": 640, "traveltime": 0, "holidayTraveltime": 0}, {"Id": "0907", "pgp": 0, "GoBack": 2, "SID": 17626, "NameZh": "Cieding Post Office", "RouteId": 8043, "SeqNo": 76, "Terminal": 0, "DistrictId": 1, "Latitude": 22.90399, "Longitude": 120.18707, "IVRNo": 907, "EXTVoiceNo": 907, "traveltime": 0, "holidayTraveltime": 0}, {"Id": "0717", "pgp": 0, "GoBack": 2, "SID": 17627, "NameZh": "Baiyun Village", "RouteId": 8043, "SeqNo": 77, "Terminal": 0, "DistrictId": 1, "Latitude": 22.91199, "Longitude": 120.1873, "IVRNo": 9454, "EXTVoiceNo": 10717, "traveltime": 0, "holidayTraveltime": 0}, {"Id": "9196", "pgp": 0, "GoBack": 2, "SID": 17628, "NameZh": "Baishalun", "RouteId": 8043, "SeqNo": 78, "Terminal": 0, "DistrictId": 1, "Latitude": 22.91295, "Longitude": 120.18511, "IVRNo": 9672, "EXTVoiceNo": 9196, "traveltime": 0, "holidayTraveltime": 0}, {"Id": "9197", "pgp": 0, "GoBack": 2, "SID": 17629, "NameZh": "S. Baishalun", "RouteId": 8043, "SeqNo": 79, "Terminal": 0, "DistrictId": 1, "Latitude": 22.91065, "Longitude": 120.18479, "IVRNo": 9673, "EXTVoiceNo": 9197, "traveltime": 0, "holidayTraveltime": 0}, {"Id": "2315", "pgp": 0, "GoBack": 2, "SID": 17183, "NameZh": "Cieding Telecom Office", "RouteId": 8043, "SeqNo": 80, "Terminal": 0, "DistrictId": 1, "Latitude": 22.909337, "Longitude": 120.18441, "IVRNo": 2315, "EXTVoiceNo": 2315, "traveltime": 0, "holidayTraveltime": 0}, {"Id": "0442", "pgp": 0, "GoBack": 2, "SID": 17112, "NameZh": "Weiwu Temple", "RouteId": 8043, "SeqNo": 81, "Terminal": 0, "DistrictId": 1, "Latitude": 22.907455, "Longitude": 120.183948, "IVRNo": 9123, "EXTVoiceNo": 442, "traveltime": 0, "holidayTraveltime": 0}, {"Id": "0639", "pgp": 0, "GoBack": 2, "SID": 17630, "NameZh": "Cieding District Office (Jiading Junior High School)", "RouteId": 8043, "SeqNo": 82, "Terminal": 0, "DistrictId": 1, "Latitude": 22.9064, "Longitude": 120.1837, "IVRNo": 9828, "EXTVoiceNo": 639, "traveltime": 0, "holidayTraveltime": 0}, {"Id": "0640", "pgp": 0, "GoBack": 2, "SID": 15245, "NameZh": "Guosiaocian", "RouteId": 8043, "SeqNo": 83, "Terminal": 0, "DistrictId": 1, "Latitude": 22.903264, "Longitude": 120.18377, "IVRNo": 9125, "EXTVoiceNo": 640, "traveltime": 0, "holidayTraveltime": 0}, {"Id": "9253", "pgp": 0, "GoBack": 2, "SID": 17624, "NameZh": "Zengcuo", "RouteId": 8043, "SeqNo": 84, "Terminal": 0, "DistrictId": 1, "Latitude": 22.90119, "Longitude": 120.18406, "IVRNo": 9830, "EXTVoiceNo": 9253, "traveltime": 0, "holidayTraveltime": 0}, {"Id": "9254", "pgp": 0, "GoBack": 2, "SID": 17633, "NameZh": "Dingcieding", "RouteId": 8043, "SeqNo": 85, "Terminal": 0, "DistrictId": 1, "Latitude": 22.89816, "Longitude": 120.18473, "IVRNo": 641, "EXTVoiceNo": 9254, "traveltime": 0, "holidayTraveltime": 0}, {"Id": "1138", "pgp": 0, "GoBack": 2, "SID": 17634, "NameZh": "Qieding Farmers` Association (Siacieding)", "RouteId": 8043, "SeqNo": 86, "Terminal": 0, "DistrictId": 1, "Latitude": 22.895801, "Longitude": 120.185109, "IVRNo": 9832, "EXTVoiceNo": 21138, "traveltime": 0, "holidayTraveltime": 0}, {"Id": "0730", "pgp": 0, "GoBack": 2, "SID": 17635, "NameZh": "Guangding", "RouteId": 8043, "SeqNo": 87, "Terminal": 0, "DistrictId": 1, "Latitude": 22.892918, "Longitude": 120.186329, "IVRNo": 9833, "EXTVoiceNo": 10730, "traveltime": 0, "holidayTraveltime": 0}, {"Id": "9257", "pgp": 0, "GoBack": 2, "SID": 17620, "NameZh": "Chenggong Bridge", "RouteId": 8043, "SeqNo": 88, "Terminal": 0, "DistrictId": 1, "Latitude": 22.889985, "Longitude": 120.187036, "IVRNo": 9834, "EXTVoiceNo": 9257, "traveltime": 0, "holidayTraveltime": 0}, {"Id": "0543", "pgp": 0, "GoBack": 2, "SID": 14347, "NameZh": "Beicilou", "RouteId": 8043, "SeqNo": 89, "Terminal": 0, "DistrictId": 1, "Latitude": 22.87936, "Longitude": 120.188419, "IVRNo": 10543, "EXTVoiceNo": 10543, "traveltime": 0, "holidayTraveltime": 0}, {"Id": "9259", "pgp": 0, "GoBack": 2, "SID": 14593, "NameZh": "Cilou", "RouteId": 8043, "SeqNo": 90, "Terminal": 0, "DistrictId": 1, "Latitude": 22.877601, "Longitude": 120.188955, "IVRNo": 9836, "EXTVoiceNo": 9259, "traveltime": 0, "holidayTraveltime": 0}, {"Id": "1364", "pgp": 0, "GoBack": 2, "SID": 12073, "NameZh": "Cilou Farmers` Association", "RouteId": 8043, "SeqNo": 91, "Terminal": 0, "DistrictId": 1, "Latitude": 22.873799, "Longitude": 120.191451, "IVRNo": 11364, "EXTVoiceNo": 11364, "traveltime": 0, "holidayTraveltime": 0}, {"Id": "1366", "pgp": 0, "GoBack": 2, "SID": 11910, "NameZh": "Cilou Telecom Office", "RouteId": 8043, "SeqNo": 92, "Terminal": 0, "DistrictId": 1, "Latitude": 22.874576, "Longitude": 120.193723, "IVRNo": 11366, "EXTVoiceNo": 11366, "traveltime": 0, "holidayTraveltime": 0}, {"Id": "9263", "pgp": 0, "GoBack": 2, "SID": 8984, "NameZh": "Hsing-Da Elementary School", "RouteId": 8043, "SeqNo": 93, "Terminal": 0, "DistrictId": 1, "Latitude": 22.875399, "Longitude": 120.196344, "IVRNo": 9840, "EXTVoiceNo": 9263, "traveltime": 0, "holidayTraveltime": 0}, {"Id": "8552", "pgp": 0, "GoBack": 2, "SID": 18261, "NameZh": "Jiankang Park", "RouteId": 8043, "SeqNo": 94, "Terminal": 0, "DistrictId": 1, "Latitude": 22.873765, "Longitude": 120.196886, "IVRNo": 9286, "EXTVoiceNo": 8552, "traveltime": 0, "holidayTraveltime": 0}, {"Id": "0645", "pgp": 0, "GoBack": 2, "SID": 7980, "NameZh": "Cieding Station", "RouteId": 8043, "SeqNo": 95, "Terminal": 1, "DistrictId": 1, "Latitude": 22.868734, "Longitude": 120.198671, "IVRNo": 645, "EXTVoiceNo": 645, "traveltime": 0, "holidayTraveltime": 0}], "zh": [{"Id": "0645", "pgp": 0, "GoBack": 1, "SID": 7979, "NameZh": "\u8304\u8423\u7ad9", "RouteId": 8043, "SeqNo": 1, "Terminal": 0, "DistrictId": 1, "Latitude": 22.868734, "Longitude": 120.198671, "IVRNo": 645, "EXTVoiceNo": 645, "traveltime": 0, "holidayTraveltime": 0}, {"Id": "8552", "pgp": 0, "GoBack": 1, "SID": 18157, "NameZh": "\u5065\u5eb7\u516c\u5712", "RouteId": 8043, "SeqNo": 2, "Terminal": 0, "DistrictId": 1, "Latitude": 22.873619, "Longitude": 120.197009, "IVRNo": 9286, "EXTVoiceNo": 8552, "traveltime": 0, "holidayTraveltime": 0}, {"Id": "9263", "pgp": 0, "GoBack": 1, "SID": 8312, "NameZh": "\u8208\u9054\u570b\u5c0f", "RouteId": 8043, "SeqNo": 3, "Terminal": 0, "DistrictId": 1, "Latitude": 22.875399, "Longitude": 120.196344, "IVRNo": 9840, "EXTVoiceNo": 9263, "traveltime": 0, "holidayTraveltime": 0}, {"Id": "1366", "pgp": 0, "GoBack": 1, "SID": 11875, "NameZh": "\u5d0e\u6f0f\u96fb\u4fe1\u5c40", "RouteId": 8043, "SeqNo": 4, "Terminal": 0, "DistrictId": 1, "Latitude": 22.874576, "Longitude": 120.193723, "IVRNo": 11366, "EXTVoiceNo": 11366, "traveltime": 0, "holidayTraveltime": 0}, {"Id": "1364", "pgp": 0, "GoBack": 1, "SID": 12063, "NameZh": "\u5d0e\u6f0f\u8fb2\u6703", "RouteId": 8043, "SeqNo": 5, "Terminal": 0, "DistrictId": 1, "Latitude": 22.873799, "Longitude": 120.191451, "IVRNo": 11364, "EXTVoiceNo": 11364, "traveltime": 0, "holidayTraveltime": 0}, {"Id": "9259", "pgp": 0, "GoBack": 1, "SID": 14534, "NameZh": "\u5d0e\u6f0f", "RouteId": 8043, "SeqNo": 6, "Terminal": 0, "DistrictId": 1, "Latitude": 22.877477, "Longitude": 120.189018, "IVRNo": 9836, "EXTVoiceNo": 9259, "traveltime": 0, "holidayTraveltime": 0}, {"Id": "0543", "pgp": 0, "GoBack": 1, "SID": 14288, "NameZh": "\u5317\u5d0e\u6f0f", "RouteId": 8043, "SeqNo": 7, "Terminal": 0, "DistrictId": 1, "Latitude": 22.879224, "Longitude": 120.188445, "IVRNo": 10543, "EXTVoiceNo": 10543, "traveltime": 0, "holidayTraveltime": 0}, {"Id": "9257", "pgp": 0, "GoBack": 1, "SID": 17641, "NameZh": "\u6210\u529f\u6a4b", "RouteId": 8043, "SeqNo": 8, "Terminal": 0, "DistrictId": 1, "Latitude": 22.889814, "Longitude": 120.187055, "IVRNo": 9834, "EXTVoiceNo": 9257, "traveltime": 0, "holidayTraveltime": 0}, {"Id": "0730", "pgp": 0, "GoBack": 1, "SID": 17642, "NameZh": "\u5149\u8423", "RouteId": 8043, "SeqNo": 9, "Terminal": 0, "DistrictId": 1, "Latitude": 22.892801, "Longitude": 120.186367, "IVRNo": 9833, "EXTVoiceNo": 10730, "traveltime": 0, "holidayTraveltime": 0}, {"Id": "1138", "pgp": 0, "GoBack": 1, "SID": 17643, "NameZh": "\u8304\u8423\u8fb2\u6703(\u4e0b\u8304\u8423)", "RouteId": 8043, "SeqNo": 10, "Terminal": 0, "DistrictId": 1, "Latitude": 22.895626, "Longitude": 120.185136, "IVRNo": 9832, "EXTVoiceNo": 21138, "traveltime": 0, "holidayTraveltime": 0}, {"Id": "9254", "pgp": 0, "GoBack": 1, "SID": 17644, "NameZh": "\u9802\u8304\u5b9a", "RouteId": 8043, "SeqNo": 11, "Terminal": 0, "DistrictId": 1, "Latitude": 22.89816, "Longitude": 120.18473, "IVRNo": 641, "EXTVoiceNo": 9254, "traveltime": 0, "holidayTraveltime": 0}, {"Id": "9253", "pgp": 0, "GoBack": 1, "SID": 17645, "NameZh": "\u66fe\u539d", "RouteId": 8043, "SeqNo": 12, "Terminal": 0, "DistrictId": 1, "Latitude": 22.90119, "Longitude": 120.18406, "IVRNo": 9830, "EXTVoiceNo": 9253, "traveltime": 0, "holidayTraveltime": 0}, {"Id": "0640", "pgp": 0, "GoBack": 1, "SID": 17128, "NameZh": "\u570b\u6821\u524d", "RouteId": 8043, "SeqNo": 13, "Terminal": 0, "DistrictId": 1, "Latitude": 22.903264, "Longitude": 120.18377, "IVRNo": 9125, "EXTVoiceNo": 640, "traveltime": 0, "holidayTraveltime": 0}, {"Id": "0907", "pgp": 0, "GoBack": 1, "SID": 17651, "NameZh": "\u8304\u8423\u90f5\u5c40", "RouteId": 8043, "SeqNo": 14, "Terminal": 0, "DistrictId": 1, "Latitude": 22.904212, "Longitude": 120.187016, "IVRNo": 907, "EXTVoiceNo": 907, "traveltime": 0, "holidayTraveltime": 0}, {"Id": "0717", "pgp": 0, "GoBack": 1, "SID": 17646, "NameZh": "\u767d\u96f2\u91cc", "RouteId": 8043, "SeqNo": 15, "Terminal": 0, "DistrictId": 1, "Latitude": 22.91199, "Longitude": 120.1873, "IVRNo": 9454, "EXTVoiceNo": 10717, "traveltime": 0, "holidayTraveltime": 0}, {"Id": "9196", "pgp": 0, "GoBack": 1, "SID": 17649, "NameZh": "\u767d\u7802\u5d19", "RouteId": 8043, "SeqNo": 16, "Terminal": 0, "DistrictId": 1, "Latitude": 22.91279, "Longitude": 120.18513, "IVRNo": 9672, "EXTVoiceNo": 9196, "traveltime": 0, "holidayTraveltime": 0}, {"Id": "9197", "pgp": 0, "GoBack": 1, "SID": 17648, "NameZh": "\u5357\u767d\u7802\u5d19", "RouteId": 8043, "SeqNo": 17, "Terminal": 0, "DistrictId": 1, "Latitude": 22.91077, "Longitude": 120.18459, "IVRNo": 9673, "EXTVoiceNo": 9197, "traveltime": 0, "holidayTraveltime": 0}, {"Id": "2315", "pgp": 0, "GoBack": 1, "SID": 17095, "NameZh": "\u8304\u8423\u96fb\u4fe1\u5c40", "RouteId": 8043, "SeqNo": 18, "Terminal": 0, "DistrictId": 1, "Latitude": 22.909345, "Longitude": 120.184375, "IVRNo": 2315, "EXTVoiceNo": 2315, "traveltime": 0, "holidayTraveltime": 0}, {"Id": "0442", "pgp": 0, "GoBack": 1, "SID": 17157, "NameZh": "\u5a01\u6b66\u5edf", "RouteId": 8043, "SeqNo": 19, "Terminal": 0, "DistrictId": 1, "Latitude": 22.907336, "Longitude": 120.183976, "IVRNo": 9123, "EXTVoiceNo": 442, "traveltime": 0, "holidayTraveltime": 0}, {"Id": "0639", "pgp": 0, "GoBack": 1, "SID": 17980, "NameZh": "\u8304\u8423\u5340\u516c\u6240(\u8304\u8423\u570b\u4e2d)", "RouteId": 8043, "SeqNo": 20, "Terminal": 0, "DistrictId": 1, "Latitude": 22.9064, "Longitude": 120.1837, "IVRNo": 9828, "EXTVoiceNo": 639, "traveltime": 0, "holidayTraveltime": 0}, {"Id": "0640", "pgp": 0, "GoBack": 1, "SID": 17599, "NameZh": "\u570b\u6821\u524d", "RouteId": 8043, "SeqNo": 21, "Terminal": 0, "DistrictId": 1, "Latitude": 22.903264, "Longitude": 120.18377, "IVRNo": 9125, "EXTVoiceNo": 640, "traveltime": 0, "holidayTraveltime": 0}, {"Id": "9253", "pgp": 0, "GoBack": 1, "SID": 17653, "NameZh": "\u66fe\u539d", "RouteId": 8043, "SeqNo": 22, "Terminal": 0, "DistrictId": 1, "Latitude": 22.90119, "Longitude": 120.18406, "IVRNo": 9830, "EXTVoiceNo": 9253, "traveltime": 0, "holidayTraveltime": 0}, {"Id": "9254", "pgp": 0, "GoBack": 1, "SID": 17654, "NameZh": "\u9802\u8304\u5b9a", "RouteId": 8043, "SeqNo": 23, "Terminal": 0, "DistrictId": 1, "Latitude": 22.89816, "Longitude": 120.18473, "IVRNo": 641, "EXTVoiceNo": 9254, "traveltime": 0, "holidayTraveltime": 0}, {"Id": "1138", "pgp": 0, "GoBack": 1, "SID": 17655, "NameZh": "\u8304\u8423\u8fb2\u6703(\u4e0b\u8304\u8423)", "RouteId": 8043, "SeqNo": 24, "Terminal": 0, "DistrictId": 1, "Latitude": 22.895801, "Longitude": 120.185109, "IVRNo": 9832, "EXTVoiceNo": 21138, "traveltime": 0, "holidayTraveltime": 0}, {"Id": "0730", "pgp": 0, "GoBack": 1, "SID": 17656, "NameZh": "\u5149\u8423", "RouteId": 8043, "SeqNo": 25, "Terminal": 0, "DistrictId": 1, "Latitude": 22.892918, "Longitude": 120.186329, "IVRNo": 9833, "EXTVoiceNo": 10730, "traveltime": 0, "holidayTraveltime": 0}, {"Id": "9257", "pgp": 0, "GoBack": 1, "SID": 17657, "NameZh": "\u6210\u529f\u6a4b", "RouteId": 8043, "SeqNo": 26, "Terminal": 0, "DistrictId": 1, "Latitude": 22.889985, "Longitude": 120.187036, "IVRNo": 9834, "EXTVoiceNo": 9257, "traveltime": 0, "holidayTraveltime": 0}, {"Id": "0543", "pgp": 0, "GoBack": 1, "SID": 17658, "NameZh": "\u5317\u5d0e\u6f0f", "RouteId": 8043, "SeqNo": 27, "Terminal": 0, "DistrictId": 1, "Latitude": 22.87936, "Longitude": 120.188419, "IVRNo": 10543, "EXTVoiceNo": 10543, "traveltime": 0, "holidayTraveltime": 0}, {"Id": "9259", "pgp": 0, "GoBack": 1, "SID": 17659, "NameZh": "\u5d0e\u6f0f", "RouteId": 8043, "SeqNo": 28, "Terminal": 0, "DistrictId": 1, "Latitude": 22.877601, "Longitude": 120.188955, "IVRNo": 9836, "EXTVoiceNo": 9259, "traveltime": 0, "holidayTraveltime": 0}, {"Id": "1364", "pgp": 0, "GoBack": 1, "SID": 17661, "NameZh": "\u5d0e\u6f0f\u8fb2\u6703", "RouteId": 8043, "SeqNo": 29, "Terminal": 0, "DistrictId": 1, "Latitude": 22.873799, "Longitude": 120.191451, "IVRNo": 11364, "EXTVoiceNo": 11364, "traveltime": 0, "holidayTraveltime": 0}, {"Id": "1366", "pgp": 0, "GoBack": 1, "SID": 17660, "NameZh": "\u5d0e\u6f0f\u96fb\u4fe1\u5c40", "RouteId": 8043, "SeqNo": 30, "Terminal": 0, "DistrictId": 1, "Latitude": 22.874576, "Longitude": 120.193723, "IVRNo": 11366, "EXTVoiceNo": 11366, "traveltime": 0, "holidayTraveltime": 0}, {"Id": "9263", "pgp": 0, "GoBack": 1, "SID": 17662, "NameZh": "\u8208\u9054\u570b\u5c0f", "RouteId": 8043, "SeqNo": 31, "Terminal": 0, "DistrictId": 1, "Latitude": 22.875399, "Longitude": 120.196344, "IVRNo": 9840, "EXTVoiceNo": 9263, "traveltime": 0, "holidayTraveltime": 0}, {"Id": "0444", "pgp": 0, "GoBack": 1, "SID": 17652, "NameZh": "\u8208\u9054\u6e2f\u6d77\u5de1\u7f72\u57fa\u5730", "RouteId": 8043, "SeqNo": 32, "Terminal": 0, "DistrictId": 1, "Latitude": 22.876096, "Longitude": 120.201039, "IVRNo": 9455, "EXTVoiceNo": 444, "traveltime": 0, "holidayTraveltime": 0}, {"Id": "1987", "pgp": 0, "GoBack": 1, "SID": 17663, "NameZh": "\u8208\u9054\u6e2f(\u6b63\u5927\u8def)", "RouteId": 8043, "SeqNo": 33, "Terminal": 0, "DistrictId": 1, "Latitude": 22.87836, "Longitude": 120.20379, "IVRNo": 9841, "EXTVoiceNo": 11987, "traveltime": 0, "holidayTraveltime": 0}, {"Id": "9266", "pgp": 0, "GoBack": 1, "SID": 17665, "NameZh": "\u60c5\u4eba\u78bc\u982d", "RouteId": 8043, "SeqNo": 34, "Terminal": 0, "DistrictId": 1, "Latitude": 22.88059, "Longitude": 120.21119, "IVRNo": 9842, "EXTVoiceNo": 9266, "traveltime": 0, "holidayTraveltime": 0}, {"Id": "0446", "pgp": 0, "GoBack": 1, "SID": 17677, "NameZh": "\u5047\u65e5\u5e02\u96c6", "RouteId": 8043, "SeqNo": 35, "Terminal": 0, "DistrictId": 1, "Latitude": 22.879432, "Longitude": 120.213945, "IVRNo": 9456, "EXTVoiceNo": 446, "traveltime": 0, "holidayTraveltime": 0}, {"Id": "9268", "pgp": 0, "GoBack": 1, "SID": 17664, "NameZh": "\u8208\u9054\u9060\u6d0b\u6f01\u6e2f", "RouteId": 8043, "SeqNo": 36, "Terminal": 0, "DistrictId": 1, "Latitude": 22.8767, "Longitude": 120.21397, "IVRNo": 905, "EXTVoiceNo": 9268, "traveltime": 0, "holidayTraveltime": 0}, {"Id": "1166", "pgp": 0, "GoBack": 1, "SID": 17666, "NameZh": "\u5927\u6e56\u57e4", "RouteId": 8043, "SeqNo": 37, "Terminal": 0, "DistrictId": 1, "Latitude": 22.87435, "Longitude": 120.22499, "IVRNo": 10205, "EXTVoiceNo": 21166, "traveltime": 0, "holidayTraveltime": 0}, {"Id": "0475", "pgp": 0, "GoBack": 1, "SID": 17678, "NameZh": "\u65b0\u7af9\u6eec", "RouteId": 8043, "SeqNo": 38, "Terminal": 0, "DistrictId": 1, "Latitude": 22.858533, "Longitude": 120.2279, "IVRNo": 9466, "EXTVoiceNo": 475, "traveltime": 0, "holidayTraveltime": 0}, {"Id": "0425", "pgp": 0, "GoBack": 1, "SID": 17702, "NameZh": "\u4e09\u584a\u539d", "RouteId": 8043, "SeqNo": 39, "Terminal": 0, "DistrictId": 1, "Latitude": 22.850248, "Longitude": 120.229492, "IVRNo": 9467, "EXTVoiceNo": 425, "traveltime": 0, "holidayTraveltime": 0}, {"Id": "1133", "pgp": 0, "GoBack": 1, "SID": 17669, "NameZh": "\u4e0b\u7532", "RouteId": 8043, "SeqNo": 40, "Terminal": 0, "DistrictId": 1, "Latitude": 22.847736, "Longitude": 120.230281, "IVRNo": 10090, "EXTVoiceNo": 21133, "traveltime": 0, "holidayTraveltime": 0}, {"Id": "1040", "pgp": 0, "GoBack": 1, "SID": 17670, "NameZh": "\u4fdd\u5be7", "RouteId": 8043, "SeqNo": 41, "Terminal": 0, "DistrictId": 1, "Latitude": 22.83512, "Longitude": 120.2346, "IVRNo": 11040, "EXTVoiceNo": 11040, "traveltime": 0, "holidayTraveltime": 0}, {"Id": "1080", "pgp": 0, "GoBack": 1, "SID": 17671, "NameZh": "\u5357\u4fdd\u5be7", "RouteId": 8043, "SeqNo": 42, "Terminal": 0, "DistrictId": 1, "Latitude": 22.8326, "Longitude": 120.2346, "IVRNo": 11080, "EXTVoiceNo": 11080, "traveltime": 0, "holidayTraveltime": 0}, {"Id": "9123", "pgp": 0, "GoBack": 1, "SID": 17672, "NameZh": "\u6c38\u5b89\u570b\u4e2d", "RouteId": 8043, "SeqNo": 43, "Terminal": 0, "DistrictId": 1, "Latitude": 22.823458, "Longitude": 120.238091, "IVRNo": 9550, "EXTVoiceNo": 9123, "traveltime": 0, "holidayTraveltime": 0}, {"Id": "9549", "pgp": 0, "GoBack": 1, "SID": 17673, "NameZh": "\u7267\u5834", "RouteId": 8043, "SeqNo": 44, "Terminal": 0, "DistrictId": 1, "Latitude": 22.81813, "Longitude": 120.24058, "IVRNo": 9549, "EXTVoiceNo": 9549, "traveltime": 0, "holidayTraveltime": 0}, {"Id": "1054", "pgp": 0, "GoBack": 1, "SID": 17674, "NameZh": "\u5357\u5929\u5bae(\u6c38\u5b89)", "RouteId": 8043, "SeqNo": 45, "Terminal": 0, "DistrictId": 1, "Latitude": 22.8159, "Longitude": 120.24162, "IVRNo": 9548, "EXTVoiceNo": 11054, "traveltime": 0, "holidayTraveltime": 0}, {"Id": "9120", "pgp": 0, "GoBack": 1, "SID": 17675, "NameZh": "\u5929\u6587\u5bae", "RouteId": 8043, "SeqNo": 46, "Terminal": 0, "DistrictId": 1, "Latitude": 22.8134, "Longitude": 120.2426, "IVRNo": 9547, "EXTVoiceNo": 9120, "traveltime": 0, "holidayTraveltime": 0}, {"Id": "0836", "pgp": 0, "GoBack": 1, "SID": 17676, "NameZh": "\u897f\u7dad\u65b0", "RouteId": 8043, "SeqNo": 47, "Terminal": 0, "DistrictId": 1, "Latitude": 22.80931, "Longitude": 120.24313, "IVRNo": 836, "EXTVoiceNo": 836, "traveltime": 0, "holidayTraveltime": 0}, {"Id": "0430", "pgp": 0, "GoBack": 1, "SID": 17703, "NameZh": "\u4e94\u5206\u4ed4", "RouteId": 8043, "SeqNo": 48, "Terminal": 0, "DistrictId": 1, "Latitude": 22.793455, "Longitude": 120.244138, "IVRNo": 9473, "EXTVoiceNo": 430, "traveltime": 0, "holidayTraveltime": 0}, {"Id": "9559", "pgp": 0, "GoBack": 1, "SID": 17768, "NameZh": "\u5f4c\u9640\u52a0\u6cb9\u7ad9", "RouteId": 8043, "SeqNo": 49, "Terminal": 0, "DistrictId": 1, "Latitude": 22.78992, "Longitude": 120.24563, "IVRNo": 9544, "EXTVoiceNo": 9559, "traveltime": 0, "holidayTraveltime": 0}, {"Id": "9116", "pgp": 0, "GoBack": 1, "SID": 17802, "NameZh": "\u9e7d\u57d5", "RouteId": 8043, "SeqNo": 50, "Terminal": 0, "DistrictId": 1, "Latitude": 22.78731, "Longitude": 120.24674, "IVRNo": 9543, "EXTVoiceNo": 9116, "traveltime": 0, "holidayTraveltime": 0}, {"Id": "7912", "pgp": 0, "GoBack": 1, "SID": 17679, "NameZh": "\u5f4c\u9640\u570b\u5c0f", "RouteId": 8043, "SeqNo": 51, "Terminal": 0, "DistrictId": 1, "Latitude": 22.78417, "Longitude": 120.24792, "IVRNo": 7912, "EXTVoiceNo": 7912, "traveltime": 0, "holidayTraveltime": 0}, {"Id": "7911", "pgp": 0, "GoBack": 1, "SID": 17680, "NameZh": "\u5f4c\u9640\u5340\u516c\u6240", "RouteId": 8043, "SeqNo": 52, "Terminal": 0, "DistrictId": 1, "Latitude": 22.780406, "Longitude": 120.249338, "IVRNo": 7911, "EXTVoiceNo": 7911, "traveltime": 0, "holidayTraveltime": 0}, {"Id": "7910", "pgp": 0, "GoBack": 1, "SID": 5348, "NameZh": "\u5f4c\u9640\u570b\u4e2d(\u4e2d\u6b63\u5357\u8def)", "RouteId": 8043, "SeqNo": 53, "Terminal": 0, "DistrictId": 1, "Latitude": 22.77741, "Longitude": 120.25091, "IVRNo": 869, "EXTVoiceNo": 7910, "traveltime": 0, "holidayTraveltime": 0}, {"Id": "0014", "pgp": 0, "GoBack": 1, "SID": 17682, "NameZh": "\u4e8c\u9ad8", "RouteId": 8043, "SeqNo": 54, "Terminal": 0, "DistrictId": 1, "Latitude": 22.77394, "Longitude": 120.25437, "IVRNo": 10033, "EXTVoiceNo": 20014, "traveltime": 0, "holidayTraveltime": 0}, {"Id": "0535", "pgp": 0, "GoBack": 1, "SID": 17683, "NameZh": "\u5206\u6b67\u7ad9", "RouteId": 8043, "SeqNo": 55, "Terminal": 0, "DistrictId": 1, "Latitude": 22.77039, "Longitude": 120.25809, "IVRNo": 535, "EXTVoiceNo": 535, "traveltime": 0, "holidayTraveltime": 0}, {"Id": "7908", "pgp": 0, "GoBack": 1, "SID": 17684, "NameZh": "\u4fe1\u7fa9\u8def", "RouteId": 8043, "SeqNo": 56, "Terminal": 0, "DistrictId": 1, "Latitude": 22.762131, "Longitude": 120.262398, "IVRNo": 7908, "EXTVoiceNo": 7908, "traveltime": 0, "holidayTraveltime": 0}, {"Id": "7906", "pgp": 0, "GoBack": 1, "SID": 19115, "NameZh": "\u6893\u5b98\u5340\u516c\u6240", "RouteId": 8043, "SeqNo": 57, "Terminal": 0, "DistrictId": 1, "Latitude": 22.760647, "Longitude": 120.266716, "IVRNo": 7906, "EXTVoiceNo": 7906, "traveltime": 0, "holidayTraveltime": 0}, {"Id": "1397", "pgp": 0, "GoBack": 1, "SID": 17685, "NameZh": "\u6893\u5b98", "RouteId": 8043, "SeqNo": 58, "Terminal": 0, "DistrictId": 1, "Latitude": 22.75994, "Longitude": 120.26715, "IVRNo": 11397, "EXTVoiceNo": 11397, "traveltime": 0, "holidayTraveltime": 0}, {"Id": "1084", "pgp": 0, "GoBack": 1, "SID": 17686, "NameZh": "\u5357\u6893\u5b98", "RouteId": 8043, "SeqNo": 59, "Terminal": 0, "DistrictId": 1, "Latitude": 22.75774, "Longitude": 120.2675, "IVRNo": 11084, "EXTVoiceNo": 11084, "traveltime": 0, "holidayTraveltime": 0}, {"Id": "0944", "pgp": 0, "GoBack": 1, "SID": 17687, "NameZh": "\u540c\u5b89", "RouteId": 8043, "SeqNo": 60, "Terminal": 0, "DistrictId": 1, "Latitude": 22.75202, "Longitude": 120.26581, "IVRNo": 10944, "EXTVoiceNo": 10944, "traveltime": 0, "holidayTraveltime": 0}, {"Id": "0089", "pgp": 0, "GoBack": 1, "SID": 15349, "NameZh": "\u5927\u820d\u7532", "RouteId": 8043, "SeqNo": 61, "Terminal": 0, "DistrictId": 1, "Latitude": 22.74805, "Longitude": 120.26321, "IVRNo": 10175, "EXTVoiceNo": 20089, "traveltime": 0, "holidayTraveltime": 0}, {"Id": "0094", "pgp": 0, "GoBack": 1, "SID": 17688, "NameZh": "\u5927\u820d\u7532\u8fb2\u6703(\u5927\u820d\u8fa6\u4e8b\u8655)", "RouteId": 8043, "SeqNo": 62, "Terminal": 0, "DistrictId": 1, "Latitude": 22.746953, "Longitude": 120.261503, "IVRNo": 8846, "EXTVoiceNo": 20094, "traveltime": 0, "holidayTraveltime": 0}, {"Id": "0868", "pgp": 0, "GoBack": 1, "SID": 17689, "NameZh": "\u4e9e\u71b1\u5e36", "RouteId": 8043, "SeqNo": 63, "Terminal": 0, "DistrictId": 1, "Latitude": 22.74318, "Longitude": 120.26279, "IVRNo": 8847, "EXTVoiceNo": 10868, "traveltime": 0, "holidayTraveltime": 0}, {"Id": "8848", "pgp": 0, "GoBack": 1, "SID": 17690, "NameZh": "\u5927\u820d\u5357\u8def(\u5178\u5bf6\u6a4b)", "RouteId": 8043, "SeqNo": 64, "Terminal": 0, "DistrictId": 1, "Latitude": 22.73866, "Longitude": 120.264722, "IVRNo": 8848, "EXTVoiceNo": 8848, "traveltime": 0, "holidayTraveltime": 0}, {"Id": "0534", "pgp": 0, "GoBack": 1, "SID": 17691, "NameZh": "\u6771\u5bf6\u516c\u53f8", "RouteId": 8043, "SeqNo": 65, "Terminal": 0, "DistrictId": 1, "Latitude": 22.734554, "Longitude": 120.26783, "IVRNo": 534, "EXTVoiceNo": 534, "traveltime": 0, "holidayTraveltime": 0}, {"Id": "0526", "pgp": 0, "GoBack": 1, "SID": 17692, "NameZh": "\u8349\u6a4b", "RouteId": 8043, "SeqNo": 66, "Terminal": 0, "DistrictId": 1, "Latitude": 22.730922, "Longitude": 120.271152, "IVRNo": 526, "EXTVoiceNo": 526, "traveltime": 0, "holidayTraveltime": 0}, {"Id": "0525", "pgp": 0, "GoBack": 1, "SID": 17693, "NameZh": "\u9ad8\u96c4\u5927\u5b78(\u5fb7\u4e2d\u8def)", "RouteId": 8043, "SeqNo": 67, "Terminal": 0, "DistrictId": 1, "Latitude": 22.727489, "Longitude": 120.273837, "IVRNo": 702, "EXTVoiceNo": 525, "traveltime": 0, "holidayTraveltime": 0}, {"Id": "7421", "pgp": 0, "GoBack": 1, "SID": 17694, "NameZh": "\u63f4\u4e2d\u6e2f", "RouteId": 8043, "SeqNo": 68, "Terminal": 0, "DistrictId": 1, "Latitude": 22.72232, "Longitude": 120.27837, "IVRNo": 7421, "EXTVoiceNo": 7421, "traveltime": 0, "holidayTraveltime": 0}, {"Id": "0179", "pgp": 0, "GoBack": 1, "SID": 17695, "NameZh": "\u4e94\u798f\u793e\u5340", "RouteId": 8043, "SeqNo": 69, "Terminal": 0, "DistrictId": 1, "Latitude": 22.718896, "Longitude": 120.28389, "IVRNo": 7423, "EXTVoiceNo": 20179, "traveltime": 0, "holidayTraveltime": 0}, {"Id": "1983", "pgp": 0, "GoBack": 1, "SID": 17696, "NameZh": "\u8208\u660c\u91cc", "RouteId": 8043, "SeqNo": 70, "Terminal": 0, "DistrictId": 1, "Latitude": 22.71708, "Longitude": 120.28715, "IVRNo": 1983, "EXTVoiceNo": 1983, "traveltime": 0, "holidayTraveltime": 0}, {"Id": "0261", "pgp": 0, "GoBack": 1, "SID": 17697, "NameZh": "\u5317\u53f3\u660c(\u53f3\u660c\u8857)", "RouteId": 8043, "SeqNo": 71, "Terminal": 0, "DistrictId": 1, "Latitude": 22.714229, "Longitude": 120.289354, "IVRNo": 7406, "EXTVoiceNo": 20261, "traveltime": 0, "holidayTraveltime": 0}, {"Id": "7437", "pgp": 0, "GoBack": 1, "SID": 4618, "NameZh": "\u53f3\u660c(\u4e09\u5c71\u8857\u53e3)", "RouteId": 8043, "SeqNo": 72, "Terminal": 0, "DistrictId": 1, "Latitude": 22.710838, "Longitude": 120.289329, "IVRNo": 7437, "EXTVoiceNo": 7437, "traveltime": 0, "holidayTraveltime": 0}, {"Id": "7308", "pgp": 0, "GoBack": 1, "SID": 17699, "NameZh": "\u8392\u5149\u65b0\u6751(\u8ecd\u6821\u8def)", "RouteId": 8043, "SeqNo": 73, "Terminal": 0, "DistrictId": 1, "Latitude": 22.70614, "Longitude": 120.29276, "IVRNo": 7207, "EXTVoiceNo": 7308, "traveltime": 0, "holidayTraveltime": 0}, {"Id": "7309", "pgp": 0, "GoBack": 1, "SID": 17700, "NameZh": "\u570b\u8ecd\u5de6\u71df\u91ab\u9662(\u4e16\u904b\u5927\u9053\u8def\u53e3)", "RouteId": 8043, "SeqNo": 74, "Terminal": 0, "DistrictId": 1, "Latitude": 22.701082, "Longitude": 120.292391, "IVRNo": 7306, "EXTVoiceNo": 7309, "traveltime": 0, "holidayTraveltime": 0}, {"Id": "2291", "pgp": 0, "GoBack": 1, "SID": 4828, "NameZh": "\u5de6\u71df\u79ae\u62dc\u5802(\u6d77\u529f\u8def)", "RouteId": 8043, "SeqNo": 75, "Terminal": 0, "DistrictId": 1, "Latitude": 22.693622, "Longitude": 120.293497, "IVRNo": 7370, "EXTVoiceNo": 32291, "traveltime": 0, "holidayTraveltime": 0}, {"Id": "2293", "pgp": 0, "GoBack": 1, "SID": 17712, "NameZh": "\u6d77\u529f\u8def(\u9032\u5b78\u8def\u53e3)", "RouteId": 8043, "SeqNo": 76, "Terminal": 0, "DistrictId": 1, "Latitude": 22.693667, "Longitude": 120.294852, "IVRNo": 7312, "EXTVoiceNo": 32293, "traveltime": 0, "holidayTraveltime": 0}, {"Id": "7368", "pgp": 0, "GoBack": 1, "SID": 17701, "NameZh": "\u5de6\u71df\u9ad8\u4e2d", "RouteId": 8043, "SeqNo": 77, "Terminal": 0, "DistrictId": 1, "Latitude": 22.693566, "Longitude": 120.297096, "IVRNo": 7368, "EXTVoiceNo": 7368, "traveltime": 0, "holidayTraveltime": 0}, {"Id": "4787", "pgp": 0, "GoBack": 1, "SID": 19117, "NameZh": "\u83dc\u516c\u8def\u53e3(\u5de6\u71df\u5927\u8def)", "RouteId": 8043, "SeqNo": 78, "Terminal": 0, "DistrictId": 1, "Latitude": 22.692739, "Longitude": 120.298494, "IVRNo": 4786, "EXTVoiceNo": 4787, "traveltime": 0, "holidayTraveltime": 0}, {"Id": "0614", "pgp": 0, "GoBack": 1, "SID": 17713, "NameZh": "\u8c50\u7a40\u5bae(\u9032\u5b78\u8def\u53e3)", "RouteId": 8043, "SeqNo": 79, "Terminal": 0, "DistrictId": 1, "Latitude": 22.69048, "Longitude": 120.29638, "IVRNo": 9001, "EXTVoiceNo": 20614, "traveltime": 0, "holidayTraveltime": 0}, {"Id": "4760", "pgp": 0, "GoBack": 1, "SID": 3398, "NameZh": "\u5de6\u71df\u5e02\u5834", "RouteId": 8043, "SeqNo": 80, "Terminal": 0, "DistrictId": 1, "Latitude": 22.687638, "Longitude": 120.293394, "IVRNo": 4728, "EXTVoiceNo": 4760, "traveltime": 0, "holidayTraveltime": 0}, {"Id": "4761", "pgp": 0, "GoBack": 1, "SID": 17704, "NameZh": "\u5de6\u71df\u5927\u8def", "RouteId": 8043, "SeqNo": 81, "Terminal": 0, "DistrictId": 1, "Latitude": 22.68616, "Longitude": 120.29059, "IVRNo": 4727, "EXTVoiceNo": 4761, "traveltime": 0, "holidayTraveltime": 0}, {"Id": "4762", "pgp": 0, "GoBack": 1, "SID": 3273, "NameZh": "\u5e97\u4ed4\u9802\u8def\u53e3", "RouteId": 8043, "SeqNo": 82, "Terminal": 0, "DistrictId": 1, "Latitude": 22.68434, "Longitude": 120.289286, "IVRNo": 4726, "EXTVoiceNo": 4762, "traveltime": 0, "holidayTraveltime": 0}, {"Id": "4763", "pgp": 0, "GoBack": 1, "SID": 17706, "NameZh": "\u5de6\u71df\u8fb2\u6703", "RouteId": 8043, "SeqNo": 83, "Terminal": 0, "DistrictId": 1, "Latitude": 22.68229, "Longitude": 120.28806, "IVRNo": 4725, "EXTVoiceNo": 4763, "traveltime": 0, "holidayTraveltime": 0}, {"Id": "8001", "pgp": 0, "GoBack": 1, "SID": 17707, "NameZh": "\u5de6\u71df\u5357\u7ad9", "RouteId": 8043, "SeqNo": 84, "Terminal": 0, "DistrictId": 1, "Latitude": 22.679766, "Longitude": 120.287318, "IVRNo": 8000, "EXTVoiceNo": 8001, "traveltime": 0, "holidayTraveltime": 0}, {"Id": "4765", "pgp": 0, "GoBack": 1, "SID": 17708, "NameZh": "\u6d77\u9752\u5de5\u5546", "RouteId": 8043, "SeqNo": 85, "Terminal": 0, "DistrictId": 1, "Latitude": 22.67489, "Longitude": 120.2864, "IVRNo": 4723, "EXTVoiceNo": 4765, "traveltime": 0, "holidayTraveltime": 0}, {"Id": "5844", "pgp": 0, "GoBack": 1, "SID": 17709, "NameZh": "\u679c\u8cbf\u793e\u5340", "RouteId": 8043, "SeqNo": 86, "Terminal": 0, "DistrictId": 1, "Latitude": 22.67003, "Longitude": 120.28643, "IVRNo": 5840, "EXTVoiceNo": 5844, "traveltime": 0, "holidayTraveltime": 0}, {"Id": "5845", "pgp": 0, "GoBack": 1, "SID": 17710, "NameZh": "\u660e\u8aa0\u4e2d\u5b78", "RouteId": 8043, "SeqNo": 87, "Terminal": 0, "DistrictId": 1, "Latitude": 22.6657, "Longitude": 120.29159, "IVRNo": 5839, "EXTVoiceNo": 5845, "traveltime": 0, "holidayTraveltime": 0}, {"Id": "5846", "pgp": 0, "GoBack": 1, "SID": 17711, "NameZh": "\u660e\u8aa0\u8def\u53e3(\u4e2d\u83ef\u4e00\u8def)", "RouteId": 8043, "SeqNo": 88, "Terminal": 0, "DistrictId": 1, "Latitude": 22.66276, "Longitude": 120.29241, "IVRNo": 936, "EXTVoiceNo": 5846, "traveltime": 0, "holidayTraveltime": 0}, {"Id": "0434", "pgp": 0, "GoBack": 1, "SID": 17714, "NameZh": "\u5e02\u7acb\u806f\u5408\u91ab\u9662", "RouteId": 8043, "SeqNo": 89, "Terminal": 0, "DistrictId": 1, "Latitude": 22.65526, "Longitude": 120.29208, "IVRNo": 5836, "EXTVoiceNo": 434, "traveltime": 0, "holidayTraveltime": 0}, {"Id": "4035", "pgp": 0, "GoBack": 1, "SID": 2728, "NameZh": "\u9f8d\u5b50\u91cc", "RouteId": 8043, "SeqNo": 90, "Terminal": 0, "DistrictId": 1, "Latitude": 22.651714, "Longitude": 120.291914, "IVRNo": 4035, "EXTVoiceNo": 4035, "traveltime": 0, "holidayTraveltime": 0}, {"Id": "0860", "pgp": 0, "GoBack": 1, "SID": 17715, "NameZh": "\u8b8a\u96fb\u6240(\u5341\u5168)", "RouteId": 8043, "SeqNo": 91, "Terminal": 0, "DistrictId": 1, "Latitude": 22.64611, "Longitude": 120.29359, "IVRNo": 860, "EXTVoiceNo": 860, "traveltime": 0, "holidayTraveltime": 0}, {"Id": "9993", "pgp": 0, "GoBack": 1, "SID": 17716, "NameZh": "\u9ad8\u5ba2\u81ea\u7acb\u7ad9", "RouteId": 8043, "SeqNo": 92, "Terminal": 0, "DistrictId": 1, "Latitude": 22.644787, "Longitude": 120.296466, "IVRNo": 19993, "EXTVoiceNo": 19993, "traveltime": 0, "holidayTraveltime": 0}, {"Id": "0400", "pgp": 0, "GoBack": 1, "SID": 17717, "NameZh": "\u907c\u5be7\u8857\u53e3(\u81ea\u7acb\u8def)", "RouteId": 8043, "SeqNo": 93, "Terminal": 0, "DistrictId": 1, "Latitude": 22.642134, "Longitude": 120.296124, "IVRNo": 239, "EXTVoiceNo": 20400, "traveltime": 0, "holidayTraveltime": 0}, {"Id": "0240", "pgp": 0, "GoBack": 1, "SID": 17718, "NameZh": "\u9ad8\u96c4\u4e2d\u5b78", "RouteId": 8043, "SeqNo": 94, "Terminal": 0, "DistrictId": 1, "Latitude": 22.63785, "Longitude": 120.29759, "IVRNo": 240, "EXTVoiceNo": 240, "traveltime": 0, "holidayTraveltime": 0}, {"Id": "9368", "pgp": 0, "GoBack": 1, "SID": 8983, "NameZh": "\u9ad8\u96c4\u7ad9(\u5357\u83ef\u8def)", "RouteId": 8043, "SeqNo": 95, "Terminal": 1, "DistrictId": 1, "Latitude": 22.637941, "Longitude": 120.303443, "IVRNo": 9034, "EXTVoiceNo": 9368, "traveltime": 0, "holidayTraveltime": 0}, {"Id": "9368", "pgp": 0, "GoBack": 2, "SID": 2146, "NameZh": "\u9ad8\u96c4\u7ad9(\u5357\u83ef\u8def)", "RouteId": 8043, "SeqNo": 1, "Terminal": 0, "DistrictId": 1, "Latitude": 22.638135, "Longitude": 120.303514, "IVRNo": 9034, "EXTVoiceNo": 9368, "traveltime": 0, "holidayTraveltime": 0}, {"Id": "0240", "pgp": 0, "GoBack": 2, "SID": 17559, "NameZh": "\u9ad8\u96c4\u4e2d\u5b78", "RouteId": 8043, "SeqNo": 2, "Terminal": 0, "DistrictId": 1, "Latitude": 22.63793, "Longitude": 120.29738, "IVRNo": 240, "EXTVoiceNo": 240, "traveltime": 0, "holidayTraveltime": 0}, {"Id": "0400", "pgp": 0, "GoBack": 2, "SID": 17560, "NameZh": "\u907c\u5be7\u8857\u53e3(\u81ea\u7acb\u8def)", "RouteId": 8043, "SeqNo": 3, "Terminal": 0, "DistrictId": 1, "Latitude": 22.64213, "Longitude": 120.29623, "IVRNo": 239, "EXTVoiceNo": 20400, "traveltime": 0, "holidayTraveltime": 0}, {"Id": "9993", "pgp": 0, "GoBack": 2, "SID": 17561, "NameZh": "\u9ad8\u5ba2\u81ea\u7acb\u7ad9", "RouteId": 8043, "SeqNo": 4, "Terminal": 0, "DistrictId": 1, "Latitude": 22.645333, "Longitude": 120.29655, "IVRNo": 19993, "EXTVoiceNo": 19993, "traveltime": 0, "holidayTraveltime": 0}, {"Id": "0860", "pgp": 0, "GoBack": 2, "SID": 17562, "NameZh": "\u8b8a\u96fb\u6240(\u5341\u5168)", "RouteId": 8043, "SeqNo": 5, "Terminal": 0, "DistrictId": 1, "Latitude": 22.64625, "Longitude": 120.29351, "IVRNo": 860, "EXTVoiceNo": 860, "traveltime": 0, "holidayTraveltime": 0}, {"Id": "4035", "pgp": 0, "GoBack": 2, "SID": 2791, "NameZh": "\u9f8d\u5b50\u91cc", "RouteId": 8043, "SeqNo": 6, "Terminal": 0, "DistrictId": 1, "Latitude": 22.651729, "Longitude": 120.292122, "IVRNo": 4035, "EXTVoiceNo": 4035, "traveltime": 0, "holidayTraveltime": 0}, {"Id": "0434", "pgp": 0, "GoBack": 2, "SID": 17719, "NameZh": "\u5e02\u7acb\u806f\u5408\u91ab\u9662", "RouteId": 8043, "SeqNo": 7, "Terminal": 0, "DistrictId": 1, "Latitude": 22.65511, "Longitude": 120.29231, "IVRNo": 5836, "EXTVoiceNo": 434, "traveltime": 0, "holidayTraveltime": 0}, {"Id": "5846", "pgp": 0, "GoBack": 2, "SID": 17566, "NameZh": "\u660e\u8aa0\u8def\u53e3(\u4e2d\u83ef\u4e00\u8def)", "RouteId": 8043, "SeqNo": 8, "Terminal": 0, "DistrictId": 1, "Latitude": 22.66223, "Longitude": 120.29271, "IVRNo": 936, "EXTVoiceNo": 5846, "traveltime": 0, "holidayTraveltime": 0}, {"Id": "5845", "pgp": 0, "GoBack": 2, "SID": 17567, "NameZh": "\u660e\u8aa0\u4e2d\u5b78", "RouteId": 8043, "SeqNo": 9, "Terminal": 0, "DistrictId": 1, "Latitude": 22.66533, "Longitude": 120.29234, "IVRNo": 5839, "EXTVoiceNo": 5845, "traveltime": 0, "holidayTraveltime": 0}, {"Id": "5844", "pgp": 0, "GoBack": 2, "SID": 17568, "NameZh": "\u679c\u8cbf\u793e\u5340", "RouteId": 8043, "SeqNo": 10, "Terminal": 0, "DistrictId": 1, "Latitude": 22.67112, "Longitude": 120.2867, "IVRNo": 5840, "EXTVoiceNo": 5844, "traveltime": 0, "holidayTraveltime": 0}, {"Id": "4765", "pgp": 0, "GoBack": 2, "SID": 17569, "NameZh": "\u6d77\u9752\u5de5\u5546", "RouteId": 8043, "SeqNo": 11, "Terminal": 0, "DistrictId": 1, "Latitude": 22.67438, "Longitude": 120.28664, "IVRNo": 4723, "EXTVoiceNo": 4765, "traveltime": 0, "holidayTraveltime": 0}, {"Id": "8001", "pgp": 0, "GoBack": 2, "SID": 17570, "NameZh": "\u5de6\u71df\u5357\u7ad9", "RouteId": 8043, "SeqNo": 12, "Terminal": 0, "DistrictId": 1, "Latitude": 22.67974, "Longitude": 120.28748, "IVRNo": 8000, "EXTVoiceNo": 8001, "traveltime": 0, "holidayTraveltime": 0}, {"Id": "4763", "pgp": 0, "GoBack": 2, "SID": 17571, "NameZh": "\u5de6\u71df\u8fb2\u6703", "RouteId": 8043, "SeqNo": 13, "Terminal": 0, "DistrictId": 1, "Latitude": 22.68217, "Longitude": 120.28822, "IVRNo": 4725, "EXTVoiceNo": 4763, "traveltime": 0, "holidayTraveltime": 0}, {"Id": "4762", "pgp": 0, "GoBack": 2, "SID": 3426, "NameZh": "\u5e97\u4ed4\u9802\u8def\u53e3", "RouteId": 8043, "SeqNo": 14, "Terminal": 0, "DistrictId": 1, "Latitude": 22.684445, "Longitude": 120.289323, "IVRNo": 4726, "EXTVoiceNo": 4762, "traveltime": 0, "holidayTraveltime": 0}, {"Id": "4761", "pgp": 0, "GoBack": 2, "SID": 17573, "NameZh": "\u5de6\u71df\u5927\u8def", "RouteId": 8043, "SeqNo": 15, "Terminal": 0, "DistrictId": 1, "Latitude": 22.68622, "Longitude": 120.29119, "IVRNo": 4727, "EXTVoiceNo": 4761, "traveltime": 0, "holidayTraveltime": 0}, {"Id": "4760", "pgp": 0, "GoBack": 2, "SID": 3292, "NameZh": "\u5de6\u71df\u5e02\u5834", "RouteId": 8043, "SeqNo": 16, "Terminal": 0, "DistrictId": 1, "Latitude": 22.687603, "Longitude": 120.293505, "IVRNo": 4728, "EXTVoiceNo": 4760, "traveltime": 0, "holidayTraveltime": 0}, {"Id": "0614", "pgp": 0, "GoBack": 2, "SID": 17574, "NameZh": "\u8c50\u7a40\u5bae(\u9032\u5b78\u8def\u53e3)", "RouteId": 8043, "SeqNo": 17, "Terminal": 0, "DistrictId": 1, "Latitude": 22.69038, "Longitude": 120.296441, "IVRNo": 9001, "EXTVoiceNo": 20614, "traveltime": 0, "holidayTraveltime": 0}, {"Id": "4787", "pgp": 0, "GoBack": 2, "SID": 19118, "NameZh": "\u83dc\u516c\u8def\u53e3(\u5de6\u71df\u5927\u8def)", "RouteId": 8043, "SeqNo": 18, "Terminal": 0, "DistrictId": 1, "Latitude": 22.69263, "Longitude": 120.29866, "IVRNo": 4786, "EXTVoiceNo": 4787, "traveltime": 0, "holidayTraveltime": 0}, {"Id": "7368", "pgp": 0, "GoBack": 2, "SID": 17576, "NameZh": "\u5de6\u71df\u9ad8\u4e2d", "RouteId": 8043, "SeqNo": 19, "Terminal": 0, "DistrictId": 1, "Latitude": 22.693685, "Longitude": 120.29716, "IVRNo": 7368, "EXTVoiceNo": 7368, "traveltime": 0, "holidayTraveltime": 0}, {"Id": "2293", "pgp": 0, "GoBack": 2, "SID": 17558, "NameZh": "\u6d77\u529f\u8def(\u9032\u5b78\u8def\u53e3)", "RouteId": 8043, "SeqNo": 20, "Terminal": 0, "DistrictId": 1, "Latitude": 22.693757, "Longitude": 120.295044, "IVRNo": 7312, "EXTVoiceNo": 32293, "traveltime": 0, "holidayTraveltime": 0}, {"Id": "2291", "pgp": 0, "GoBack": 2, "SID": 4938, "NameZh": "\u5de6\u71df\u79ae\u62dc\u5802(\u6d77\u529f\u8def)", "RouteId": 8043, "SeqNo": 21, "Terminal": 0, "DistrictId": 1, "Latitude": 22.693759, "Longitude": 120.293516, "IVRNo": 7370, "EXTVoiceNo": 32291, "traveltime": 0, "holidayTraveltime": 0}, {"Id": "7309", "pgp": 0, "GoBack": 2, "SID": 17577, "NameZh": "\u570b\u8ecd\u5de6\u71df\u91ab\u9662", "RouteId": 8043, "SeqNo": 22, "Terminal": 0, "DistrictId": 1, "Latitude": 22.70247, "Longitude": 120.29259, "IVRNo": 7372, "EXTVoiceNo": 7309, "traveltime": 0, "holidayTraveltime": 0}, {"Id": "7308", "pgp": 0, "GoBack": 2, "SID": 17578, "NameZh": "\u8392\u5149\u65b0\u6751(\u8ecd\u6821\u8def)", "RouteId": 8043, "SeqNo": 23, "Terminal": 0, "DistrictId": 1, "Latitude": 22.706149, "Longitude": 120.292938, "IVRNo": 7207, "EXTVoiceNo": 7308, "traveltime": 0, "holidayTraveltime": 0}, {"Id": "7437", "pgp": 0, "GoBack": 2, "SID": 4620, "NameZh": "\u53f3\u660c(\u4e09\u5c71\u8857\u53e3)", "RouteId": 8043, "SeqNo": 24, "Terminal": 0, "DistrictId": 1, "Latitude": 22.710869, "Longitude": 120.289508, "IVRNo": 7437, "EXTVoiceNo": 7437, "traveltime": 0, "holidayTraveltime": 0}, {"Id": "0261", "pgp": 0, "GoBack": 2, "SID": 17580, "NameZh": "\u5317\u53f3\u660c(\u53f3\u660c\u8857)", "RouteId": 8043, "SeqNo": 25, "Terminal": 0, "DistrictId": 1, "Latitude": 22.71437, "Longitude": 120.2895, "IVRNo": 7406, "EXTVoiceNo": 20261, "traveltime": 0, "holidayTraveltime": 0}, {"Id": "1983", "pgp": 0, "GoBack": 2, "SID": 17581, "NameZh": "\u8208\u660c\u91cc", "RouteId": 8043, "SeqNo": 26, "Terminal": 0, "DistrictId": 1, "Latitude": 22.71715, "Longitude": 120.28712, "IVRNo": 1983, "EXTVoiceNo": 1983, "traveltime": 0, "holidayTraveltime": 0}, {"Id": "0179", "pgp": 0, "GoBack": 2, "SID": 17582, "NameZh": "\u4e94\u798f\u793e\u5340", "RouteId": 8043, "SeqNo": 27, "Terminal": 0, "DistrictId": 1, "Latitude": 22.71902, "Longitude": 120.28397, "IVRNo": 7423, "EXTVoiceNo": 20179, "traveltime": 0, "holidayTraveltime": 0}, {"Id": "7421", "pgp": 0, "GoBack": 2, "SID": 17583, "NameZh": "\u63f4\u4e2d\u6e2f", "RouteId": 8043, "SeqNo": 28, "Terminal": 0, "DistrictId": 1, "Latitude": 22.72277, "Longitude": 120.27779, "IVRNo": 7421, "EXTVoiceNo": 7421, "traveltime": 0, "holidayTraveltime": 0}, {"Id": "0525", "pgp": 0, "GoBack": 2, "SID": 17584, "NameZh": "\u9ad8\u96c4\u5927\u5b78(\u5fb7\u4e2d\u8def)", "RouteId": 8043, "SeqNo": 29, "Terminal": 0, "DistrictId": 1, "Latitude": 22.72774, "Longitude": 120.27396, "IVRNo": 702, "EXTVoiceNo": 525, "traveltime": 0, "holidayTraveltime": 0}, {"Id": "0526", "pgp": 0, "GoBack": 2, "SID": 17585, "NameZh": "\u8349\u6a4b", "RouteId": 8043, "SeqNo": 30, "Terminal": 0, "DistrictId": 1, "Latitude": 22.73122, "Longitude": 120.27124, "IVRNo": 526, "EXTVoiceNo": 526, "traveltime": 0, "holidayTraveltime": 0}, {"Id": "0534", "pgp": 0, "GoBack": 2, "SID": 17586, "NameZh": "\u6771\u5bf6\u516c\u53f8", "RouteId": 8043, "SeqNo": 31, "Terminal": 0, "DistrictId": 1, "Latitude": 22.73458, "Longitude": 120.26815, "IVRNo": 534, "EXTVoiceNo": 534, "traveltime": 0, "holidayTraveltime": 0}, {"Id": "8848", "pgp": 0, "GoBack": 2, "SID": 17587, "NameZh": "\u5927\u820d\u5357\u8def(\u5178\u5bf6\u6a4b)", "RouteId": 8043, "SeqNo": 32, "Terminal": 0, "DistrictId": 1, "Latitude": 22.739016, "Longitude": 120.264612, "IVRNo": 8848, "EXTVoiceNo": 8848, "traveltime": 0, "holidayTraveltime": 0}, {"Id": "0868", "pgp": 0, "GoBack": 2, "SID": 17588, "NameZh": "\u4e9e\u71b1\u5e36", "RouteId": 8043, "SeqNo": 33, "Terminal": 0, "DistrictId": 1, "Latitude": 22.7431, "Longitude": 120.26301, "IVRNo": 8847, "EXTVoiceNo": 10868, "traveltime": 0, "holidayTraveltime": 0}, {"Id": "0094", "pgp": 0, "GoBack": 2, "SID": 17589, "NameZh": "\u5927\u820d\u7532\u8fb2\u6703(\u5927\u820d\u8fa6\u4e8b\u8655)", "RouteId": 8043, "SeqNo": 34, "Terminal": 0, "DistrictId": 1, "Latitude": 22.74706, "Longitude": 120.26125, "IVRNo": 8846, "EXTVoiceNo": 20094, "traveltime": 0, "holidayTraveltime": 0}, {"Id": "0089", "pgp": 0, "GoBack": 2, "SID": 15434, "NameZh": "\u5927\u820d\u7532", "RouteId": 8043, "SeqNo": 35, "Terminal": 0, "DistrictId": 1, "Latitude": 22.74836, "Longitude": 120.26322, "IVRNo": 10175, "EXTVoiceNo": 20089, "traveltime": 0, "holidayTraveltime": 0}, {"Id": "0944", "pgp": 0, "GoBack": 2, "SID": 17590, "NameZh": "\u540c\u5b89", "RouteId": 8043, "SeqNo": 36, "Terminal": 0, "DistrictId": 1, "Latitude": 22.75182, "Longitude": 120.26575, "IVRNo": 10944, "EXTVoiceNo": 10944, "traveltime": 0, "holidayTraveltime": 0}, {"Id": "1084", "pgp": 0, "GoBack": 2, "SID": 17591, "NameZh": "\u5357\u6893\u5b98", "RouteId": 8043, "SeqNo": 37, "Terminal": 0, "DistrictId": 1, "Latitude": 22.75744, "Longitude": 120.2675, "IVRNo": 11084, "EXTVoiceNo": 11084, "traveltime": 0, "holidayTraveltime": 0}, {"Id": "1397", "pgp": 0, "GoBack": 2, "SID": 17592, "NameZh": "\u6893\u5b98", "RouteId": 8043, "SeqNo": 38, "Terminal": 0, "DistrictId": 1, "Latitude": 22.75997, "Longitude": 120.26709, "IVRNo": 11397, "EXTVoiceNo": 11397, "traveltime": 0, "holidayTraveltime": 0}, {"Id": "7906", "pgp": 0, "GoBack": 2, "SID": 19116, "NameZh": "\u6893\u5b98\u5340\u516c\u6240", "RouteId": 8043, "SeqNo": 39, "Terminal": 0, "DistrictId": 1, "Latitude": 22.760716, "Longitude": 120.26677, "IVRNo": 7906, "EXTVoiceNo": 7906, "traveltime": 0, "holidayTraveltime": 0}, {"Id": "7908", "pgp": 0, "GoBack": 2, "SID": 17593, "NameZh": "\u4fe1\u7fa9\u8def", "RouteId": 8043, "SeqNo": 40, "Terminal": 0, "DistrictId": 1, "Latitude": 22.76225, "Longitude": 120.26274, "IVRNo": 7908, "EXTVoiceNo": 7908, "traveltime": 0, "holidayTraveltime": 0}, {"Id": "0535", "pgp": 0, "GoBack": 2, "SID": 17594, "NameZh": "\u5206\u6b67\u7ad9", "RouteId": 8043, "SeqNo": 41, "Terminal": 0, "DistrictId": 1, "Latitude": 22.77105, "Longitude": 120.25768, "IVRNo": 535, "EXTVoiceNo": 535, "traveltime": 0, "holidayTraveltime": 0}, {"Id": "0014", "pgp": 0, "GoBack": 2, "SID": 17595, "NameZh": "\u4e8c\u9ad8", "RouteId": 8043, "SeqNo": 42, "Terminal": 0, "DistrictId": 1, "Latitude": 22.7741, "Longitude": 120.25449, "IVRNo": 10033, "EXTVoiceNo": 20014, "traveltime": 0, "holidayTraveltime": 0}, {"Id": "7910", "pgp": 0, "GoBack": 2, "SID": 5353, "NameZh": "\u5f4c\u9640\u570b\u4e2d(\u4e2d\u6b63\u5357\u8def)", "RouteId": 8043, "SeqNo": 43, "Terminal": 0, "DistrictId": 1, "Latitude": 22.77741, "Longitude": 120.25091, "IVRNo": 869, "EXTVoiceNo": 7910, "traveltime": 0, "holidayTraveltime": 0}, {"Id": "7911", "pgp": 0, "GoBack": 2, "SID": 17597, "NameZh": "\u5f4c\u9640\u5340\u516c\u6240", "RouteId": 8043, "SeqNo": 44, "Terminal": 0, "DistrictId": 1, "Latitude": 22.78044, "Longitude": 120.249366, "IVRNo": 7911, "EXTVoiceNo": 7911, "traveltime": 0, "holidayTraveltime": 0}, {"Id": "7912", "pgp": 0, "GoBack": 2, "SID": 17598, "NameZh": "\u5f4c\u9640\u570b\u5c0f", "RouteId": 8043, "SeqNo": 45, "Terminal": 0, "DistrictId": 1, "Latitude": 22.784217, "Longitude": 120.248039, "IVRNo": 7912, "EXTVoiceNo": 7912, "traveltime": 0, "holidayTraveltime": 0}, {"Id": "9116", "pgp": 0, "GoBack": 2, "SID": 11438, "NameZh": "\u9e7d\u57d5", "RouteId": 8043, "SeqNo": 46, "Terminal": 0, "DistrictId": 1, "Latitude": 22.787173, "Longitude": 120.246794, "IVRNo": 9543, "EXTVoiceNo": 9116, "traveltime": 0, "holidayTraveltime": 0}, {"Id": "9559", "pgp": 0, "GoBack": 2, "SID": 17801, "NameZh": "\u5f4c\u9640\u52a0\u6cb9\u7ad9", "RouteId": 8043, "SeqNo": 47, "Terminal": 0, "DistrictId": 1, "Latitude": 22.78993, "Longitude": 120.24577, "IVRNo": 9544, "EXTVoiceNo": 9559, "traveltime": 0, "holidayTraveltime": 0}, {"Id": "0430", "pgp": 0, "GoBack": 2, "SID": 17563, "NameZh": "\u4e94\u5206\u4ed4", "RouteId": 8043, "SeqNo": 48, "Terminal": 0, "DistrictId": 1, "Latitude": 22.793607, "Longitude": 120.244226, "IVRNo": 9473, "EXTVoiceNo": 430, "traveltime": 0, "holidayTraveltime": 0}, {"Id": "0836", "pgp": 0, "GoBack": 2, "SID": 17601, "NameZh": "\u897f\u7dad\u65b0", "RouteId": 8043, "SeqNo": 49, "Terminal": 0, "DistrictId": 1, "Latitude": 22.80943, "Longitude": 120.24329, "IVRNo": 836, "EXTVoiceNo": 836, "traveltime": 0, "holidayTraveltime": 0}, {"Id": "9120", "pgp": 0, "GoBack": 2, "SID": 17602, "NameZh": "\u5929\u6587\u5bae", "RouteId": 8043, "SeqNo": 50, "Terminal": 0, "DistrictId": 1, "Latitude": 22.8133, "Longitude": 120.2428, "IVRNo": 9547, "EXTVoiceNo": 9120, "traveltime": 0, "holidayTraveltime": 0}, {"Id": "1054", "pgp": 0, "GoBack": 2, "SID": 17603, "NameZh": "\u5357\u5929\u5bae(\u6c38\u5b89)", "RouteId": 8043, "SeqNo": 51, "Terminal": 0, "DistrictId": 1, "Latitude": 22.81667, "Longitude": 120.24147, "IVRNo": 9548, "EXTVoiceNo": 11054, "traveltime": 0, "holidayTraveltime": 0}, {"Id": "9549", "pgp": 0, "GoBack": 2, "SID": 17604, "NameZh": "\u7267\u5834", "RouteId": 8043, "SeqNo": 52, "Terminal": 0, "DistrictId": 1, "Latitude": 22.81874, "Longitude": 120.24044, "IVRNo": 9549, "EXTVoiceNo": 9549, "traveltime": 0, "holidayTraveltime": 0}, {"Id": "9123", "pgp": 0, "GoBack": 2, "SID": 17605, "NameZh": "\u6c38\u5b89\u570b\u4e2d", "RouteId": 8043, "SeqNo": 53, "Terminal": 0, "DistrictId": 1, "Latitude": 22.82355, "Longitude": 120.2383, "IVRNo": 9550, "EXTVoiceNo": 9123, "traveltime": 0, "holidayTraveltime": 0}, {"Id": "1080", "pgp": 0, "GoBack": 2, "SID": 17606, "NameZh": "\u5357\u4fdd\u5be7", "RouteId": 8043, "SeqNo": 54, "Terminal": 0, "DistrictId": 1, "Latitude": 22.832608, "Longitude": 120.234815, "IVRNo": 11080, "EXTVoiceNo": 11080, "traveltime": 0, "holidayTraveltime": 0}, {"Id": "1040", "pgp": 0, "GoBack": 2, "SID": 17607, "NameZh": "\u4fdd\u5be7", "RouteId": 8043, "SeqNo": 55, "Terminal": 0, "DistrictId": 1, "Latitude": 22.83536, "Longitude": 120.23471, "IVRNo": 11040, "EXTVoiceNo": 11040, "traveltime": 0, "holidayTraveltime": 0}, {"Id": "1133", "pgp": 0, "GoBack": 2, "SID": 17608, "NameZh": "\u4e0b\u7532", "RouteId": 8043, "SeqNo": 56, "Terminal": 0, "DistrictId": 1, "Latitude": 22.84777, "Longitude": 120.23038, "IVRNo": 10090, "EXTVoiceNo": 21133, "traveltime": 0, "holidayTraveltime": 0}, {"Id": "0425", "pgp": 0, "GoBack": 2, "SID": 17564, "NameZh": "\u4e09\u584a\u539d", "RouteId": 8043, "SeqNo": 57, "Terminal": 0, "DistrictId": 1, "Latitude": 22.850189, "Longitude": 120.229614, "IVRNo": 9467, "EXTVoiceNo": 425, "traveltime": 0, "holidayTraveltime": 0}, {"Id": "0475", "pgp": 0, "GoBack": 2, "SID": 17565, "NameZh": "\u65b0\u7af9\u6eec", "RouteId": 8043, "SeqNo": 58, "Terminal": 0, "DistrictId": 1, "Latitude": 22.858485, "Longitude": 120.227982, "IVRNo": 9466, "EXTVoiceNo": 475, "traveltime": 0, "holidayTraveltime": 0}, {"Id": "1166", "pgp": 0, "GoBack": 2, "SID": 17611, "NameZh": "\u5927\u6e56\u57e4", "RouteId": 8043, "SeqNo": 59, "Terminal": 0, "DistrictId": 1, "Latitude": 22.87453, "Longitude": 120.22507, "IVRNo": 10205, "EXTVoiceNo": 21166, "traveltime": 0, "holidayTraveltime": 0}, {"Id": "9268", "pgp": 0, "GoBack": 2, "SID": 17612, "NameZh": "\u8208\u9054\u9060\u6d0b\u6f01\u6e2f", "RouteId": 8043, "SeqNo": 60, "Terminal": 0, "DistrictId": 1, "Latitude": 22.87682, "Longitude": 120.21428, "IVRNo": 905, "EXTVoiceNo": 9268, "traveltime": 0, "holidayTraveltime": 0}, {"Id": "0446", "pgp": 0, "GoBack": 2, "SID": 17600, "NameZh": "\u5047\u65e5\u5e02\u96c6", "RouteId": 8043, "SeqNo": 61, "Terminal": 0, "DistrictId": 1, "Latitude": 22.879199, "Longitude": 120.214164, "IVRNo": 9456, "EXTVoiceNo": 446, "traveltime": 0, "holidayTraveltime": 0}, {"Id": "9266", "pgp": 0, "GoBack": 2, "SID": 17613, "NameZh": "\u60c5\u4eba\u78bc\u982d", "RouteId": 8043, "SeqNo": 62, "Terminal": 0, "DistrictId": 1, "Latitude": 22.88083, "Longitude": 120.21133, "IVRNo": 9842, "EXTVoiceNo": 9266, "traveltime": 0, "holidayTraveltime": 0}, {"Id": "1987", "pgp": 0, "GoBack": 2, "SID": 17614, "NameZh": "\u8208\u9054\u6e2f(\u6b63\u5927\u8def)", "RouteId": 8043, "SeqNo": 63, "Terminal": 0, "DistrictId": 1, "Latitude": 22.87883, "Longitude": 120.20391, "IVRNo": 9841, "EXTVoiceNo": 11987, "traveltime": 0, "holidayTraveltime": 0}, {"Id": "0444", "pgp": 0, "GoBack": 2, "SID": 17625, "NameZh": "\u8208\u9054\u6e2f\u6d77\u5de1\u7f72\u57fa\u5730", "RouteId": 8043, "SeqNo": 64, "Terminal": 0, "DistrictId": 1, "Latitude": 22.876358, "Longitude": 120.201054, "IVRNo": 9455, "EXTVoiceNo": 444, "traveltime": 0, "holidayTraveltime": 0}, {"Id": "9263", "pgp": 0, "GoBack": 2, "SID": 17615, "NameZh": "\u8208\u9054\u570b\u5c0f", "RouteId": 8043, "SeqNo": 65, "Terminal": 0, "DistrictId": 1, "Latitude": 22.875399, "Longitude": 120.196344, "IVRNo": 9840, "EXTVoiceNo": 9263, "traveltime": 0, "holidayTraveltime": 0}, {"Id": "1366", "pgp": 0, "GoBack": 2, "SID": 17617, "NameZh": "\u5d0e\u6f0f\u96fb\u4fe1\u5c40", "RouteId": 8043, "SeqNo": 66, "Terminal": 0, "DistrictId": 1, "Latitude": 22.874667, "Longitude": 120.19401, "IVRNo": 11366, "EXTVoiceNo": 11366, "traveltime": 0, "holidayTraveltime": 0}, {"Id": "1364", "pgp": 0, "GoBack": 2, "SID": 17616, "NameZh": "\u5d0e\u6f0f\u8fb2\u6703", "RouteId": 8043, "SeqNo": 67, "Terminal": 0, "DistrictId": 1, "Latitude": 22.873799, "Longitude": 120.191451, "IVRNo": 11364, "EXTVoiceNo": 11364, "traveltime": 0, "holidayTraveltime": 0}, {"Id": "9259", "pgp": 0, "GoBack": 2, "SID": 17618, "NameZh": "\u5d0e\u6f0f", "RouteId": 8043, "SeqNo": 68, "Terminal": 0, "DistrictId": 1, "Latitude": 22.877477, "Longitude": 120.189018, "IVRNo": 9836, "EXTVoiceNo": 9259, "traveltime": 0, "holidayTraveltime": 0}, {"Id": "0543", "pgp": 0, "GoBack": 2, "SID": 17619, "NameZh": "\u5317\u5d0e\u6f0f", "RouteId": 8043, "SeqNo": 69, "Terminal": 0, "DistrictId": 1, "Latitude": 22.879224, "Longitude": 120.188445, "IVRNo": 10543, "EXTVoiceNo": 10543, "traveltime": 0, "holidayTraveltime": 0}, {"Id": "9257", "pgp": 0, "GoBack": 2, "SID": 17636, "NameZh": "\u6210\u529f\u6a4b", "RouteId": 8043, "SeqNo": 70, "Terminal": 0, "DistrictId": 1, "Latitude": 22.889814, "Longitude": 120.187055, "IVRNo": 9834, "EXTVoiceNo": 9257, "traveltime": 0, "holidayTraveltime": 0}, {"Id": "0730", "pgp": 0, "GoBack": 2, "SID": 17621, "NameZh": "\u5149\u8423", "RouteId": 8043, "SeqNo": 71, "Terminal": 0, "DistrictId": 1, "Latitude": 22.892801, "Longitude": 120.186367, "IVRNo": 9833, "EXTVoiceNo": 10730, "traveltime": 0, "holidayTraveltime": 0}, {"Id": "1138", "pgp": 0, "GoBack": 2, "SID": 17622, "NameZh": "\u8304\u8423\u8fb2\u6703(\u4e0b\u8304\u8423)", "RouteId": 8043, "SeqNo": 72, "Terminal": 0, "DistrictId": 1, "Latitude": 22.895626, "Longitude": 120.185136, "IVRNo": 9832, "EXTVoiceNo": 21138, "traveltime": 0, "holidayTraveltime": 0}, {"Id": "9254", "pgp": 0, "GoBack": 2, "SID": 17623, "NameZh": "\u9802\u8304\u5b9a", "RouteId": 8043, "SeqNo": 73, "Terminal": 0, "DistrictId": 1, "Latitude": 22.89816, "Longitude": 120.18473, "IVRNo": 641, "EXTVoiceNo": 9254, "traveltime": 0, "holidayTraveltime": 0}, {"Id": "9253", "pgp": 0, "GoBack": 2, "SID": 17632, "NameZh": "\u66fe\u539d", "RouteId": 8043, "SeqNo": 74, "Terminal": 0, "DistrictId": 1, "Latitude": 22.90119, "Longitude": 120.18406, "IVRNo": 9830, "EXTVoiceNo": 9253, "traveltime": 0, "holidayTraveltime": 0}, {"Id": "0640", "pgp": 0, "GoBack": 2, "SID": 17631, "NameZh": "\u570b\u6821\u524d", "RouteId": 8043, "SeqNo": 75, "Terminal": 0, "DistrictId": 1, "Latitude": 22.903264, "Longitude": 120.18377, "IVRNo": 9125, "EXTVoiceNo": 640, "traveltime": 0, "holidayTraveltime": 0}, {"Id": "0907", "pgp": 0, "GoBack": 2, "SID": 17626, "NameZh": "\u8304\u8423\u90f5\u5c40", "RouteId": 8043, "SeqNo": 76, "Terminal": 0, "DistrictId": 1, "Latitude": 22.90399, "Longitude": 120.18707, "IVRNo": 907, "EXTVoiceNo": 907, "traveltime": 0, "holidayTraveltime": 0}, {"Id": "0717", "pgp": 0, "GoBack": 2, "SID": 17627, "NameZh": "\u767d\u96f2\u91cc", "RouteId": 8043, "SeqNo": 77, "Terminal": 0, "DistrictId": 1, "Latitude": 22.91199, "Longitude": 120.1873, "IVRNo": 9454, "EXTVoiceNo": 10717, "traveltime": 0, "holidayTraveltime": 0}, {"Id": "9196", "pgp": 0, "GoBack": 2, "SID": 17628, "NameZh": "\u767d\u7802\u5d19", "RouteId": 8043, "SeqNo": 78, "Terminal": 0, "DistrictId": 1, "Latitude": 22.91295, "Longitude": 120.18511, "IVRNo": 9672, "EXTVoiceNo": 9196, "traveltime": 0, "holidayTraveltime": 0},