{"en": [{"Id": "5001", "pgp": 0, "GoBack": 1, "SID": 3538, "NameZh": "Golden Lion Lake Station", "RouteId": 2102, "SeqNo": 1, "Terminal": 0, "DistrictId": 1, "Latitude": 22.66584, "Longitude": 120.321916, "IVRNo": 5000, "EXTVoiceNo": 5001, "traveltime": 0, "holidayTraveltime": 0}, {"Id": "5054", "pgp": 0, "GoBack": 1, "SID": 5611, "NameZh": "Dingciang St. Intersection", "RouteId": 2102, "SeqNo": 2, "Terminal": 0, "DistrictId": 1, "Latitude": 22.667216, "Longitude": 120.321533, "IVRNo": 5002, "EXTVoiceNo": 5054, "traveltime": 0, "holidayTraveltime": 0}, {"Id": "1097", "pgp": 0, "GoBack": 1, "SID": 3561, "NameZh": "Wenzao Ursuline University of Languages  (Dingjhong Rd.)", "RouteId": 2102, "SeqNo": 3, "Terminal": 0, "DistrictId": 1, "Latitude": 22.67095, "Longitude": 120.320833, "IVRNo": 1097, "EXTVoiceNo": 1097, "traveltime": 0, "holidayTraveltime": 0}, {"Id": "5004", "pgp": 0, "GoBack": 1, "SID": 3564, "NameZh": "Shihhu Elementary School (Dingjhong Rd.)", "RouteId": 2102, "SeqNo": 4, "Terminal": 0, "DistrictId": 1, "Latitude": 22.673433, "Longitude": 120.3216, "IVRNo": 1713, "EXTVoiceNo": 5004, "traveltime": 0, "holidayTraveltime": 0}, {"Id": "5006", "pgp": 0, "GoBack": 1, "SID": 3574, "NameZh": "Side Entrance to Kaohsiung Veterans General Hospital", "RouteId": 2102, "SeqNo": 5, "Terminal": 0, "DistrictId": 1, "Latitude": 22.679681, "Longitude": 120.321831, "IVRNo": 5006, "EXTVoiceNo": 5006, "traveltime": 0, "holidayTraveltime": 0}, {"Id": "5007", "pgp": 0, "GoBack": 1, "SID": 3579, "NameZh": "Ronghua New Village", "RouteId": 2102, "SeqNo": 6, "Terminal": 0, "DistrictId": 1, "Latitude": 22.683483, "Longitude": 120.3217, "IVRNo": 5007, "EXTVoiceNo": 5007, "traveltime": 0, "holidayTraveltime": 0}, {"Id": "5008", "pgp": 0, "GoBack": 1, "SID": 3581, "NameZh": "Shanshuei Community", "RouteId": 2102, "SeqNo": 7, "Terminal": 0, "DistrictId": 1, "Latitude": 22.686834, "Longitude": 120.32224, "IVRNo": 5008, "EXTVoiceNo": 5008, "traveltime": 0, "holidayTraveltime": 0}, {"Id": "5009", "pgp": 0, "GoBack": 1, "SID": 3582, "NameZh": "Wunsyue Rd. Intersection (Huasia Rd.)", "RouteId": 2102, "SeqNo": 8, "Terminal": 0, "DistrictId": 1, "Latitude": 22.68836, "Longitude": 120.3198, "IVRNo": 1009, "EXTVoiceNo": 5009, "traveltime": 0, "holidayTraveltime": 0}, {"Id": "1072", "pgp": 0, "GoBack": 1, "SID": 3584, "NameZh": "Police Radio Station (Boai 4th Rd.)", "RouteId": 2102, "SeqNo": 9, "Terminal": 0, "DistrictId": 1, "Latitude": 22.687375, "Longitude": 120.316819, "IVRNo": 1072, "EXTVoiceNo": 1072, "traveltime": 0, "holidayTraveltime": 0}, {"Id": "8301", "pgp": 0, "GoBack": 1, "SID": 5305, "NameZh": "Huasia Rd. Intersection (Chongai Rd.)", "RouteId": 2102, "SeqNo": 10, "Terminal": 0, "DistrictId": 1, "Latitude": 22.687008, "Longitude": 120.313836, "IVRNo": 5619, "EXTVoiceNo": 8301, "traveltime": 0, "holidayTraveltime": 0}, {"Id": "1008", "pgp": 0, "GoBack": 1, "SID": 3731, "NameZh": "HSR Gaotie Rd. Intersection(Zuoying Shin Kong Mitsukoshi Department Store)", "RouteId": 2102, "SeqNo": 11, "Terminal": 0, "DistrictId": 1, "Latitude": 22.68896, "Longitude": 120.31158, "IVRNo": 5069, "EXTVoiceNo": 1008, "traveltime": 0, "holidayTraveltime": 0}, {"Id": "5026", "pgp": 0, "GoBack": 1, "SID": 3633, "NameZh": "THSR Zuoying Station", "RouteId": 2102, "SeqNo": 12, "Terminal": 0, "DistrictId": 1, "Latitude": 22.686962, "Longitude": 120.308698, "IVRNo": 5026, "EXTVoiceNo": 5026, "traveltime": 0, "holidayTraveltime": 0}, {"Id": "5027", "pgp": 0, "GoBack": 1, "SID": 3635, "NameZh": "Jhongsin Rd.", "RouteId": 2102, "SeqNo": 13, "Terminal": 0, "DistrictId": 1, "Latitude": 22.684588, "Longitude": 120.309906, "IVRNo": 5027, "EXTVoiceNo": 5027, "traveltime": 0, "holidayTraveltime": 0}, {"Id": "5012", "pgp": 0, "GoBack": 1, "SID": 3588, "NameZh": "Boai 3rd Rd.", "RouteId": 2102, "SeqNo": 14, "Terminal": 0, "DistrictId": 1, "Latitude": 22.680629, "Longitude": 120.309713, "IVRNo": 5012, "EXTVoiceNo": 5012, "traveltime": 0, "holidayTraveltime": 0}, {"Id": "5061", "pgp": 0, "GoBack": 1, "SID": 3719, "NameZh": "MRT Ecological District Station (Boai Park)", "RouteId": 2102, "SeqNo": 15, "Terminal": 0, "DistrictId": 1, "Latitude": 22.676904, "Longitude": 120.306609, "IVRNo": 1271, "EXTVoiceNo": 5061, "traveltime": 0, "holidayTraveltime": 0}, {"Id": "7528", "pgp": 0, "GoBack": 1, "SID": 5185, "NameZh": "Boai Rd. Intersection (Chongde Rd.)", "RouteId": 2102, "SeqNo": 16, "Terminal": 0, "DistrictId": 1, "Latitude": 22.675366, "Longitude": 120.304342, "IVRNo": 250, "EXTVoiceNo": 7528, "traveltime": 0, "holidayTraveltime": 0}, {"Id": "7527", "pgp": 0, "GoBack": 1, "SID": 5191, "NameZh": "Chongde Rd.", "RouteId": 2102, "SeqNo": 17, "Terminal": 0, "DistrictId": 1, "Latitude": 22.67702, "Longitude": 120.301746, "IVRNo": 7527, "EXTVoiceNo": 7527, "traveltime": 0, "holidayTraveltime": 0}, {"Id": "7582", "pgp": 0, "GoBack": 1, "SID": 5160, "NameZh": "Garden Villa", "RouteId": 2102, "SeqNo": 18, "Terminal": 0, "DistrictId": 1, "Latitude": 22.678275, "Longitude": 120.299575, "IVRNo": 7582, "EXTVoiceNo": 7582, "traveltime": 0, "holidayTraveltime": 0}, {"Id": "2430", "pgp": 0, "GoBack": 1, "SID": 11533, "NameZh": "Properties Museum, Lotus Pond Station", "RouteId": 2102, "SeqNo": 19, "Terminal": 0, "DistrictId": 1, "Latitude": 22.678435, "Longitude": 120.295152, "IVRNo": 9976, "EXTVoiceNo": 32430, "traveltime": 0, "holidayTraveltime": 0}, {"Id": "7584", "pgp": 0, "GoBack": 1, "SID": 5200, "NameZh": "Lotus Pond (Shengli Rd.)", "RouteId": 2102, "SeqNo": 20, "Terminal": 0, "DistrictId": 1, "Latitude": 22.679861, "Longitude": 120.292183, "IVRNo": 7524, "EXTVoiceNo": 7584, "traveltime": 0, "holidayTraveltime": 0}, {"Id": "7585", "pgp": 0, "GoBack": 1, "SID": 5207, "NameZh": "Shengli Rd.", "RouteId": 2102, "SeqNo": 21, "Terminal": 0, "DistrictId": 1, "Latitude": 22.680853, "Longitude": 120.289734, "IVRNo": 7523, "EXTVoiceNo": 7585, "traveltime": 0, "holidayTraveltime": 0}, {"Id": "8797", "pgp": 0, "GoBack": 1, "SID": 13786, "NameZh": "Jieshou Rd. Intersection", "RouteId": 2102, "SeqNo": 22, "Terminal": 0, "DistrictId": 1, "Latitude": 22.681093, "Longitude": 120.285764, "IVRNo": 8797, "EXTVoiceNo": 8797, "traveltime": 0, "holidayTraveltime": 0}, {"Id": "9383", "pgp": 0, "GoBack": 1, "SID": 13958, "NameZh": "Jieshou Rd. Intersection", "RouteId": 2102, "SeqNo": 23, "Terminal": 0, "DistrictId": 1, "Latitude": 22.680538, "Longitude": 120.282577, "IVRNo": 357, "EXTVoiceNo": 9383, "traveltime": 0, "holidayTraveltime": 0}, {"Id": "7449", "pgp": 0, "GoBack": 1, "SID": 14302, "NameZh": "Sianfong Rd.", "RouteId": 2102, "SeqNo": 24, "Terminal": 0, "DistrictId": 1, "Latitude": 22.678186, "Longitude": 120.282598, "IVRNo": 7449, "EXTVoiceNo": 7449, "traveltime": 0, "holidayTraveltime": 0}, {"Id": "8293", "pgp": 0, "GoBack": 1, "SID": 14333, "NameZh": "Bisheng Rd.", "RouteId": 2102, "SeqNo": 25, "Terminal": 0, "DistrictId": 1, "Latitude": 22.675357, "Longitude": 120.284219, "IVRNo": 8209, "EXTVoiceNo": 8293, "traveltime": 0, "holidayTraveltime": 0}, {"Id": "4765", "pgp": 0, "GoBack": 1, "SID": 3456, "NameZh": "Haicing Vocational High School of Technology and Commerce", "RouteId": 2102, "SeqNo": 26, "Terminal": 0, "DistrictId": 1, "Latitude": 22.674812, "Longitude": 120.286377, "IVRNo": 4723, "EXTVoiceNo": 4765, "traveltime": 0, "holidayTraveltime": 0}, {"Id": "5844", "pgp": 0, "GoBack": 1, "SID": 4392, "NameZh": "Guomao Community", "RouteId": 2102, "SeqNo": 27, "Terminal": 0, "DistrictId": 1, "Latitude": 22.670092, "Longitude": 120.286369, "IVRNo": 5840, "EXTVoiceNo": 5844, "traveltime": 0, "holidayTraveltime": 0}, {"Id": "7321", "pgp": 0, "GoBack": 1, "SID": 8513, "NameZh": "Cianfong Community", "RouteId": 2102, "SeqNo": 28, "Terminal": 0, "DistrictId": 1, "Latitude": 22.667512, "Longitude": 120.285441, "IVRNo": 7321, "EXTVoiceNo": 7321, "traveltime": 0, "holidayTraveltime": 0}, {"Id": "7322", "pgp": 0, "GoBack": 1, "SID": 3229, "NameZh": "Mingchuan Rd. Intersection (Jiouru 4th Rd.)", "RouteId": 2102, "SeqNo": 29, "Terminal": 0, "DistrictId": 1, "Latitude": 22.665668, "Longitude": 120.284316, "IVRNo": 4720, "EXTVoiceNo": 7322, "traveltime": 0, "holidayTraveltime": 0}, {"Id": "7323", "pgp": 0, "GoBack": 1, "SID": 4920, "NameZh": "Jiouru 4th Rd. Intersection (Fongjia Rd. )", "RouteId": 2102, "SeqNo": 30, "Terminal": 0, "DistrictId": 1, "Latitude": 22.663751, "Longitude": 120.283455, "IVRNo": 7323, "EXTVoiceNo": 7323, "traveltime": 0, "holidayTraveltime": 0}, {"Id": "2250", "pgp": 0, "GoBack": 1, "SID": 5320, "NameZh": "Kaohsiung Museum of Fine Arts (Mingcheng 4th Rd.)", "RouteId": 2102, "SeqNo": 31, "Terminal": 0, "DistrictId": 1, "Latitude": 22.66191, "Longitude": 120.28635, "IVRNo": 7736, "EXTVoiceNo": 12250, "traveltime": 0, "holidayTraveltime": 0}, {"Id": "9105", "pgp": 0, "GoBack": 1, "SID": 5843, "NameZh": "New York 57th St.", "RouteId": 2102, "SeqNo": 32, "Terminal": 0, "DistrictId": 1, "Latitude": 22.663171, "Longitude": 120.288622, "IVRNo": 8882, "EXTVoiceNo": 9105, "traveltime": 0, "holidayTraveltime": 0}, {"Id": "9106", "pgp": 0, "GoBack": 1, "SID": 5846, "NameZh": "Meiming Rd.", "RouteId": 2102, "SeqNo": 33, "Terminal": 0, "DistrictId": 1, "Latitude": 22.665441, "Longitude": 120.289392, "IVRNo": 8883, "EXTVoiceNo": 9106, "traveltime": 0, "holidayTraveltime": 0}, {"Id": "5845", "pgp": 0, "GoBack": 1, "SID": 4394, "NameZh": "St. Paul`s High School", "RouteId": 2102, "SeqNo": 34, "Terminal": 0, "DistrictId": 1, "Latitude": 22.665365, "Longitude": 120.291674, "IVRNo": 5839, "EXTVoiceNo": 5845, "traveltime": 0, "holidayTraveltime": 0}, {"Id": "5846", "pgp": 0, "GoBack": 1, "SID": 4398, "NameZh": "Mingcheng Rd. Intersection (Jhonghua 1st Rd.)", "RouteId": 2102, "SeqNo": 35, "Terminal": 0, "DistrictId": 1, "Latitude": 22.66284, "Longitude": 120.2923, "IVRNo": 936, "EXTVoiceNo": 5846, "traveltime": 0, "holidayTraveltime": 0}, {"Id": "0491", "pgp": 0, "GoBack": 1, "SID": 5322, "NameZh": "Art E. 6th St. Intersection (Mingcheng 4th Rd.)", "RouteId": 2102, "SeqNo": 36, "Terminal": 0, "DistrictId": 1, "Latitude": 22.66128, "Longitude": 120.2911, "IVRNo": 7735, "EXTVoiceNo": 20491, "traveltime": 0, "holidayTraveltime": 0}, {"Id": "9108", "pgp": 0, "GoBack": 1, "SID": 5849, "NameZh": "Art E. 4th Rd.", "RouteId": 2102, "SeqNo": 37, "Terminal": 0, "DistrictId": 1, "Latitude": 22.660259, "Longitude": 120.290255, "IVRNo": 8885, "EXTVoiceNo": 9108, "traveltime": 0, "holidayTraveltime": 0}, {"Id": "5837", "pgp": 0, "GoBack": 1, "SID": 4368, "NameZh": "Kaohsiung Museum of Fine Arts", "RouteId": 2102, "SeqNo": 38, "Terminal": 0, "DistrictId": 1, "Latitude": 22.656707, "Longitude": 120.288154, "IVRNo": 5837, "EXTVoiceNo": 15837, "traveltime": 0, "holidayTraveltime": 0}, {"Id": "1375", "pgp": 0, "GoBack": 1, "SID": 2758, "NameZh": "Kaohsiung Museum of Fine Arts (Chung-Hwa School of Arts)", "RouteId": 2102, "SeqNo": 39, "Terminal": 0, "DistrictId": 1, "Latitude": 22.656175, "Longitude": 120.288688, "IVRNo": 1375, "EXTVoiceNo": 1375, "traveltime": 0, "holidayTraveltime": 0}, {"Id": "0434", "pgp": 0, "GoBack": 1, "SID": 4366, "NameZh": "Kaohsiung Municipal United Hospital", "RouteId": 2102, "SeqNo": 40, "Terminal": 0, "DistrictId": 1, "Latitude": 22.65526, "Longitude": 120.29208, "IVRNo": 5836, "EXTVoiceNo": 434, "traveltime": 0, "holidayTraveltime": 0}, {"Id": "8794", "pgp": 0, "GoBack": 1, "SID": 5749, "NameZh": "Yucheng Rd.", "RouteId": 2102, "SeqNo": 41, "Terminal": 0, "DistrictId": 1, "Latitude": 22.657661, "Longitude": 120.294092, "IVRNo": 8791, "EXTVoiceNo": 8794, "traveltime": 0, "holidayTraveltime": 0}, {"Id": "4026", "pgp": 0, "GoBack": 1, "SID": 5750, "NameZh": "Longde Rd. Intersection (Shennong Rd. Intersecction)", "RouteId": 2102, "SeqNo": 42, "Terminal": 0, "DistrictId": 1, "Latitude": 22.657794, "Longitude": 120.296683, "IVRNo": 4026, "EXTVoiceNo": 4026, "traveltime": 0, "holidayTraveltime": 0}, {"Id": "4062", "pgp": 0, "GoBack": 1, "SID": 3646, "NameZh": "MRT Aozihdi Station", "RouteId": 2102, "SeqNo": 43, "Terminal": 1, "DistrictId": 1, "Latitude": 22.657736, "Longitude": 120.303008, "IVRNo": 4033, "EXTVoiceNo": 4062, "traveltime": 0, "holidayTraveltime": 0}, {"Id": "4062", "pgp": 0, "GoBack": 2, "SID": 3605, "NameZh": "MRT Aozihdi Station", "RouteId": 2102, "SeqNo": 1, "Terminal": 0, "DistrictId": 1, "Latitude": 22.65677, "Longitude": 120.303082, "IVRNo": 4033, "EXTVoiceNo": 4062, "traveltime": 0, "holidayTraveltime": 0}, {"Id": "4062", "pgp": 0, "GoBack": 2, "SID": 2720, "NameZh": "MRT Aozihdi Station (Dashun 1st Rd.)", "RouteId": 2102, "SeqNo": 2, "Terminal": 0, "DistrictId": 1, "Latitude": 22.65609, "Longitude": 120.30264, "IVRNo": 4050, "EXTVoiceNo": 4062, "traveltime": 0, "holidayTraveltime": 0}, {"Id": "8723", "pgp": 0, "GoBack": 2, "SID": 5671, "NameZh": "Nanbing Rd.", "RouteId": 2102, "SeqNo": 3, "Terminal": 0, "DistrictId": 1, "Latitude": 22.657012, "Longitude": 120.300065, "IVRNo": 691, "EXTVoiceNo": 8723, "traveltime": 0, "holidayTraveltime": 0}, {"Id": "4026", "pgp": 0, "GoBack": 2, "SID": 5751, "NameZh": "Longde Rd. Intersection (Shennong Rd. Intersecction)", "RouteId": 2102, "SeqNo": 4, "Terminal": 0, "DistrictId": 1, "Latitude": 22.657863, "Longitude": 120.296686, "IVRNo": 4026, "EXTVoiceNo": 4026, "traveltime": 0, "holidayTraveltime": 0}, {"Id": "8794", "pgp": 0, "GoBack": 2, "SID": 5752, "NameZh": "Yucheng Rd.", "RouteId": 2102, "SeqNo": 5, "Terminal": 0, "DistrictId": 1, "Latitude": 22.65825, "Longitude": 120.29408, "IVRNo": 8791, "EXTVoiceNo": 8794, "traveltime": 0, "holidayTraveltime": 0}, {"Id": "0434", "pgp": 0, "GoBack": 2, "SID": 4406, "NameZh": "Kaohsiung Municipal United Hospital", "RouteId": 2102, "SeqNo": 6, "Terminal": 0, "DistrictId": 1, "Latitude": 22.655106, "Longitude": 120.292348, "IVRNo": 5836, "EXTVoiceNo": 434, "traveltime": 0, "holidayTraveltime": 0}, {"Id": "5837", "pgp": 0, "GoBack": 2, "SID": 4400, "NameZh": "Kaohsiung Museum of Fine Arts", "RouteId": 2102, "SeqNo": 7, "Terminal": 0, "DistrictId": 1, "Latitude": 22.656929, "Longitude": 120.288353, "IVRNo": 5837, "EXTVoiceNo": 15837, "traveltime": 0, "holidayTraveltime": 0}, {"Id": "9108", "pgp": 0, "GoBack": 2, "SID": 5854, "NameZh": "Art E. 4th Rd.", "RouteId": 2102, "SeqNo": 8, "Terminal": 0, "DistrictId": 1, "Latitude": 22.660246, "Longitude": 120.29035, "IVRNo": 8885, "EXTVoiceNo": 9108, "traveltime": 0, "holidayTraveltime": 0}, {"Id": "0491", "pgp": 0, "GoBack": 2, "SID": 5317, "NameZh": "Art E. 6th St. Intersection (Mingcheng 4th Rd.)", "RouteId": 2102, "SeqNo": 9, "Terminal": 0, "DistrictId": 1, "Latitude": 22.661051, "Longitude": 120.291298, "IVRNo": 7735, "EXTVoiceNo": 20491, "traveltime": 0, "holidayTraveltime": 0}, {"Id": "5846", "pgp": 0, "GoBack": 2, "SID": 4373, "NameZh": "Mingcheng Rd. Intersection (Jhonghua 1st Rd.)", "RouteId": 2102, "SeqNo": 10, "Terminal": 0, "DistrictId": 1, "Latitude": 22.66222, "Longitude": 120.2926, "IVRNo": 936, "EXTVoiceNo": 5846, "traveltime": 0, "holidayTraveltime": 0}, {"Id": "5845", "pgp": 0, "GoBack": 2, "SID": 4376, "NameZh": "St. Paul`s High School", "RouteId": 2102, "SeqNo": 11, "Terminal": 0, "DistrictId": 1, "Latitude": 22.665365, "Longitude": 120.291674, "IVRNo": 5839, "EXTVoiceNo": 5845, "traveltime": 0, "holidayTraveltime": 0}, {"Id": "9106", "pgp": 0, "GoBack": 2, "SID": 5859, "NameZh": "Meiming Rd.", "RouteId": 2102, "SeqNo": 12, "Terminal": 0, "DistrictId": 1, "Latitude": 22.665575, "Longitude": 120.289343, "IVRNo": 8883, "EXTVoiceNo": 9106, "traveltime": 0, "holidayTraveltime": 0}, {"Id": "9105", "pgp": 0, "GoBack": 2, "SID": 5861, "NameZh": "New York 57th St.", "RouteId": 2102, "SeqNo": 13, "Terminal": 0, "DistrictId": 1, "Latitude": 22.663185, "Longitude": 120.288444, "IVRNo": 8882, "EXTVoiceNo": 9105, "traveltime": 0, "holidayTraveltime": 0}, {"Id": "2250", "pgp": 0, "GoBack": 2, "SID": 7899, "NameZh": "Kaohsiung Museum of Fine Arts (Mingcheng 4th Rd.)", "RouteId": 2102, "SeqNo": 14, "Terminal": 0, "DistrictId": 1, "Latitude": 22.66205, "Longitude": 120.28635, "IVRNo": 7736, "EXTVoiceNo": 12250, "traveltime": 0, "holidayTraveltime": 0}, {"Id": "7323", "pgp": 0, "GoBack": 2, "SID": 13816, "NameZh": "Jiouru 4th Rd. Intersection (Fongjia Rd. )", "RouteId": 2102, "SeqNo": 15, "Terminal": 0, "DistrictId": 1, "Latitude": 22.66373, "Longitude": 120.283629, "IVRNo": 7323, "EXTVoiceNo": 7323, "traveltime": 0, "holidayTraveltime": 0}, {"Id": "7322", "pgp": 0, "GoBack": 2, "SID": 3467, "NameZh": "Mingchuan Rd. Intersection (Jiouru 4th Rd.)", "RouteId": 2102, "SeqNo": 16, "Terminal": 0, "DistrictId": 1, "Latitude": 22.665668, "Longitude": 120.284316, "IVRNo": 4720, "EXTVoiceNo": 7322, "traveltime": 0, "holidayTraveltime": 0}, {"Id": "7321", "pgp": 0, "GoBack": 2, "SID": 8546, "NameZh": "Cianfong Community", "RouteId": 2102, "SeqNo": 17, "Terminal": 0, "DistrictId": 1, "Latitude": 22.667215, "Longitude": 120.285462, "IVRNo": 7321, "EXTVoiceNo": 7321, "traveltime": 0, "holidayTraveltime": 0}, {"Id": "5844", "pgp": 0, "GoBack": 2, "SID": 4381, "NameZh": "Guomao Community", "RouteId": 2102, "SeqNo": 18, "Terminal": 0, "DistrictId": 1, "Latitude": 22.671, "Longitude": 120.2866, "IVRNo": 5840, "EXTVoiceNo": 5844, "traveltime": 0, "holidayTraveltime": 0}, {"Id": "4765", "pgp": 0, "GoBack": 2, "SID": 3247, "NameZh": "Haicing Vocational High School of Technology and Commerce", "RouteId": 2102, "SeqNo": 19, "Terminal": 0, "DistrictId": 1, "Latitude": 22.674379, "Longitude": 120.286705, "IVRNo": 4723, "EXTVoiceNo": 4765, "traveltime": 0, "holidayTraveltime": 0}, {"Id": "8293", "pgp": 0, "GoBack": 2, "SID": 8052, "NameZh": "Bisheng Rd.", "RouteId": 2102, "SeqNo": 20, "Terminal": 0, "DistrictId": 1, "Latitude": 22.675532, "Longitude": 120.284222, "IVRNo": 8209, "EXTVoiceNo": 8293, "traveltime": 0, "holidayTraveltime": 0}, {"Id": "7449", "pgp": 0, "GoBack": 2, "SID": 8094, "NameZh": "Sianfong Rd.", "RouteId": 2102, "SeqNo": 21, "Terminal": 0, "DistrictId": 1, "Latitude": 22.678624, "Longitude": 120.282743, "IVRNo": 7449, "EXTVoiceNo": 7449, "traveltime": 0, "holidayTraveltime": 0}, {"Id": "9383", "pgp": 0, "GoBack": 2, "SID": 395, "NameZh": "Jieshou Rd. Intersection", "RouteId": 2102, "SeqNo": 22, "Terminal": 0, "DistrictId": 1, "Latitude": 22.680492, "Longitude": 120.282708, "IVRNo": 357, "EXTVoiceNo": 9383, "traveltime": 0, "holidayTraveltime": 0}, {"Id": "8797", "pgp": 0, "GoBack": 2, "SID": 396, "NameZh": "Jieshou Rd. Intersection", "RouteId": 2102, "SeqNo": 23, "Terminal": 0, "DistrictId": 1, "Latitude": 22.680962, "Longitude": 120.28568, "IVRNo": 8797, "EXTVoiceNo": 8797, "traveltime": 0, "holidayTraveltime": 0}, {"Id": "7585", "pgp": 0, "GoBack": 2, "SID": 5148, "NameZh": "Shengli Rd.", "RouteId": 2102, "SeqNo": 24, "Terminal": 0, "DistrictId": 1, "Latitude": 22.680704, "Longitude": 120.289703, "IVRNo": 7523, "EXTVoiceNo": 7585, "traveltime": 0, "holidayTraveltime": 0}, {"Id": "7584", "pgp": 0, "GoBack": 2, "SID": 5153, "NameZh": "Lotus Pond (Shengli Rd.)", "RouteId": 2102, "SeqNo": 25, "Terminal": 0, "DistrictId": 1, "Latitude": 22.679264, "Longitude": 120.292374, "IVRNo": 7524, "EXTVoiceNo": 7584, "traveltime": 0, "holidayTraveltime": 0}, {"Id": "2430", "pgp": 0, "GoBack": 2, "SID": 18255, "NameZh": "Properties Museum, Lotus Pond Station", "RouteId": 2102, "SeqNo": 26, "Terminal": 0, "DistrictId": 1, "Latitude": 22.678353, "Longitude": 120.295943, "IVRNo": 9976, "EXTVoiceNo": 32430, "traveltime": 0, "holidayTraveltime": 0}, {"Id": "7582", "pgp": 0, "GoBack": 2, "SID": 5156, "NameZh": "Garden Villa", "RouteId": 2102, "SeqNo": 27, "Terminal": 0, "DistrictId": 1, "Latitude": 22.678275, "Longitude": 120.299575, "IVRNo": 7582, "EXTVoiceNo": 7582, "traveltime": 0, "holidayTraveltime": 0}, {"Id": "7527", "pgp": 0, "GoBack": 2, "SID": 5162, "NameZh": "Chongde Rd.", "RouteId": 2102, "SeqNo": 28, "Terminal": 0, "DistrictId": 1, "Latitude": 22.676867, "Longitude": 120.301832, "IVRNo": 7527, "EXTVoiceNo": 7527, "traveltime": 0, "holidayTraveltime": 0}, {"Id": "7528", "pgp": 0, "GoBack": 2, "SID": 5166, "NameZh": "Boai Rd. Intersection (Chongde Rd.)", "RouteId": 2102, "SeqNo": 29, "Terminal": 0, "DistrictId": 1, "Latitude": 22.675288, "Longitude": 120.304382, "IVRNo": 250, "EXTVoiceNo": 7528, "traveltime": 0, "holidayTraveltime": 0}, {"Id": "5060", "pgp": 0, "GoBack": 2, "SID": 3716, "NameZh": "MRT Ecological District Station (Chongshang St. Intersection)", "RouteId": 2102, "SeqNo": 30, "Terminal": 0, "DistrictId": 1, "Latitude": 22.675668, "Longitude": 120.306061, "IVRNo": 32357, "EXTVoiceNo": 5060, "traveltime": 0, "holidayTraveltime": 0}, {"Id": "5012", "pgp": 0, "GoBack": 2, "SID": 3664, "NameZh": "Boai 3rd Rd.", "RouteId": 2102, "SeqNo": 31, "Terminal": 0, "DistrictId": 1, "Latitude": 22.679815, "Longitude": 120.308981, "IVRNo": 5012, "EXTVoiceNo": 5012, "traveltime": 0, "holidayTraveltime": 0}, {"Id": "5027", "pgp": 0, "GoBack": 2, "SID": 3703, "NameZh": "Jhongsin Rd.", "RouteId": 2102, "SeqNo": 32, "Terminal": 0, "DistrictId": 1, "Latitude": 22.684144, "Longitude": 120.310199, "IVRNo": 5027, "EXTVoiceNo": 5027, "traveltime": 0, "holidayTraveltime": 0}, {"Id": "1304", "pgp": 0, "GoBack": 2, "SID": 3706, "NameZh": "Wunfu Rd. Intersection (THSR Xinzuoying Station)", "RouteId": 2102, "SeqNo": 33, "Terminal": 0, "DistrictId": 1, "Latitude": 22.685538, "Longitude": 120.308889, "IVRNo": 1304, "EXTVoiceNo": 1304, "traveltime": 0, "holidayTraveltime": 0}, {"Id": "1008", "pgp": 0, "GoBack": 2, "SID": 3733, "NameZh": "HSR Gaotie Rd. Intersection(Zuoying Shin Kong Mitsukoshi Department Store)", "RouteId": 2102, "SeqNo": 34, "Terminal": 0, "DistrictId": 1, "Latitude": 22.68891, "Longitude": 120.31153, "IVRNo": 5069, "EXTVoiceNo": 1008, "traveltime": 0, "holidayTraveltime": 0}, {"Id": "8301", "pgp": 0, "GoBack": 2, "SID": 5259, "NameZh": "Huasia Rd. Intersection (Chongai Rd.)", "RouteId": 2102, "SeqNo": 35, "Terminal": 0, "DistrictId": 1, "Latitude": 22.687049, "Longitude": 120.313698, "IVRNo": 5619, "EXTVoiceNo": 8301, "traveltime": 0, "holidayTraveltime": 0}, {"Id": "1072", "pgp": 0, "GoBack": 2, "SID": 3666, "NameZh": "Police Radio Station (Boai 4th Rd.)", "RouteId": 2102, "SeqNo": 36, "Terminal": 0, "DistrictId": 1, "Latitude": 22.687316, "Longitude": 120.3169, "IVRNo": 1072, "EXTVoiceNo": 1072, "traveltime": 0, "holidayTraveltime": 0}, {"Id": "5009", "pgp": 0, "GoBack": 2, "SID": 3668, "NameZh": "Wunsyue Rd. Intersection (Huasia Rd.)", "RouteId": 2102, "SeqNo": 37, "Terminal": 0, "DistrictId": 1, "Latitude": 22.688228, "Longitude": 120.319743, "IVRNo": 1009, "EXTVoiceNo": 5009, "traveltime": 0, "holidayTraveltime": 0}, {"Id": "5008", "pgp": 0, "GoBack": 2, "SID": 3670, "NameZh": "Shanshuei Community", "RouteId": 2102, "SeqNo": 38, "Terminal": 0, "DistrictId": 1, "Latitude": 22.686783, "Longitude": 120.32215, "IVRNo": 5008, "EXTVoiceNo": 5008, "traveltime": 0, "holidayTraveltime": 0}, {"Id": "5007", "pgp": 0, "GoBack": 2, "SID": 3673, "NameZh": "Ronghua New Village", "RouteId": 2102, "SeqNo": 39, "Terminal": 0, "DistrictId": 1, "Latitude": 22.683483, "Longitude": 120.3217, "IVRNo": 5007, "EXTVoiceNo": 5007, "traveltime": 0, "holidayTraveltime": 0}, {"Id": "5006", "pgp": 0, "GoBack": 2, "SID": 3676, "NameZh": "Side Entrance to Kaohsiung Veterans General Hospital", "RouteId": 2102, "SeqNo": 40, "Terminal": 0, "DistrictId": 1, "Latitude": 22.679702, "Longitude": 120.321776, "IVRNo": 5006, "EXTVoiceNo": 5006, "traveltime": 0, "holidayTraveltime": 0}, {"Id": "5004", "pgp": 0, "GoBack": 2, "SID": 3688, "NameZh": "Shihhu Elementary School (Dingjhong Rd.)", "RouteId": 2102, "SeqNo": 41, "Terminal": 0, "DistrictId": 1, "Latitude": 22.674085, "Longitude": 120.321665, "IVRNo": 1713, "EXTVoiceNo": 5004, "traveltime": 0, "holidayTraveltime": 0}, {"Id": "1097", "pgp": 0, "GoBack": 2, "SID": 3693, "NameZh": "Wenzao Ursuline University of Languages  (Dingjhong Rd.)", "RouteId": 2102, "SeqNo": 42, "Terminal": 0, "DistrictId": 1, "Latitude": 22.670949, "Longitude": 120.320748, "IVRNo": 1097, "EXTVoiceNo": 1097, "traveltime": 0, "holidayTraveltime": 0}, {"Id": "5054", "pgp": 0, "GoBack": 2, "SID": 3699, "NameZh": "Dingciang St. Intersection", "RouteId": 2102, "SeqNo": 43, "Terminal": 0, "DistrictId": 1, "Latitude": 22.667051, "Longitude": 120.321489, "IVRNo": 5002, "EXTVoiceNo": 5054, "traveltime": 0, "holidayTraveltime": 0}, {"Id": "5001", "pgp": 0, "GoBack": 2, "SID": 3533, "NameZh": "Golden Lion Lake Station", "RouteId": 2102, "SeqNo": 44, "Terminal": 1, "DistrictId": 1, "Latitude": 22.66571, "Longitude": 120.3218, "IVRNo": 5000, "EXTVoiceNo": 5001, "traveltime": 0, "holidayTraveltime": 0}], "zh": [{"Id": "5001", "pgp": 0, "GoBack": 1, "SID": 3538, "NameZh": "\u91d1\u7345\u6e56\u7ad9", "RouteId": 2102, "SeqNo": 1, "Terminal": 0, "DistrictId": 1, "Latitude": 22.66584, "Longitude": 120.321916, "IVRNo": 5000, "EXTVoiceNo": 5001, "traveltime": 0, "holidayTraveltime": 0}, {"Id": "5054", "pgp": 0, "GoBack": 1, "SID": 5611, "NameZh": "\u9f0e\u5f37\u8857\u53e3", "RouteId": 2102, "SeqNo": 2, "Terminal": 0, "DistrictId": 1, "Latitude": 22.667216, "Longitude": 120.321533, "IVRNo": 5002, "EXTVoiceNo": 5054, "traveltime": 0, "holidayTraveltime": 0}, {"Id": "1097", "pgp": 0, "GoBack": 1, "SID": 3561, "NameZh": "\u6587\u85fb\u5916\u8a9e\u5927\u5b78(\u9f0e\u4e2d\u8def)", "RouteId": 2102, "SeqNo": 3, "Terminal": 0, "DistrictId": 1, "Latitude": 22.67095, "Longitude": 120.320833, "IVRNo": 1097, "EXTVoiceNo": 1097, "traveltime": 0, "holidayTraveltime": 0}, {"Id": "5004", "pgp": 0, "GoBack": 1, "SID": 3564, "NameZh": "\u7345\u6e56\u570b\u5c0f(\u9f0e\u4e2d\u8def)", "RouteId": 2102, "SeqNo": 4, "Terminal": 0, "DistrictId": 1, "Latitude": 22.673433, "Longitude": 120.3216, "IVRNo": 1713, "EXTVoiceNo": 5004, "traveltime": 0, "holidayTraveltime": 0}, {"Id": "5006", "pgp": 0, "GoBack": 1, "SID": 3574, "NameZh": "\u69ae\u7e3d\u5074\u9580", "RouteId": 2102, "SeqNo": 5, "Terminal": 0, "DistrictId": 1, "Latitude": 22.679681, "Longitude": 120.321831, "IVRNo": 5006, "EXTVoiceNo": 5006, "traveltime": 0, "holidayTraveltime": 0}, {"Id": "5007", "pgp": 0, "GoBack": 1, "SID": 3579, "NameZh": "\u69ae\u83ef\u65b0\u6751", "RouteId": 2102, "SeqNo": 6, "Terminal": 0, "DistrictId": 1, "Latitude": 22.683483, "Longitude": 120.3217, "IVRNo": 5007, "EXTVoiceNo": 5007, "traveltime": 0, "holidayTraveltime": 0}, {"Id": "5008", "pgp": 0, "GoBack": 1, "SID": 3581, "NameZh": "\u5c71\u6c34\u793e\u5340", "RouteId": 2102, "SeqNo": 7, "Terminal": 0, "DistrictId": 1, "Latitude": 22.686834, "Longitude": 120.32224, "IVRNo": 5008, "EXTVoiceNo": 5008, "traveltime": 0, "holidayTraveltime": 0}, {"Id": "5009", "pgp": 0, "GoBack": 1, "SID": 3582, "NameZh": "\u6587\u5b78\u8def\u53e3(\u83ef\u590f\u8def)", "RouteId": 2102, "SeqNo": 8, "Terminal": 0, "DistrictId": 1, "Latitude": 22.68836, "Longitude": 120.3198, "IVRNo": 1009, "EXTVoiceNo": 5009, "traveltime": 0, "holidayTraveltime": 0}, {"Id": "1072", "pgp": 0, "GoBack": 1, "SID": 3584, "NameZh": "\u8b66\u5ee3\u7ad9(\u535a\u611b\u56db\u8def)", "RouteId": 2102, "SeqNo": 9, "Terminal": 0, "DistrictId": 1, "Latitude": 22.687375, "Longitude": 120.316819, "IVRNo": 1072, "EXTVoiceNo": 1072, "traveltime": 0, "holidayTraveltime": 0}, {"Id": "8301", "pgp": 0, "GoBack": 1, "SID": 5305, "NameZh": "\u83ef\u590f\u8def\u53e3(\u91cd\u611b\u8def)", "RouteId": 2102, "SeqNo": 10, "Terminal": 0, "DistrictId": 1, "Latitude": 22.687008, "Longitude": 120.313836, "IVRNo": 5619, "EXTVoiceNo": 8301, "traveltime": 0, "holidayTraveltime": 0}, {"Id": "1008", "pgp": 0, "GoBack": 1, "SID": 3731, "NameZh": "\u9ad8\u9435\u8def\u53e3(\u5de6\u71df\u65b0\u5149\u4e09\u8d8a)", "RouteId": 2102, "SeqNo": 11, "Terminal": 0, "DistrictId": 1, "Latitude": 22.68896, "Longitude": 120.31158, "IVRNo": 5069, "EXTVoiceNo": 1008, "traveltime": 0, "holidayTraveltime": 0}, {"Id": "5026", "pgp": 0, "GoBack": 1, "SID": 3633, "NameZh": "\u9ad8\u9435\u5de6\u71df\u7ad9", "RouteId": 2102, "SeqNo": 12, "Terminal": 0, "DistrictId": 1, "Latitude": 22.686962, "Longitude": 120.308698, "IVRNo": 5026, "EXTVoiceNo": 5026, "traveltime": 0, "holidayTraveltime": 0}, {"Id": "5027", "pgp": 0, "GoBack": 1, "SID": 3635, "NameZh": "\u91cd\u4fe1\u8def", "RouteId": 2102, "SeqNo": 13, "Terminal": 0, "DistrictId": 1, "Latitude": 22.684588, "Longitude": 120.309906, "IVRNo": 5027, "EXTVoiceNo": 5027, "traveltime": 0, "holidayTraveltime": 0}, {"Id": "5012", "pgp": 0, "GoBack": 1, "SID": 3588, "NameZh": "\u535a\u611b\u4e09\u8def", "RouteId": 2102, "SeqNo": 14, "Terminal": 0, "DistrictId": 1, "Latitude": 22.680629, "Longitude": 120.309713, "IVRNo": 5012, "EXTVoiceNo": 5012, "traveltime": 0, "holidayTraveltime": 0}, {"Id": "5061", "pgp": 0, "GoBack": 1, "SID": 3719, "NameZh": "\u6377\u904b\u751f\u614b\u5712\u5340\u7ad9(\u535a\u611b\u516c\u5712)", "RouteId": 2102, "SeqNo": 15, "Terminal": 0, "DistrictId": 1, "Latitude": 22.676904, "Longitude": 120.306609, "IVRNo": 1271, "EXTVoiceNo": 5061, "traveltime": 0, "holidayTraveltime": 0}, {"Id": "7528", "pgp": 0, "GoBack": 1, "SID": 5185, "NameZh": "\u535a\u611b\u8def\u53e3(\u5d07\u5fb7\u8def)", "RouteId": 2102, "SeqNo": 16, "Terminal": 0, "DistrictId": 1, "Latitude": 22.675366, "Longitude": 120.304342, "IVRNo": 250, "EXTVoiceNo": 7528, "traveltime": 0, "holidayTraveltime": 0}, {"Id": "7527", "pgp": 0, "GoBack": 1, "SID": 5191, "NameZh": "\u5d07\u5fb7\u8def", "RouteId": 2102, "SeqNo": 17, "Terminal": 0, "DistrictId": 1, "Latitude": 22.67702, "Longitude": 120.301746, "IVRNo": 7527, "EXTVoiceNo": 7527, "traveltime": 0, "holidayTraveltime": 0}, {"Id": "7582", "pgp": 0, "GoBack": 1, "SID": 5160, "NameZh": "\u84ee\u6f6d\u6703\u9928", "RouteId": 2102, "SeqNo": 18, "Terminal": 0, "DistrictId": 1, "Latitude": 22.678275, "Longitude": 120.299575, "IVRNo": 7582, "EXTVoiceNo": 7582, "traveltime": 0, "holidayTraveltime": 0}, {"Id": "2430", "pgp": 0, "GoBack": 1, "SID": 11533, "NameZh": "\u7269\u7522\u9928\u84ee\u6f6d\u7ad9", "RouteId": 2102, "SeqNo": 19, "Terminal": 0, "DistrictId": 1, "Latitude": 22.678435, "Longitude": 120.295152, "IVRNo": 9976, "EXTVoiceNo": 32430, "traveltime": 0, "holidayTraveltime": 0}, {"Id": "7584", "pgp": 0, "GoBack": 1, "SID": 5200, "NameZh": "\u84ee\u6c60\u6f6d(\u52dd\u5229\u8def)", "RouteId": 2102, "SeqNo": 20, "Terminal": 0, "DistrictId": 1, "Latitude": 22.679861, "Longitude": 120.292183, "IVRNo": 7524, "EXTVoiceNo": 7584, "traveltime": 0, "holidayTraveltime": 0}, {"Id": "7585", "pgp": 0, "GoBack": 1, "SID": 5207, "NameZh": "\u52dd\u5229\u8def", "RouteId": 2102, "SeqNo": 21, "Terminal": 0, "DistrictId": 1, "Latitude": 22.680853, "Longitude": 120.289734, "IVRNo": 7523, "EXTVoiceNo": 7585, "traveltime": 0, "holidayTraveltime": 0}, {"Id": "8797", "pgp": 0, "GoBack": 1, "SID": 13786, "NameZh": "\u4ecb\u58fd\u8def(\u5de6\u71df\u6d77\u8ecd\u8ecd\u5340)", "RouteId": 2102, "SeqNo": 22, "Terminal": 0, "DistrictId": 1, "Latitude": 22.681093, "Longitude": 120.285764, "IVRNo": 8797, "EXTVoiceNo": 8797, "traveltime": 0, "holidayTraveltime": 0}, {"Id": "9383", "pgp": 0, "GoBack": 1, "SID": 13958, "NameZh": "\u4ecb\u58fd\u8def\u53e3", "RouteId": 2102, "SeqNo": 23, "Terminal": 0, "DistrictId": 1, "Latitude": 22.680538, "Longitude": 120.282577, "IVRNo": 357, "EXTVoiceNo": 9383, "traveltime": 0, "holidayTraveltime": 0}, {"Id": "7449", "pgp": 0, "GoBack": 1, "SID": 14302, "NameZh": "\u5148\u92d2\u8def", "RouteId": 2102, "SeqNo": 24, "Terminal": 0, "DistrictId": 1, "Latitude": 22.678186, "Longitude": 120.282598, "IVRNo": 7449, "EXTVoiceNo": 7449, "traveltime": 0, "holidayTraveltime": 0}, {"Id": "8293", "pgp": 0, "GoBack": 1, "SID": 14333, "NameZh": "\u5fc5\u52dd\u8def", "RouteId": 2102, "SeqNo": 25, "Terminal": 0, "DistrictId": 1, "Latitude": 22.675357, "Longitude": 120.284219, "IVRNo": 8209, "EXTVoiceNo": 8293, "traveltime": 0, "holidayTraveltime": 0}, {"Id": "4765", "pgp": 0, "GoBack": 1, "SID": 3456, "NameZh": "\u6d77\u9752\u5de5\u5546", "RouteId": 2102, "SeqNo": 26, "Terminal": 0, "DistrictId": 1, "Latitude": 22.674812, "Longitude": 120.286377, "IVRNo": 4723, "EXTVoiceNo": 4765, "traveltime": 0, "holidayTraveltime": 0}, {"Id": "5844", "pgp": 0, "GoBack": 1, "SID": 4392, "NameZh": "\u679c\u8cbf\u793e\u5340", "RouteId": 2102, "SeqNo": 27, "Terminal": 0, "DistrictId": 1, "Latitude": 22.670092, "Longitude": 120.286369, "IVRNo": 5840, "EXTVoiceNo": 5844, "traveltime": 0, "holidayTraveltime": 0}, {"Id": "7321", "pgp": 0, "GoBack": 1, "SID": 8513, "NameZh": "\u524d\u92d2\u793e\u5340", "RouteId": 2102, "SeqNo": 28, "Terminal": 0, "DistrictId": 1, "Latitude": 22.667512, "Longitude": 120.285441, "IVRNo": 7321, "EXTVoiceNo": 7321, "traveltime": 0, "holidayTraveltime": 0}, {"Id": "7322", "pgp": 0, "GoBack": 1, "SID": 3229, "NameZh": "\u9298\u50b3\u8def\u53e3(\u4e5d\u5982\u56db\u8def)", "RouteId": 2102, "SeqNo": 29, "Terminal": 0, "DistrictId": 1, "Latitude": 22.665668, "Longitude": 120.284316, "IVRNo": 4720, "EXTVoiceNo": 7322, "traveltime": 0, "holidayTraveltime": 0}, {"Id": "7323", "pgp": 0, "GoBack": 1, "SID": 4920, "NameZh": "\u4e5d\u5982\u56db\u8def\u53e3(\u9022\u7532\u8def)", "RouteId": 2102, "SeqNo": 30, "Terminal": 0, "DistrictId": 1, "Latitude": 22.663751, "Longitude": 120.283455, "IVRNo": 7323, "EXTVoiceNo": 7323, "traveltime": 0, "holidayTraveltime": 0}, {"Id": "2250", "pgp": 0, "GoBack": 1, "SID": 5320, "NameZh": "\u7f8e\u8853\u9928(\u660e\u8aa0\u56db\u8def)", "RouteId": 2102, "SeqNo": 31, "Terminal": 0, "DistrictId": 1, "Latitude": 22.66191, "Longitude": 120.28635, "IVRNo": 7736, "EXTVoiceNo": 12250, "traveltime": 0, "holidayTraveltime": 0}, {"Id": "9105", "pgp": 0, "GoBack": 1, "SID": 5843, "NameZh": "\u7d10\u7d0457\u8857", "RouteId": 2102, "SeqNo": 32, "Terminal": 0, "DistrictId": 1, "Latitude": 22.663171, "Longitude": 120.288622, "IVRNo": 8882, "EXTVoiceNo": 9105, "traveltime": 0, "holidayTraveltime": 0}, {"Id": "9106", "pgp": 0, "GoBack": 1, "SID": 5846, "NameZh": "\u7f8e\u660e\u8def", "RouteId": 2102, "SeqNo": 33, "Terminal": 0, "DistrictId": 1, "Latitude": 22.665441, "Longitude": 120.289392, "IVRNo": 8883, "EXTVoiceNo": 9106, "traveltime": 0, "holidayTraveltime": 0}, {"Id": "5845", "pgp": 0, "GoBack": 1, "SID": 4394, "NameZh": "\u660e\u8aa0\u4e2d\u5b78(\u7f8e\u660e)", "RouteId": 2102, "SeqNo": 34, "Terminal": 0, "DistrictId": 1, "Latitude": 22.665365, "Longitude": 120.291674, "IVRNo": 5839, "EXTVoiceNo": 5845, "traveltime": 0, "holidayTraveltime": 0}, {"Id": "5846", "pgp": 0, "GoBack": 1, "SID": 4398, "NameZh": "\u660e\u8aa0\u8def\u53e3(\u4e2d\u83ef\u4e00\u8def)", "RouteId": 2102, "SeqNo": 35, "Terminal": 0, "DistrictId": 1, "Latitude": 22.66284, "Longitude": 120.2923, "IVRNo": 936, "EXTVoiceNo": 5846, "traveltime": 0, "holidayTraveltime": 0}, {"Id": "0491", "pgp": 0, "GoBack": 1, "SID": 5322, "NameZh": "\u7f8e\u8853\u6771\u516d\u8857\u53e3(\u660e\u8aa0\u56db\u8def)", "RouteId": 2102, "SeqNo": 36, "Terminal": 0, "DistrictId": 1, "Latitude": 22.66128, "Longitude": 120.2911, "IVRNo": 7735, "EXTVoiceNo": 20491, "traveltime": 0, "holidayTraveltime": 0}, {"Id": "9108", "pgp": 0, "GoBack": 1, "SID": 5849, "NameZh": "\u7f8e\u8853\u6771\u56db\u8def", "RouteId": 2102, "SeqNo": 37, "Terminal": 0, "DistrictId": 1, "Latitude": 22.660259, "Longitude": 120.290255, "IVRNo": 8885, "EXTVoiceNo": 9108, "traveltime": 0, "holidayTraveltime": 0}, {"Id": "5837", "pgp": 0, "GoBack": 1, "SID": 4368, "NameZh": "\u9ad8\u96c4\u5e02\u7acb\u7f8e\u8853\u9928", "RouteId": 2102, "SeqNo": 38, "Terminal": 0, "DistrictId": 1, "Latitude": 22.656707, "Longitude": 120.288154, "IVRNo": 5837, "EXTVoiceNo": 15837, "traveltime": 0, "holidayTraveltime": 0}, {"Id": "1375", "pgp": 0, "GoBack": 1, "SID": 2758, "NameZh": "\u7f8e\u8853\u9928(\u4e2d\u83ef\u85dd\u6821)", "RouteId": 2102, "SeqNo": 39, "Terminal": 0, "DistrictId": 1, "Latitude": 22.656175, "Longitude": 120.288688, "IVRNo": 1375, "EXTVoiceNo": 1375, "traveltime": 0, "holidayTraveltime": 0}, {"Id": "0434", "pgp": 0, "GoBack": 1, "SID": 4366, "NameZh": "\u5e02\u7acb\u806f\u5408\u91ab\u9662", "RouteId": 2102, "SeqNo": 40, "Terminal": 0, "DistrictId": 1, "Latitude": 22.65526, "Longitude": 120.29208, "IVRNo": 5836, "EXTVoiceNo": 434, "traveltime": 0, "holidayTraveltime": 0}, {"Id": "8794", "pgp": 0, "GoBack": 1, "SID": 5749, "NameZh": "\u88d5\u8aa0\u8def", "RouteId": 2102, "SeqNo": 41, "Terminal": 0, "DistrictId": 1, "Latitude": 22.657661, "Longitude": 120.294092, "IVRNo": 8791, "EXTVoiceNo": 8794, "traveltime": 0, "holidayTraveltime": 0}, {"Id": "4026", "pgp": 0, "GoBack": 1, "SID": 5750, "NameZh": "\u9f8d\u5fb7\u8def\u53e3(\u795e\u8fb2\u8def)", "RouteId": 2102, "SeqNo": 42, "Terminal": 0, "DistrictId": 1, "Latitude": 22.657794, "Longitude": 120.296683, "IVRNo": 4026, "EXTVoiceNo": 4026, "traveltime": 0, "holidayTraveltime": 0}, {"Id": "4062", "pgp": 0, "GoBack": 1, "SID": 3646, "NameZh": "\u6377\u904b\u51f9\u5b50\u5e95\u7ad9", "RouteId": 2102, "SeqNo": 43, "Terminal": 1, "DistrictId": 1, "Latitude": 22.657736, "Longitude": 120.303008, "IVRNo": 4033, "EXTVoiceNo": 4062, "traveltime": 0, "holidayTraveltime": 0}, {"Id": "4062", "pgp": 0, "GoBack": 2, "SID": 3605, "NameZh": "\u6377\u904b\u51f9\u5b50\u5e95\u7ad9", "RouteId": 2102, "SeqNo": 1, "Terminal": 0, "DistrictId": 1, "Latitude": 22.65677, "Longitude": 120.303082, "IVRNo": 4033, "EXTVoiceNo": 4062, "traveltime": 0, "holidayTraveltime": 0}, {"Id": "4062", "pgp": 0, "GoBack": 2, "SID": 2720, "NameZh": "\u6377\u904b\u51f9\u5b50\u5e95\u7ad9(\u5927\u9806\u4e00\u8def)", "RouteId": 2102, "SeqNo": 2, "Terminal": 0, "DistrictId": 1, "Latitude": 22.65609, "Longitude": 120.30264, "IVRNo": 4050, "EXTVoiceNo": 4062, "traveltime": 0, "holidayTraveltime": 0}, {"Id": "8723", "pgp": 0, "GoBack": 2, "SID": 5671, "NameZh": "\u5357\u5c4f\u8def", "RouteId": 2102, "SeqNo": 3, "Terminal": 0, "DistrictId": 1, "Latitude": 22.657012, "Longitude": 120.300065, "IVRNo": 691, "EXTVoiceNo": 8723, "traveltime": 0, "holidayTraveltime": 0}, {"Id": "4026", "pgp": 0, "GoBack": 2, "SID": 5751, "NameZh": "\u9f8d\u5fb7\u8def\u53e3(\u795e\u8fb2\u8def)", "RouteId": 2102, "SeqNo": 4, "Terminal": 0, "DistrictId": 1, "Latitude": 22.657863, "Longitude": 120.296686, "IVRNo": 4026, "EXTVoiceNo": 4026, "traveltime": 0, "holidayTraveltime": 0}, {"Id": "8794", "pgp": 0, "GoBack": 2, "SID": 5752, "NameZh": "\u88d5\u8aa0\u8def", "RouteId": 2102, "SeqNo": 5, "Terminal": 0, "DistrictId": 1, "Latitude": 22.65825, "Longitude": 120.29408, "IVRNo": 8791, "EXTVoiceNo": 8794, "traveltime": 0, "holidayTraveltime": 0}, {"Id": "0434", "pgp": 0, "GoBack": 2, "SID": 4406, "NameZh": "\u5e02\u7acb\u806f\u5408\u91ab\u9662", "RouteId": 2102, "SeqNo": 6, "Terminal": 0, "DistrictId": 1, "Latitude": 22.655106, "Longitude": 120.292348, "IVRNo": 5836, "EXTVoiceNo": 434, "traveltime": 0, "holidayTraveltime": 0}, {"Id": "5837", "pgp": 0, "GoBack": 2, "SID": 4400, "NameZh": "\u9ad8\u96c4\u5e02\u7acb\u7f8e\u8853\u9928", "RouteId": 2102, "SeqNo": 7, "Terminal": 0, "DistrictId": 1, "Latitude": 22.656929, "Longitude": 120.288353, "IVRNo": 5837, "EXTVoiceNo": 15837, "traveltime": 0, "holidayTraveltime": 0}, {"Id": "9108", "pgp": 0, "GoBack": 2, "SID": 5854, "NameZh": "\u7f8e\u8853\u6771\u56db\u8def", "RouteId": 2102, "SeqNo": 8, "Terminal": 0, "DistrictId": 1, "Latitude": 22.660246, "Longitude": 120.29035, "IVRNo": 8885, "EXTVoiceNo": 9108, "traveltime": 0, "holidayTraveltime": 0}, {"Id": "0491", "pgp": 0, "GoBack": 2, "SID": 5317, "NameZh": "\u7f8e\u8853\u6771\u516d\u8857\u53e3(\u660e\u8aa0\u56db\u8def)", "RouteId": 2102, "SeqNo": 9, "Terminal": 0, "DistrictId": 1, "Latitude": 22.661051, "Longitude": 120.291298, "IVRNo": 7735, "EXTVoiceNo": 20491, "traveltime": 0, "holidayTraveltime": 0}, {"Id": "5846", "pgp": 0, "GoBack": 2, "SID": 4373, "NameZh": "\u660e\u8aa0\u8def\u53e3(\u4e2d\u83ef\u4e00\u8def)", "RouteId": 2102, "SeqNo": 10, "Terminal": 0, "DistrictId": 1, "Latitude": 22.66222, "Longitude": 120.2926, "IVRNo": 936, "EXTVoiceNo": 5846, "traveltime": 0, "holidayTraveltime": 0}, {"Id": "5845", "pgp": 0, "GoBack": 2, "SID": 4376, "NameZh": "\u660e\u8aa0\u4e2d\u5b78(\u7f8e\u660e)", "RouteId": 2102, "SeqNo": 11, "Terminal": 0, "DistrictId": 1, "Latitude": 22.665365, "Longitude": 120.291674, "IVRNo": 5839, "EXTVoiceNo": 5845, "traveltime": 0, "holidayTraveltime": 0}, {"Id": "9106", "pgp": 0, "GoBack": 2, "SID": 5859, "NameZh": "\u7f8e\u660e\u8def", "RouteId": 2102, "SeqNo": 12, "Terminal": 0, "DistrictId": 1, "Latitude": 22.665575, "Longitude": 120.289343, "IVRNo": 8883, "EXTVoiceNo": 9106, "traveltime": 0, "holidayTraveltime": 0}, {"Id": "9105", "pgp": 0, "GoBack": 2, "SID": 5861, "NameZh": "\u7d10\u7d0457\u8857", "RouteId": 2102, "SeqNo": 13, "Terminal": 0, "DistrictId": 1, "Latitude": 22.663185, "Longitude": 120.288444, "IVRNo": 8882, "EXTVoiceNo": 9105, "traveltime": 0, "holidayTraveltime": 0}, {"Id": "2250", "pgp": 0, "GoBack": 2, "SID": 7899, "NameZh": "\u7f8e\u8853\u9928(\u660e\u8aa0\u56db\u8def)", "RouteId": 2102, "SeqNo": 14, "Terminal": 0, "DistrictId": 1, "Latitude": 22.66205, "Longitude": 120.28635, "IVRNo": 7736, "EXTVoiceNo": 12250, "traveltime": 0, "holidayTraveltime": 0}, {"Id": "7323", "pgp": 0, "GoBack": 2, "SID": 13816, "NameZh": "\u4e5d\u5982\u56db\u8def\u53e3(\u9022\u7532\u8def)", "RouteId": 2102, "SeqNo": 15, "Terminal": 0, "DistrictId": 1, "Latitude": 22.66373, "Longitude": 120.283629, "IVRNo": 7323, "EXTVoiceNo": 7323, "traveltime": 0, "holidayTraveltime": 0}, {"Id": "7322", "pgp": 0, "GoBack": 2, "SID": 3467, "NameZh": "\u9298\u50b3\u8def\u53e3(\u4e5d\u5982\u56db\u8def)", "RouteId": 2102, "SeqNo": 16, "Terminal": 0, "DistrictId": 1, "Latitude": 22.665668, "Longitude": 120.284316, "IVRNo": 4720, "EXTVoiceNo": 7322, "traveltime": 0, "holidayTraveltime": 0}, {"Id": "7321", "pgp": 0, "GoBack": 2, "SID": 8546, "NameZh": "\u524d\u92d2\u793e\u5340", "RouteId": 2102, "SeqNo": 17, "Terminal": 0, "DistrictId": 1, "Latitude": 22.667215, "Longitude": 120.285462, "IVRNo": 7321, "EXTVoiceNo": 7321, "traveltime": 0, "holidayTraveltime": 0}, {"Id": "5844", "pgp": 0, "GoBack": 2, "SID": 4381, "NameZh": "\u679c\u8cbf\u793e\u5340", "RouteId": 2102, "SeqNo": 18, "Terminal": 0, "DistrictId": 1, "Latitude": 22.671, "Longitude": 120.2866, "IVRNo": 5840, "EXTVoiceNo": 5844, "traveltime": 0, "holidayTraveltime": 0}, {"Id": "4765", "pgp": 0, "GoBack": 2, "SID": 3247, "NameZh": "\u6d77\u9752\u5de5\u5546", "RouteId": 2102, "SeqNo": 19, "Terminal": 0, "DistrictId": 1, "Latitude": 22.674379, "Longitude": 120.286705, "IVRNo": 4723, "EXTVoiceNo": 4765, "traveltime": 0, "holidayTraveltime": 0}, {"Id": "8293", "pgp": 0, "GoBack": 2, "SID": 8052, "NameZh": "\u5fc5\u52dd\u8def", "RouteId": 2102, "SeqNo": 20, "Terminal": 0, "DistrictId": 1, "Latitude": 22.675532, "Longitude": 120.284222, "IVRNo": 8209, "EXTVoiceNo": 8293, "traveltime": 0, "holidayTraveltime": 0}, {"Id": "7449", "pgp": 0, "GoBack": 2, "SID": 8094, "NameZh": "\u5148\u92d2\u8def", "RouteId": 2102, "SeqNo": 21, "Terminal": 0, "DistrictId": 1, "Latitude": 22.678624, "Longitude": 120.282743, "IVRNo": 7449, "EXTVoiceNo": 7449, "traveltime": 0, "holidayTraveltime": 0}, {"Id": "9383", "pgp": 0, "GoBack": 2, "SID": 395, "NameZh": "\u4ecb\u58fd\u8def\u53e3", "RouteId": 2102, "SeqNo": 22, "Terminal": 0, "DistrictId": 1, "Latitude": 22.680492, "Longitude": 120.282708, "IVRNo": 357, "EXTVoiceNo": 9383, "traveltime": 0, "holidayTraveltime": 0}, {"Id": "8797", "pgp": 0, "GoBack": 2, "SID": 396, "NameZh": "\u4ecb\u58fd\u8def(\u5de6\u71df\u6d77\u8ecd\u8ecd\u5340)", "RouteId": 2102, "SeqNo": 23, "Terminal": 0, "DistrictId": 1, "Latitude": 22.680962, "Longitude": 120.28568, "IVRNo": 8797, "EXTVoiceNo": 8797, "traveltime": 0, "holidayTraveltime": 0}, {"Id": "7585", "pgp": 0, "GoBack": 2, "SID": 5148, "NameZh": "\u52dd\u5229\u8def", "RouteId": 2102, "SeqNo": 24, "Terminal": 0, "DistrictId": 1, "Latitude": 22.680704, "Longitude": 120.289703, "IVRNo": 7523, "EXTVoiceNo": 7585, "traveltime": 0, "holidayTraveltime": 0}, {"Id": "7584", "pgp": 0, "GoBack": 2, "SID": 5153, "NameZh": "\u84ee\u6c60\u6f6d(\u52dd\u5229\u8def)", "RouteId": 2102, "SeqNo": 25, "Terminal": 0, "DistrictId": 1, "Latitude": 22.679264, "Longitude": 120.292374, "IVRNo": 7524, "EXTVoiceNo": 7584, "traveltime": 0, "holidayTraveltime": 0}, {"Id": "2430", "pgp": 0, "GoBack": 2, "SID": 18255, "NameZh": "\u7269\u7522\u9928\u84ee\u6f6d\u7ad9", "RouteId": 2102, "SeqNo": 26, "Terminal": 0, "DistrictId": 1, "Latitude": 22.678353, "Longitude": 120.295943, "IVRNo": 9976, "EXTVoiceNo": 32430, "traveltime": 0, "holidayTraveltime": 0}, {"Id": "7582", "pgp": 0, "GoBack": 2, "SID": 5156, "NameZh": "\u84ee\u6f6d\u6703\u9928", "RouteId": 2102, "SeqNo": 27, "Terminal": 0, "DistrictId": 1, "Latitude": 22.678275, "Longitude": 120.299575, "IVRNo": 7582, "EXTVoiceNo": 7582, "traveltime": 0, "holidayTraveltime": 0}, {"Id": "7527", "pgp": 0, "GoBack": 2, "SID": 5162, "NameZh": "\u5d07\u5fb7\u8def", "RouteId": 2102, "SeqNo": 28, "Terminal": 0, "DistrictId": 1, "Latitude": 22.676867, "Longitude": 120.301832, "IVRNo": 7527, "EXTVoiceNo": 7527, "traveltime": 0, "holidayTraveltime": 0}, {"Id": "7528", "pgp": 0, "GoBack": 2, "SID": 5166, "NameZh": "\u535a\u611b\u8def\u53e3(\u5d07\u5fb7\u8def)", "RouteId": 2102, "SeqNo": 29, "Terminal": 0, "DistrictId": 1, "Latitude": 22.675288, "Longitude": 120.304382, "IVRNo": 250, "EXTVoiceNo": 7528, "traveltime": 0, "holidayTraveltime": 0}, {"Id": "5060", "pgp": 0, "GoBack": 2, "SID": 3716, "NameZh": "\u6377\u904b\u751f\u614b\u5712\u5340\u7ad9(\u91cd\u4e0a\u8857\u53e3)", "RouteId": 2102, "SeqNo": 30, "Terminal": 0, "DistrictId": 1, "Latitude": 22.675668, "Longitude": 120.306061, "IVRNo": 32357, "EXTVoiceNo": 5060, "traveltime": 0, "holidayTraveltime": 0}, {"Id": "5012", "pgp": 0, "GoBack": 2, "SID": 3664, "NameZh": "\u535a\u611b\u4e09\u8def", "RouteId": 2102, "SeqNo": 31, "Terminal": 0, "DistrictId": 1, "Latitude": 22.679815, "Longitude": 120.308981, "IVRNo": 5012, "EXTVoiceNo": 5012, "traveltime": 0, "holidayTraveltime": 0}, {"Id": "5027", "pgp": 0, "GoBack": 2, "SID": 3703, "NameZh": "\u91cd\u4fe1\u8def", "RouteId": 2102, "SeqNo": 32, "Terminal": 0, "DistrictId": 1, "Latitude": 22.684144, "Longitude": 120.310199, "IVRNo": 5027, "EXTVoiceNo": 5027, "traveltime": 0, "holidayTraveltime": 0}, {"Id": "1304", "pgp": 0, "GoBack": 2, "SID": 3706, "NameZh": "\u6587\u5e9c\u8def\u53e3(\u9ad8\u9435\u5de6\u71df\u7ad9)", "RouteId": 2102, "SeqNo": 33, "Terminal": 0, "DistrictId": 1, "Latitude": 22.685538, "Longitude": 120.308889, "IVRNo": 1304, "EXTVoiceNo": 1304, "traveltime": 0, "holidayTraveltime": 0}, {"Id": "1008", "pgp": 0, "GoBack": 2, "SID": 3733, "NameZh": "\u9ad8\u9435\u8def\u53e3(\u5de6\u71df\u65b0\u5149\u4e09\u8d8a)", "RouteId": 2102, "SeqNo": 34, "Terminal": 0, "DistrictId": 1, "Latitude": 22.68891, "Longitude": 120.31153, "IVRNo": 5069, "EXTVoiceNo": 1008, "traveltime": 0, "holidayTraveltime": 0}, {"Id": "8301", "pgp": 0, "GoBack": 2, "SID": 5259, "NameZh": "\u83ef\u590f\u8def\u53e3(\u91cd\u611b\u8def)", "RouteId": 2102, "SeqNo": 35, "Terminal": 0, "DistrictId": 1, "Latitude": 22.687049, "Longitude": 120.313698, "IVRNo": 5619, "EXTVoiceNo": 8301, "traveltime": 0, "holidayTraveltime": 0}, {"Id": "1072", "pgp": 0, "GoBack": 2, "SID": 3666, "NameZh": "\u8b66\u5ee3\u7ad9(\u535a\u611b\u56db\u8def)", "RouteId": 2102, "SeqNo": 36, "Terminal": 0, "DistrictId": 1, "Latitude": 22.687316, "Longitude": 120.3169, "IVRNo": 1072, "EXTVoiceNo": 1072, "traveltime": 0, "holidayTraveltime": 0}, {"Id": "5009", "pgp": 0, "GoBack": 2, "SID": 3668, "NameZh": "\u6587\u5b78\u8def\u53e3(\u83ef\u590f\u8def)", "RouteId": 2102, "SeqNo": 37, "Terminal": 0, "DistrictId": 1, "Latitude": 22.688228, "Longitude": 120.319743, "IVRNo": 1009, "EXTVoiceNo": 5009, "traveltime": 0, "holidayTraveltime": 0}, {"Id": "5008", "pgp": 0, "GoBack": 2, "SID": 3670, "NameZh": "\u5c71\u6c34\u793e\u5340", "RouteId": 2102, "SeqNo": 38, "Terminal": 0, "DistrictId": 1, "Latitude": 22.686783, "Longitude": 120.32215, "IVRNo": 5008, "EXTVoiceNo": 5008, "traveltime": 0, "holidayTraveltime": 0}, {"Id": "5007", "pgp": 0, "GoBack": 2, "SID": 3673, "NameZh": "\u69ae\u83ef\u65b0\u6751", "RouteId": 2102, "SeqNo": 39, "Terminal": 0, "DistrictId": 1, "Latitude": 22.683483, "Longitude": 120.3217, "IVRNo": 5007, "EXTVoiceNo": 5007, "traveltime": 0, "holidayTraveltime": 0}, {"Id": "5006", "pgp": 0, "GoBack": 2, "SID": 3676, "NameZh": "\u69ae\u7e3d\u5074\u9580", "RouteId": 2102, "SeqNo": 40, "Terminal": 0, "DistrictId": 1, "Latitude": 22.679702, "Longitude": 120.321776, "IVRNo": 5006, "EXTVoiceNo": 5006, "traveltime": 0, "holidayTraveltime": 0}, {"Id": "5004", "pgp": 0, "GoBack": 2, "SID": 3688, "NameZh": "\u7345\u6e56\u570b\u5c0f(\u9f0e\u4e2d\u8def)", "RouteId": 2102, "SeqNo": 41, "Terminal": 0, "DistrictId": 1, "Latitude": 22.674085, "Longitude": 120.321665, "IVRNo": 1713, "EXTVoiceNo": 5004, "traveltime": 0, "holidayTraveltime": 0}, {"Id": "1097", "pgp": 0, "GoBack": 2, "SID": 3693, "NameZh": "\u6587\u85fb\u5916\u8a9e\u5927\u5b78(\u9f0e\u4e2d\u8def)", "RouteId": 2102, "SeqNo": 42, "Terminal": 0, "DistrictId": 1, "Latitude": 22.670949, "Longitude": 120.320748, "IVRNo": 1097, "EXTVoiceNo": 1097, "traveltime": 0, "holidayTraveltime": 0}, {"Id": "5054", "pgp": 0, "GoBack": 2, "SID": 3699, "NameZh": "\u9f0e\u5f37\u8857\u53e3", "RouteId": 2102, "SeqNo": 43, "Terminal": 0, "DistrictId": 1, "Latitude": 22.667051, "Longitude": 120.321489, "IVRNo": 5002, "EXTVoiceNo": 5054, "traveltime": 0, "holidayTraveltime": 0}, {"Id": "5001", "pgp": 0, "GoBack": 2, "SID": 3533, "NameZh": "\u91d1\u7345\u6e56\u7ad9", "RouteId": 2102, "SeqNo": 44, "Terminal": 1, "DistrictId": 1, "Latitude": 22.66571, "Longitude": 120.3218, "IVRNo": 5000, "EXTVoiceNo": 5001, "traveltime": 0, "holidayTraveltime": 0}]}