{"en": [{"Id": "5001", "pgp": 0, "GoBack": 1, "SID": 3551, "NameZh": "Golden Lion Lake Station", "RouteId": 33, "SeqNo": 1, "Terminal": 0, "DistrictId": 1, "Latitude": 22.66584, "Longitude": 120.321916, "IVRNo": 5000, "EXTVoiceNo": 5001, "traveltime": 0, "holidayTraveltime": 0}, {"Id": "5102", "pgp": 0, "GoBack": 1, "SID": 3741, "NameZh": "Dingli Rd.", "RouteId": 33, "SeqNo": 2, "Terminal": 0, "DistrictId": 1, "Latitude": 22.668316, "Longitude": 120.323258, "IVRNo": 5102, "EXTVoiceNo": 5102, "traveltime": 0, "holidayTraveltime": 0}, {"Id": "5104", "pgp": 0, "GoBack": 1, "SID": 3746, "NameZh": "Dingjin Village", "RouteId": 33, "SeqNo": 3, "Terminal": 0, "DistrictId": 1, "Latitude": 22.6681, "Longitude": 120.325733, "IVRNo": 5104, "EXTVoiceNo": 5104, "traveltime": 0, "holidayTraveltime": 0}, {"Id": "5105", "pgp": 0, "GoBack": 1, "SID": 3747, "NameZh": "Golden Lion Lake", "RouteId": 33, "SeqNo": 4, "Terminal": 0, "DistrictId": 1, "Latitude": 22.665347, "Longitude": 120.32483, "IVRNo": 5105, "EXTVoiceNo": 5105, "traveltime": 0, "holidayTraveltime": 0}, {"Id": "5106", "pgp": 0, "GoBack": 1, "SID": 3748, "NameZh": "Jinding Rd.", "RouteId": 33, "SeqNo": 5, "Terminal": 0, "DistrictId": 1, "Latitude": 22.6649, "Longitude": 120.322678, "IVRNo": 5106, "EXTVoiceNo": 5106, "traveltime": 0, "holidayTraveltime": 0}, {"Id": "1095", "pgp": 0, "GoBack": 1, "SID": 3753, "NameZh": "Jinding Rd. Intersection", "RouteId": 33, "SeqNo": 6, "Terminal": 0, "DistrictId": 1, "Latitude": 22.664425, "Longitude": 120.321617, "IVRNo": 5107, "EXTVoiceNo": 21095, "traveltime": 0, "holidayTraveltime": 0}, {"Id": "5108", "pgp": 0, "GoBack": 1, "SID": 3760, "NameZh": "Jinshan Rd. Intersection", "RouteId": 33, "SeqNo": 7, "Terminal": 0, "DistrictId": 1, "Latitude": 22.662616, "Longitude": 120.321815, "IVRNo": 5108, "EXTVoiceNo": 5108, "traveltime": 0, "holidayTraveltime": 0}, {"Id": "5109", "pgp": 0, "GoBack": 1, "SID": 3765, "NameZh": "Dingsi Village", "RouteId": 33, "SeqNo": 8, "Terminal": 0, "DistrictId": 1, "Latitude": 22.660645, "Longitude": 120.321981, "IVRNo": 5109, "EXTVoiceNo": 5109, "traveltime": 0, "holidayTraveltime": 0}, {"Id": "5908", "pgp": 0, "GoBack": 1, "SID": 4423, "NameZh": "Dingshan St.", "RouteId": 33, "SeqNo": 9, "Terminal": 0, "DistrictId": 1, "Latitude": 22.6592, "Longitude": 120.32194, "IVRNo": 5908, "EXTVoiceNo": 5908, "traveltime": 0, "holidayTraveltime": 0}, {"Id": "5412", "pgp": 0, "GoBack": 1, "SID": 4034, "NameZh": "Jhuangjing Primary School", "RouteId": 33, "SeqNo": 10, "Terminal": 0, "DistrictId": 1, "Latitude": 22.65589, "Longitude": 120.32314, "IVRNo": 5412, "EXTVoiceNo": 5412, "traveltime": 0, "holidayTraveltime": 0}, {"Id": "5413", "pgp": 0, "GoBack": 1, "SID": 4035, "NameZh": "Li Chih Industrial and Commercial School", "RouteId": 33, "SeqNo": 11, "Terminal": 0, "DistrictId": 1, "Latitude": 22.653661, "Longitude": 120.326136, "IVRNo": 5413, "EXTVoiceNo": 5413, "traveltime": 0, "holidayTraveltime": 0}, {"Id": "0227", "pgp": 0, "GoBack": 1, "SID": 1403, "NameZh": "National Kaohsiung University of Science and Technology(Jiangong)", "RouteId": 33, "SeqNo": 12, "Terminal": 0, "DistrictId": 1, "Latitude": 22.651708, "Longitude": 120.328297, "IVRNo": 227, "EXTVoiceNo": 227, "traveltime": 0, "holidayTraveltime": 0}, {"Id": "0228", "pgp": 0, "GoBack": 1, "SID": 1408, "NameZh": "Kaohsiung Municipal Industrial High School", "RouteId": 33, "SeqNo": 13, "Terminal": 0, "DistrictId": 1, "Latitude": 22.65073, "Longitude": 120.326, "IVRNo": 228, "EXTVoiceNo": 228, "traveltime": 0, "holidayTraveltime": 0}, {"Id": "3437", "pgp": 0, "GoBack": 1, "SID": 2445, "NameZh": "Jiangong Rd. Intersection (Kaohsiung Municiple Kaohsiung Industial High School)", "RouteId": 33, "SeqNo": 14, "Terminal": 0, "DistrictId": 1, "Latitude": 22.649444, "Longitude": 120.324383, "IVRNo": 3437, "EXTVoiceNo": 3437, "traveltime": 0, "holidayTraveltime": 0}, {"Id": "1329", "pgp": 0, "GoBack": 1, "SID": 480, "NameZh": "Jhengsing Elementary School", "RouteId": 33, "SeqNo": 15, "Terminal": 0, "DistrictId": 1, "Latitude": 22.645444, "Longitude": 120.325724, "IVRNo": 1319, "EXTVoiceNo": 1329, "traveltime": 0, "holidayTraveltime": 0}, {"Id": "5116", "pgp": 0, "GoBack": 1, "SID": 3780, "NameZh": "Jiansing Market", "RouteId": 33, "SeqNo": 16, "Terminal": 0, "DistrictId": 1, "Latitude": 22.644435, "Longitude": 120.325058, "IVRNo": 5116, "EXTVoiceNo": 5116, "traveltime": 0, "holidayTraveltime": 0}, {"Id": "5117", "pgp": 0, "GoBack": 1, "SID": 3781, "NameZh": "Jiansing Rd.", "RouteId": 33, "SeqNo": 17, "Terminal": 0, "DistrictId": 1, "Latitude": 22.646565, "Longitude": 120.322821, "IVRNo": 5117, "EXTVoiceNo": 5117, "traveltime": 0, "holidayTraveltime": 0}, {"Id": "8703", "pgp": 0, "GoBack": 1, "SID": 5658, "NameZh": "Jiansing Parking Lot", "RouteId": 33, "SeqNo": 18, "Terminal": 0, "DistrictId": 1, "Latitude": 22.647944, "Longitude": 120.321035, "IVRNo": 8703, "EXTVoiceNo": 8703, "traveltime": 0, "holidayTraveltime": 0}, {"Id": "0230", "pgp": 0, "GoBack": 1, "SID": 1422, "NameZh": "Jiangong Rd.", "RouteId": 33, "SeqNo": 19, "Terminal": 0, "DistrictId": 1, "Latitude": 22.648458, "Longitude": 120.319111, "IVRNo": 230, "EXTVoiceNo": 230, "traveltime": 0, "holidayTraveltime": 0}, {"Id": "0231", "pgp": 0, "GoBack": 1, "SID": 1457, "NameZh": "Minzu Police Station", "RouteId": 33, "SeqNo": 20, "Terminal": 0, "DistrictId": 1, "Latitude": 22.648081, "Longitude": 120.317058, "IVRNo": 231, "EXTVoiceNo": 231, "traveltime": 0, "holidayTraveltime": 0}, {"Id": "7377", "pgp": 0, "GoBack": 1, "SID": 1472, "NameZh": "Vegetable & Fruit Company", "RouteId": 33, "SeqNo": 21, "Terminal": 0, "DistrictId": 1, "Latitude": 22.645006, "Longitude": 120.314189, "IVRNo": 232, "EXTVoiceNo": 7377, "traveltime": 0, "holidayTraveltime": 0}, {"Id": "0233", "pgp": 0, "GoBack": 1, "SID": 1500, "NameZh": "Aiguo Elementary School", "RouteId": 33, "SeqNo": 22, "Terminal": 0, "DistrictId": 1, "Latitude": 22.64485, "Longitude": 120.313122, "IVRNo": 233, "EXTVoiceNo": 233, "traveltime": 0, "holidayTraveltime": 0}, {"Id": "0234", "pgp": 0, "GoBack": 1, "SID": 14317, "NameZh": "Gaoyi, Kaohsiung Medical University (Shihcyuan Rd.)", "RouteId": 33, "SeqNo": 23, "Terminal": 0, "DistrictId": 1, "Latitude": 22.645033, "Longitude": 120.309415, "IVRNo": 234, "EXTVoiceNo": 234, "traveltime": 0, "holidayTraveltime": 0}, {"Id": "5749", "pgp": 0, "GoBack": 1, "SID": 4316, "NameZh": "Gaoyi (Kaohsiung Medical University)", "RouteId": 33, "SeqNo": 24, "Terminal": 0, "DistrictId": 1, "Latitude": 22.646476, "Longitude": 120.308801, "IVRNo": 2841, "EXTVoiceNo": 5749, "traveltime": 0, "holidayTraveltime": 0}, {"Id": "0890", "pgp": 0, "GoBack": 1, "SID": 4199, "NameZh": "Tongmeng 1st Rd.", "RouteId": 33, "SeqNo": 25, "Terminal": 0, "DistrictId": 1, "Latitude": 22.649357, "Longitude": 120.309193, "IVRNo": 5660, "EXTVoiceNo": 20890, "traveltime": 0, "holidayTraveltime": 0}, {"Id": "5022", "pgp": 0, "GoBack": 1, "SID": 3613, "NameZh": "Tongmeng Rd. Intersection", "RouteId": 33, "SeqNo": 26, "Terminal": 0, "DistrictId": 1, "Latitude": 22.650606, "Longitude": 120.303358, "IVRNo": 5022, "EXTVoiceNo": 5022, "traveltime": 0, "holidayTraveltime": 0}, {"Id": "5024", "pgp": 0, "GoBack": 1, "SID": 3620, "NameZh": "MRT Houyi Station", "RouteId": 33, "SeqNo": 27, "Terminal": 0, "DistrictId": 1, "Latitude": 22.648243, "Longitude": 120.303164, "IVRNo": 2838, "EXTVoiceNo": 5024, "traveltime": 0, "holidayTraveltime": 0}, {"Id": "5025", "pgp": 0, "GoBack": 1, "SID": 3623, "NameZh": "Shihcyuan Rd. Intersection", "RouteId": 33, "SeqNo": 28, "Terminal": 0, "DistrictId": 1, "Latitude": 22.645053, "Longitude": 120.302903, "IVRNo": 2837, "EXTVoiceNo": 5025, "traveltime": 0, "holidayTraveltime": 0}, {"Id": "0312", "pgp": 0, "GoBack": 1, "SID": 2200, "NameZh": "Kaohsiung Railway Rear Station", "RouteId": 33, "SeqNo": 29, "Terminal": 0, "DistrictId": 1, "Latitude": 22.641383, "Longitude": 120.302056, "IVRNo": 312, "EXTVoiceNo": 312, "traveltime": 0, "holidayTraveltime": 0}, {"Id": "0313", "pgp": 0, "GoBack": 1, "SID": 2207, "NameZh": "Haerbin St. Intersection", "RouteId": 33, "SeqNo": 30, "Terminal": 0, "DistrictId": 1, "Latitude": 22.641556, "Longitude": 120.299722, "IVRNo": 313, "EXTVoiceNo": 313, "traveltime": 0, "holidayTraveltime": 0}, {"Id": "0314", "pgp": 0, "GoBack": 1, "SID": 2208, "NameZh": "Fengmin Radio", "RouteId": 33, "SeqNo": 31, "Terminal": 0, "DistrictId": 1, "Latitude": 22.641725, "Longitude": 120.297367, "IVRNo": 314, "EXTVoiceNo": 314, "traveltime": 0, "holidayTraveltime": 0}, {"Id": "5157", "pgp": 0, "GoBack": 1, "SID": 2212, "NameZh": "Andong St. Intersection (Jiouru 2ndRd.)", "RouteId": 33, "SeqNo": 32, "Terminal": 0, "DistrictId": 1, "Latitude": 22.641853, "Longitude": 120.295497, "IVRNo": 315, "EXTVoiceNo": 5157, "traveltime": 0, "holidayTraveltime": 0}, {"Id": "5156", "pgp": 0, "GoBack": 1, "SID": 2215, "NameZh": "Tonghua St. Intersection", "RouteId": 33, "SeqNo": 33, "Terminal": 0, "DistrictId": 1, "Latitude": 22.642019, "Longitude": 120.293086, "IVRNo": 316, "EXTVoiceNo": 5156, "traveltime": 0, "holidayTraveltime": 0}, {"Id": "4038", "pgp": 0, "GoBack": 1, "SID": 2737, "NameZh": "Sanmin Market", "RouteId": 33, "SeqNo": 34, "Terminal": 0, "DistrictId": 1, "Latitude": 22.635827, "Longitude": 120.293309, "IVRNo": 4038, "EXTVoiceNo": 4038, "traveltime": 0, "holidayTraveltime": 0}, {"Id": "1525", "pgp": 0, "GoBack": 1, "SID": 2744, "NameZh": "Cisian 2nd Rd. Intersection (Jhonghua 3rd Rd.)", "RouteId": 33, "SeqNo": 35, "Terminal": 0, "DistrictId": 1, "Latitude": 22.63318, "Longitude": 120.2944, "IVRNo": 1525, "EXTVoiceNo": 1525, "traveltime": 0, "holidayTraveltime": 0}, {"Id": "4040", "pgp": 0, "GoBack": 1, "SID": 2754, "NameZh": "Liouhe 2nd Rd. Intersection", "RouteId": 33, "SeqNo": 36, "Terminal": 0, "DistrictId": 1, "Latitude": 22.631128, "Longitude": 120.295, "IVRNo": 4040, "EXTVoiceNo": 4040, "traveltime": 0, "holidayTraveltime": 0}, {"Id": "5135", "pgp": 0, "GoBack": 1, "SID": 3785, "NameZh": "Small Traffic Circle", "RouteId": 33, "SeqNo": 37, "Terminal": 0, "DistrictId": 1, "Latitude": 22.62845, "Longitude": 120.296036, "IVRNo": 5135, "EXTVoiceNo": 5135, "traveltime": 0, "holidayTraveltime": 0}, {"Id": "5136", "pgp": 0, "GoBack": 1, "SID": 3790, "NameZh": "Kaohsiung Municipal Chinese Medical Hospital (Kaohsiung Municipal Tatung Hospital", "RouteId": 33, "SeqNo": 38, "Terminal": 0, "DistrictId": 1, "Latitude": 22.626753, "Longitude": 120.296692, "IVRNo": 5150, "EXTVoiceNo": 15136, "traveltime": 0, "holidayTraveltime": 0}, {"Id": "5137", "pgp": 0, "GoBack": 1, "SID": 3795, "NameZh": "Central Park", "RouteId": 33, "SeqNo": 39, "Terminal": 0, "DistrictId": 1, "Latitude": 22.623325, "Longitude": 120.298134, "IVRNo": 127, "EXTVoiceNo": 5137, "traveltime": 0, "holidayTraveltime": 0}, {"Id": "0036", "pgp": 0, "GoBack": 1, "SID": 917, "NameZh": "Talee Department Store", "RouteId": 33, "SeqNo": 40, "Terminal": 0, "DistrictId": 1, "Latitude": 22.621407, "Longitude": 120.295745, "IVRNo": 17, "EXTVoiceNo": 36, "traveltime": 0, "holidayTraveltime": 0}, {"Id": "0035", "pgp": 0, "GoBack": 1, "SID": 926, "NameZh": "Kaohsiung Municipal Girls` Senior High School (Love Pier)", "RouteId": 33, "SeqNo": 41, "Terminal": 0, "DistrictId": 1, "Latitude": 22.620799, "Longitude": 120.2922, "IVRNo": 35, "EXTVoiceNo": 35, "traveltime": 0, "holidayTraveltime": 0}, {"Id": "0019", "pgp": 0, "GoBack": 1, "SID": 935, "NameZh": "Dacheng St. Intersection (Love Pier)", "RouteId": 33, "SeqNo": 42, "Terminal": 0, "DistrictId": 1, "Latitude": 22.62125, "Longitude": 120.28853, "IVRNo": 19, "EXTVoiceNo": 19, "traveltime": 0, "holidayTraveltime": 0}, {"Id": "0421", "pgp": 0, "GoBack": 1, "SID": 943, "NameZh": "Dajhih Rd. Intersection (Wufu 4th Rd.)", "RouteId": 33, "SeqNo": 43, "Terminal": 0, "DistrictId": 1, "Latitude": 22.621956, "Longitude": 120.286964, "IVRNo": 421, "EXTVoiceNo": 421, "traveltime": 0, "holidayTraveltime": 0}, {"Id": "0115", "pgp": 0, "GoBack": 1, "SID": 2961, "NameZh": "Dajhih Rd. (Guangrong Elementary School)", "RouteId": 33, "SeqNo": 44, "Terminal": 0, "DistrictId": 1, "Latitude": 22.623516, "Longitude": 120.2866, "IVRNo": 115, "EXTVoiceNo": 115, "traveltime": 0, "holidayTraveltime": 0}, {"Id": "4000", "pgp": 0, "GoBack": 1, "SID": 2658, "NameZh": "MRT Yanchengpu Station (Daren Rd.)", "RouteId": 33, "SeqNo": 45, "Terminal": 0, "DistrictId": 1, "Latitude": 22.625203, "Longitude": 120.285357, "IVRNo": 4000, "EXTVoiceNo": 4000, "traveltime": 0, "holidayTraveltime": 0}, {"Id": "0544", "pgp": 0, "GoBack": 1, "SID": 3200, "NameZh": "Kaohsiung Museum of History (Dagong Rd.)", "RouteId": 33, "SeqNo": 46, "Terminal": 0, "DistrictId": 1, "Latitude": 22.62654, "Longitude": 120.285, "IVRNo": 2113, "EXTVoiceNo": 544, "traveltime": 0, "holidayTraveltime": 0}, {"Id": "0543", "pgp": 0, "GoBack": 1, "SID": 3978, "NameZh": "Dagong Rd.", "RouteId": 33, "SeqNo": 47, "Terminal": 0, "DistrictId": 1, "Latitude": 22.62734, "Longitude": 120.283463, "IVRNo": 531, "EXTVoiceNo": 543, "traveltime": 0, "holidayTraveltime": 0}, {"Id": "0542", "pgp": 0, "GoBack": 1, "SID": 3997, "NameZh": "International Market", "RouteId": 33, "SeqNo": 48, "Terminal": 0, "DistrictId": 1, "Latitude": 22.625289, "Longitude": 120.281508, "IVRNo": 532, "EXTVoiceNo": 542, "traveltime": 0, "holidayTraveltime": 0}, {"Id": "0021", "pgp": 0, "GoBack": 1, "SID": 1218, "NameZh": "Wufu Lainan St. Intersection", "RouteId": 33, "SeqNo": 49, "Terminal": 0, "DistrictId": 1, "Latitude": 22.624025, "Longitude": 120.282547, "IVRNo": 21, "EXTVoiceNo": 21, "traveltime": 0, "holidayTraveltime": 0}, {"Id": "0423", "pgp": 0, "GoBack": 1, "SID": 2955, "NameZh": "MRT Yanchengpu Station (Wufu 4th Rd.)", "RouteId": 33, "SeqNo": 50, "Terminal": 1, "DistrictId": 1, "Latitude": 22.623167, "Longitude": 120.284262, "IVRNo": 426, "EXTVoiceNo": 423, "traveltime": 0, "holidayTraveltime": 0}, {"Id": "0423", "pgp": 0, "GoBack": 2, "SID": 2950, "NameZh": "MRT Yanchengpu Station (Wufu 4th Rd.)", "RouteId": 33, "SeqNo": 1, "Terminal": 0, "DistrictId": 1, "Latitude": 22.623167, "Longitude": 120.284262, "IVRNo": 426, "EXTVoiceNo": 423, "traveltime": 0, "holidayTraveltime": 0}, {"Id": "0421", "pgp": 0, "GoBack": 2, "SID": 2321, "NameZh": "Dajhih Rd. Intersection (Wufu 4th Rd.)", "RouteId": 33, "SeqNo": 2, "Terminal": 0, "DistrictId": 1, "Latitude": 22.621833, "Longitude": 120.286928, "IVRNo": 421, "EXTVoiceNo": 421, "traveltime": 0, "holidayTraveltime": 0}, {"Id": "0019", "pgp": 0, "GoBack": 2, "SID": 2395, "NameZh": "Dacheng St. Intersection (Love Pier)", "RouteId": 33, "SeqNo": 3, "Terminal": 0, "DistrictId": 1, "Latitude": 22.621098, "Longitude": 120.288459, "IVRNo": 19, "EXTVoiceNo": 19, "traveltime": 0, "holidayTraveltime": 0}, {"Id": "0035", "pgp": 0, "GoBack": 2, "SID": 2487, "NameZh": "Kaohsiung Municipal Girls` Senior High School (Love Pier)", "RouteId": 33, "SeqNo": 4, "Terminal": 0, "DistrictId": 1, "Latitude": 22.620602, "Longitude": 120.292055, "IVRNo": 35, "EXTVoiceNo": 35, "traveltime": 0, "holidayTraveltime": 0}, {"Id": "0036", "pgp": 0, "GoBack": 2, "SID": 2603, "NameZh": "Talee Department Store", "RouteId": 33, "SeqNo": 5, "Terminal": 0, "DistrictId": 1, "Latitude": 22.621401, "Longitude": 120.296004, "IVRNo": 17, "EXTVoiceNo": 36, "traveltime": 0, "holidayTraveltime": 0}, {"Id": "5137", "pgp": 0, "GoBack": 2, "SID": 3797, "NameZh": "Central Park", "RouteId": 33, "SeqNo": 6, "Terminal": 0, "DistrictId": 1, "Latitude": 22.623183, "Longitude": 120.298242, "IVRNo": 127, "EXTVoiceNo": 5137, "traveltime": 0, "holidayTraveltime": 0}, {"Id": "5136", "pgp": 0, "GoBack": 2, "SID": 3803, "NameZh": "Kaohsiung Municipal Chinese Medical Hospital (Kaohsiung Municipal Tatung Hospital", "RouteId": 33, "SeqNo": 7, "Terminal": 0, "DistrictId": 1, "Latitude": 22.626543, "Longitude": 120.297043, "IVRNo": 5150, "EXTVoiceNo": 15136, "traveltime": 0, "holidayTraveltime": 0}, {"Id": "5135", "pgp": 0, "GoBack": 2, "SID": 3804, "NameZh": "Small Traffic Circle", "RouteId": 33, "SeqNo": 8, "Terminal": 0, "DistrictId": 1, "Latitude": 22.628264, "Longitude": 120.296267, "IVRNo": 5135, "EXTVoiceNo": 5135, "traveltime": 0, "holidayTraveltime": 0}, {"Id": "4040", "pgp": 0, "GoBack": 2, "SID": 2771, "NameZh": "Liouhe 2nd Rd. Intersection", "RouteId": 33, "SeqNo": 9, "Terminal": 0, "DistrictId": 1, "Latitude": 22.631269, "Longitude": 120.29515, "IVRNo": 4040, "EXTVoiceNo": 4040, "traveltime": 0, "holidayTraveltime": 0}, {"Id": "1525", "pgp": 0, "GoBack": 2, "SID": 2774, "NameZh": "Cisian 2nd Rd. Intersection (Jhonghua 3rd Rd.)", "RouteId": 33, "SeqNo": 10, "Terminal": 0, "DistrictId": 1, "Latitude": 22.633282, "Longitude": 120.294528, "IVRNo": 1525, "EXTVoiceNo": 1525, "traveltime": 0, "holidayTraveltime": 0}, {"Id": "4038", "pgp": 0, "GoBack": 2, "SID": 2777, "NameZh": "Sanmin Market", "RouteId": 33, "SeqNo": 11, "Terminal": 0, "DistrictId": 1, "Latitude": 22.636162, "Longitude": 120.293297, "IVRNo": 4038, "EXTVoiceNo": 4038, "traveltime": 0, "holidayTraveltime": 0}, {"Id": "4058", "pgp": 0, "GoBack": 2, "SID": 2780, "NameZh": "Jiouru 3rd Rd. Intersection", "RouteId": 33, "SeqNo": 12, "Terminal": 0, "DistrictId": 1, "Latitude": 22.6416, "Longitude": 120.29168, "IVRNo": 4037, "EXTVoiceNo": 4058, "traveltime": 0, "holidayTraveltime": 0}, {"Id": "5156", "pgp": 0, "GoBack": 2, "SID": 3807, "NameZh": "Tonghua St. Intersection", "RouteId": 33, "SeqNo": 13, "Terminal": 0, "DistrictId": 1, "Latitude": 22.641908, "Longitude": 120.292422, "IVRNo": 316, "EXTVoiceNo": 5156, "traveltime": 0, "holidayTraveltime": 0}, {"Id": "5157", "pgp": 0, "GoBack": 2, "SID": 3811, "NameZh": "Andong St. Intersection (Jiouru 2ndRd.)", "RouteId": 33, "SeqNo": 14, "Terminal": 0, "DistrictId": 1, "Latitude": 22.641706, "Longitude": 120.295414, "IVRNo": 315, "EXTVoiceNo": 5157, "traveltime": 0, "holidayTraveltime": 0}, {"Id": "0314", "pgp": 0, "GoBack": 2, "SID": 2229, "NameZh": "Fengmin Radio", "RouteId": 33, "SeqNo": 15, "Terminal": 0, "DistrictId": 1, "Latitude": 22.641569, "Longitude": 120.297333, "IVRNo": 314, "EXTVoiceNo": 314, "traveltime": 0, "holidayTraveltime": 0}, {"Id": "0313", "pgp": 0, "GoBack": 2, "SID": 2235, "NameZh": "Haerbin St. Intersection", "RouteId": 33, "SeqNo": 16, "Terminal": 0, "DistrictId": 1, "Latitude": 22.641392, "Longitude": 120.299811, "IVRNo": 313, "EXTVoiceNo": 313, "traveltime": 0, "holidayTraveltime": 0}, {"Id": "0312", "pgp": 0, "GoBack": 2, "SID": 2249, "NameZh": "Kaohsiung Railway Rear Station", "RouteId": 33, "SeqNo": 17, "Terminal": 0, "DistrictId": 1, "Latitude": 22.641194, "Longitude": 120.301856, "IVRNo": 312, "EXTVoiceNo": 312, "traveltime": 0, "holidayTraveltime": 0}, {"Id": "0311", "pgp": 0, "GoBack": 2, "SID": 2266, "NameZh": "Dalian St. Intersection", "RouteId": 33, "SeqNo": 18, "Terminal": 0, "DistrictId": 1, "Latitude": 22.640954, "Longitude": 120.305194, "IVRNo": 311, "EXTVoiceNo": 311, "traveltime": 0, "holidayTraveltime": 0}, {"Id": "2839", "pgp": 0, "GoBack": 2, "SID": 1563, "NameZh": "Sanmin Park (Boai Rd. Intersection)", "RouteId": 33, "SeqNo": 19, "Terminal": 0, "DistrictId": 1, "Latitude": 22.645442, "Longitude": 120.304389, "IVRNo": 236, "EXTVoiceNo": 2839, "traveltime": 0, "holidayTraveltime": 0}, {"Id": "5024", "pgp": 0, "GoBack": 2, "SID": 2051, "NameZh": "MRT Houyi Station", "RouteId": 33, "SeqNo": 20, "Terminal": 0, "DistrictId": 1, "Latitude": 22.64802, "Longitude": 120.3035, "IVRNo": 2838, "EXTVoiceNo": 5024, "traveltime": 0, "holidayTraveltime": 0}, {"Id": "5022", "pgp": 0, "GoBack": 2, "SID": 3639, "NameZh": "Tongmeng Rd. Intersection", "RouteId": 33, "SeqNo": 21, "Terminal": 0, "DistrictId": 1, "Latitude": 22.651462, "Longitude": 120.303569, "IVRNo": 5022, "EXTVoiceNo": 5022, "traveltime": 0, "holidayTraveltime": 0}, {"Id": "0890", "pgp": 0, "GoBack": 2, "SID": 4184, "NameZh": "Tongmeng 1st Rd.", "RouteId": 33, "SeqNo": 22, "Terminal": 0, "DistrictId": 1, "Latitude": 22.649389, "Longitude": 120.309094, "IVRNo": 5660, "EXTVoiceNo": 20890, "traveltime": 0, "holidayTraveltime": 0}, {"Id": "5749", "pgp": 0, "GoBack": 2, "SID": 2059, "NameZh": "Gaoyi (Kaohsiung Medical University)", "RouteId": 33, "SeqNo": 23, "Terminal": 0, "DistrictId": 1, "Latitude": 22.646518, "Longitude": 120.309005, "IVRNo": 2841, "EXTVoiceNo": 5749, "traveltime": 0, "holidayTraveltime": 0}, {"Id": "0234", "pgp": 0, "GoBack": 2, "SID": 1736, "NameZh": "Gaoyi, Kaohsiung Medical University (Shihcyuan Rd.)", "RouteId": 33, "SeqNo": 24, "Terminal": 0, "DistrictId": 1, "Latitude": 22.644867, "Longitude": 120.310589, "IVRNo": 234, "EXTVoiceNo": 234, "traveltime": 0, "holidayTraveltime": 0}, {"Id": "0233", "pgp": 0, "GoBack": 2, "SID": 1744, "NameZh": "Aiguo Elementary School", "RouteId": 33, "SeqNo": 25, "Terminal": 0, "DistrictId": 1, "Latitude": 22.644681, "Longitude": 120.313094, "IVRNo": 233, "EXTVoiceNo": 233, "traveltime": 0, "holidayTraveltime": 0}, {"Id": "7377", "pgp": 0, "GoBack": 2, "SID": 1770, "NameZh": "Vegetable & Fruit Company", "RouteId": 33, "SeqNo": 26, "Terminal": 0, "DistrictId": 1, "Latitude": 22.645033, "Longitude": 120.314481, "IVRNo": 232, "EXTVoiceNo": 7377, "traveltime": 0, "holidayTraveltime": 0}, {"Id": "0231", "pgp": 0, "GoBack": 2, "SID": 1785, "NameZh": "Minzu Police Station", "RouteId": 33, "SeqNo": 27, "Terminal": 0, "DistrictId": 1, "Latitude": 22.647803, "Longitude": 120.316367, "IVRNo": 231, "EXTVoiceNo": 231, "traveltime": 0, "holidayTraveltime": 0}, {"Id": "0230", "pgp": 0, "GoBack": 2, "SID": 1792, "NameZh": "Jiangong Rd.", "RouteId": 33, "SeqNo": 28, "Terminal": 0, "DistrictId": 1, "Latitude": 22.648239, "Longitude": 120.318679, "IVRNo": 230, "EXTVoiceNo": 230, "traveltime": 0, "holidayTraveltime": 0}, {"Id": "8703", "pgp": 0, "GoBack": 2, "SID": 5665, "NameZh": "Jiansing Parking Lot", "RouteId": 33, "SeqNo": 29, "Terminal": 0, "DistrictId": 1, "Latitude": 22.64788, "Longitude": 120.32137, "IVRNo": 8703, "EXTVoiceNo": 8703, "traveltime": 0, "holidayTraveltime": 0}, {"Id": "5117", "pgp": 0, "GoBack": 2, "SID": 3814, "NameZh": "Jiansing Rd.", "RouteId": 33, "SeqNo": 30, "Terminal": 0, "DistrictId": 1, "Latitude": 22.646561, "Longitude": 120.322742, "IVRNo": 5117, "EXTVoiceNo": 5117, "traveltime": 0, "holidayTraveltime": 0}, {"Id": "5116", "pgp": 0, "GoBack": 2, "SID": 3815, "NameZh": "Jiansing Market", "RouteId": 33, "SeqNo": 31, "Terminal": 0, "DistrictId": 1, "Latitude": 22.644501, "Longitude": 120.324967, "IVRNo": 5116, "EXTVoiceNo": 5116, "traveltime": 0, "holidayTraveltime": 0}, {"Id": "1329", "pgp": 0, "GoBack": 2, "SID": 456, "NameZh": "Jhengsing Elementary School", "RouteId": 33, "SeqNo": 32, "Terminal": 0, "DistrictId": 1, "Latitude": 22.64505, "Longitude": 120.326, "IVRNo": 1319, "EXTVoiceNo": 1329, "traveltime": 0, "holidayTraveltime": 0}, {"Id": "3437", "pgp": 0, "GoBack": 2, "SID": 460, "NameZh": "Jiangong Rd. Intersection (Kaohsiung Municiple Kaohsiung Industial High School)", "RouteId": 33, "SeqNo": 33, "Terminal": 0, "DistrictId": 1, "Latitude": 22.649484, "Longitude": 120.324689, "IVRNo": 3437, "EXTVoiceNo": 3437, "traveltime": 0, "holidayTraveltime": 0}, {"Id": "0228", "pgp": 0, "GoBack": 2, "SID": 1826, "NameZh": "Kaohsiung Municipal Industrial High School", "RouteId": 33, "SeqNo": 34, "Terminal": 0, "DistrictId": 1, "Latitude": 22.650587, "Longitude": 120.325878, "IVRNo": 228, "EXTVoiceNo": 228, "traveltime": 0, "holidayTraveltime": 0}, {"Id": "0227", "pgp": 0, "GoBack": 2, "SID": 1838, "NameZh": "National Kaohsiung University of Science and Technology(Jiangong)", "RouteId": 33, "SeqNo": 35, "Terminal": 0, "DistrictId": 1, "Latitude": 22.651607, "Longitude": 120.328191, "IVRNo": 227, "EXTVoiceNo": 227, "traveltime": 0, "holidayTraveltime": 0}, {"Id": "5413", "pgp": 0, "GoBack": 2, "SID": 4082, "NameZh": "Li Chih Industrial and Commercial School", "RouteId": 33, "SeqNo": 36, "Terminal": 0, "DistrictId": 1, "Latitude": 22.653697, "Longitude": 120.326267, "IVRNo": 5413, "EXTVoiceNo": 5413, "traveltime": 0, "holidayTraveltime": 0}, {"Id": "5412", "pgp": 0, "GoBack": 2, "SID": 4087, "NameZh": "Jhuangjing Primary School", "RouteId": 33, "SeqNo": 37, "Terminal": 0, "DistrictId": 1, "Latitude": 22.656167, "Longitude": 120.322906, "IVRNo": 5412, "EXTVoiceNo": 5412, "traveltime": 0, "holidayTraveltime": 0}, {"Id": "5908", "pgp": 0, "GoBack": 2, "SID": 4426, "NameZh": "Dingshan St.", "RouteId": 33, "SeqNo": 38, "Terminal": 0, "DistrictId": 1, "Latitude": 22.6591, "Longitude": 120.32183, "IVRNo": 5908, "EXTVoiceNo": 5908, "traveltime": 0, "holidayTraveltime": 0}, {"Id": "5109", "pgp": 0, "GoBack": 2, "SID": 3834, "NameZh": "Dingsi Village", "RouteId": 33, "SeqNo": 39, "Terminal": 0, "DistrictId": 1, "Latitude": 22.66101, "Longitude": 120.3222, "IVRNo": 5109, "EXTVoiceNo": 5109, "traveltime": 0, "holidayTraveltime": 0}, {"Id": "5108", "pgp": 0, "GoBack": 2, "SID": 3840, "NameZh": "Jinshan Rd. Intersection", "RouteId": 33, "SeqNo": 40, "Terminal": 0, "DistrictId": 1, "Latitude": 22.6622, "Longitude": 120.322, "IVRNo": 5108, "EXTVoiceNo": 5108, "traveltime": 0, "holidayTraveltime": 0}, {"Id": "1095", "pgp": 0, "GoBack": 2, "SID": 3849, "NameZh": "Jinding Rd. Intersection", "RouteId": 33, "SeqNo": 41, "Terminal": 0, "DistrictId": 1, "Latitude": 22.664306, "Longitude": 120.321885, "IVRNo": 5107, "EXTVoiceNo": 21095, "traveltime": 0, "holidayTraveltime": 0}, {"Id": "5106", "pgp": 0, "GoBack": 2, "SID": 3853, "NameZh": "Jinding Rd.", "RouteId": 33, "SeqNo": 42, "Terminal": 0, "DistrictId": 1, "Latitude": 22.664822, "Longitude": 120.322419, "IVRNo": 5106, "EXTVoiceNo": 5106, "traveltime": 0, "holidayTraveltime": 0}, {"Id": "5105", "pgp": 0, "GoBack": 2, "SID": 3855, "NameZh": "Golden Lion Lake", "RouteId": 33, "SeqNo": 43, "Terminal": 0, "DistrictId": 1, "Latitude": 22.665377, "Longitude": 120.324978, "IVRNo": 5105, "EXTVoiceNo": 5105, "traveltime": 0, "holidayTraveltime": 0}, {"Id": "5104", "pgp": 0, "GoBack": 2, "SID": 3856, "NameZh": "Dingjin Village", "RouteId": 33, "SeqNo": 44, "Terminal": 0, "DistrictId": 1, "Latitude": 22.668167, "Longitude": 120.325867, "IVRNo": 5104, "EXTVoiceNo": 5104, "traveltime": 0, "holidayTraveltime": 0}, {"Id": "5102", "pgp": 0, "GoBack": 2, "SID": 3858, "NameZh": "Dingli Rd.", "RouteId": 33, "SeqNo": 45, "Terminal": 0, "DistrictId": 1, "Latitude": 22.668456, "Longitude": 120.323186, "IVRNo": 5102, "EXTVoiceNo": 5102, "traveltime": 0, "holidayTraveltime": 0}, {"Id": "5001", "pgp": 0, "GoBack": 2, "SID": 3526, "NameZh": "Golden Lion Lake Station", "RouteId": 33, "SeqNo": 46, "Terminal": 1, "DistrictId": 1, "Latitude": 22.666223, "Longitude": 120.322019, "IVRNo": 5000, "EXTVoiceNo": 5001, "traveltime": 0, "holidayTraveltime": 0}], "zh": [{"Id": "5001", "pgp": 0, "GoBack": 1, "SID": 3551, "NameZh": "\u91d1\u7345\u6e56\u7ad9", "RouteId": 33, "SeqNo": 1, "Terminal": 0, "DistrictId": 1, "Latitude": 22.66584, "Longitude": 120.321916, "IVRNo": 5000, "EXTVoiceNo": 5001, "traveltime": 0, "holidayTraveltime": 0}, {"Id": "5102", "pgp": 0, "GoBack": 1, "SID": 3741, "NameZh": "\u9f0e\u529b\u8def", "RouteId": 33, "SeqNo": 2, "Terminal": 0, "DistrictId": 1, "Latitude": 22.668316, "Longitude": 120.323258, "IVRNo": 5102, "EXTVoiceNo": 5102, "traveltime": 0, "holidayTraveltime": 0}, {"Id": "5104", "pgp": 0, "GoBack": 1, "SID": 3746, "NameZh": "\u9f0e\u91d1\u91cc", "RouteId": 33, "SeqNo": 3, "Terminal": 0, "DistrictId": 1, "Latitude": 22.6681, "Longitude": 120.325733, "IVRNo": 5104, "EXTVoiceNo": 5104, "traveltime": 0, "holidayTraveltime": 0}, {"Id": "5105", "pgp": 0, "GoBack": 1, "SID": 3747, "NameZh": "\u91d1\u7345\u6e56", "RouteId": 33, "SeqNo": 4, "Terminal": 0, "DistrictId": 1, "Latitude": 22.665347, "Longitude": 120.32483, "IVRNo": 5105, "EXTVoiceNo": 5105, "traveltime": 0, "holidayTraveltime": 0}, {"Id": "5106", "pgp": 0, "GoBack": 1, "SID": 3748, "NameZh": "\u91d1\u9f0e\u8def", "RouteId": 33, "SeqNo": 5, "Terminal": 0, "DistrictId": 1, "Latitude": 22.6649, "Longitude": 120.322678, "IVRNo": 5106, "EXTVoiceNo": 5106, "traveltime": 0, "holidayTraveltime": 0}, {"Id": "1095", "pgp": 0, "GoBack": 1, "SID": 3753, "NameZh": "\u91d1\u9f0e\u8def\u53e3", "RouteId": 33, "SeqNo": 6, "Terminal": 0, "DistrictId": 1, "Latitude": 22.664425, "Longitude": 120.321617, "IVRNo": 5107, "EXTVoiceNo": 21095, "traveltime": 0, "holidayTraveltime": 0}, {"Id": "5108", "pgp": 0, "GoBack": 1, "SID": 3760, "NameZh": "\u91d1\u5c71\u8def\u53e3", "RouteId": 33, "SeqNo": 7, "Terminal": 0, "DistrictId": 1, "Latitude": 22.662616, "Longitude": 120.321815, "IVRNo": 5108, "EXTVoiceNo": 5108, "traveltime": 0, "holidayTraveltime": 0}, {"Id": "5109", "pgp": 0, "GoBack": 1, "SID": 3765, "NameZh": "\u9f0e\u897f\u91cc", "RouteId": 33, "SeqNo": 8, "Terminal": 0, "DistrictId": 1, "Latitude": 22.660645, "Longitude": 120.321981, "IVRNo": 5109, "EXTVoiceNo": 5109, "traveltime": 0, "holidayTraveltime": 0}, {"Id": "5908", "pgp": 0, "GoBack": 1, "SID": 4423, "NameZh": "\u9f0e\u5c71\u8857", "RouteId": 33, "SeqNo": 9, "Terminal": 0, "DistrictId": 1, "Latitude": 22.6592, "Longitude": 120.32194, "IVRNo": 5908, "EXTVoiceNo": 5908, "traveltime": 0, "holidayTraveltime": 0}, {"Id": "5412", "pgp": 0, "GoBack": 1, "SID": 4034, "NameZh": "\u838a\u656c\u570b\u5c0f", "RouteId": 33, "SeqNo": 10, "Terminal": 0, "DistrictId": 1, "Latitude": 22.65589, "Longitude": 120.32314, "IVRNo": 5412, "EXTVoiceNo": 5412, "traveltime": 0, "holidayTraveltime": 0}, {"Id": "5413", "pgp": 0, "GoBack": 1, "SID": 4035, "NameZh": "\u7acb\u5fd7\u5de5\u5546", "RouteId": 33, "SeqNo": 11, "Terminal": 0, "DistrictId": 1, "Latitude": 22.653661, "Longitude": 120.326136, "IVRNo": 5413, "EXTVoiceNo": 5413, "traveltime": 0, "holidayTraveltime": 0}, {"Id": "0227", "pgp": 0, "GoBack": 1, "SID": 1403, "NameZh": "\u9ad8\u96c4\u79d1\u5927(\u5efa\u5de5)", "RouteId": 33, "SeqNo": 12, "Terminal": 0, "DistrictId": 1, "Latitude": 22.651708, "Longitude": 120.328297, "IVRNo": 227, "EXTVoiceNo": 227, "traveltime": 0, "holidayTraveltime": 0}, {"Id": "0228", "pgp": 0, "GoBack": 1, "SID": 1408, "NameZh": "\u9ad8\u96c4\u5de5\u8077", "RouteId": 33, "SeqNo": 13, "Terminal": 0, "DistrictId": 1, "Latitude": 22.65073, "Longitude": 120.326, "IVRNo": 228, "EXTVoiceNo": 228, "traveltime": 0, "holidayTraveltime": 0}, {"Id": "3437", "pgp": 0, "GoBack": 1, "SID": 2445, "NameZh": "\u5efa\u5de5\u8def\u53e3(\u9ad8\u96c4\u9ad8\u5de5)", "RouteId": 33, "SeqNo": 14, "Terminal": 0, "DistrictId": 1, "Latitude": 22.649444, "Longitude": 120.324383, "IVRNo": 3437, "EXTVoiceNo": 3437, "traveltime": 0, "holidayTraveltime": 0}, {"Id": "1329", "pgp": 0, "GoBack": 1, "SID": 480, "NameZh": "\u6b63\u8208\u570b\u5c0f", "RouteId": 33, "SeqNo": 15, "Terminal": 0, "DistrictId": 1, "Latitude": 22.645444, "Longitude": 120.325724, "IVRNo": 1319, "EXTVoiceNo": 1329, "traveltime": 0, "holidayTraveltime": 0}, {"Id": "5116", "pgp": 0, "GoBack": 1, "SID": 3780, "NameZh": "\u5efa\u8208\u5e02\u5834", "RouteId": 33, "SeqNo": 16, "Terminal": 0, "DistrictId": 1, "Latitude": 22.644435, "Longitude": 120.325058, "IVRNo": 5116, "EXTVoiceNo": 5116, "traveltime": 0, "holidayTraveltime": 0}, {"Id": "5117", "pgp": 0, "GoBack": 1, "SID": 3781, "NameZh": "\u5efa\u8208\u8def", "RouteId": 33, "SeqNo": 17, "Terminal": 0, "DistrictId": 1, "Latitude": 22.646565, "Longitude": 120.322821, "IVRNo": 5117, "EXTVoiceNo": 5117, "traveltime": 0, "holidayTraveltime": 0}, {"Id": "8703", "pgp": 0, "GoBack": 1, "SID": 5658, "NameZh": "\u5efa\u8208\u505c\u8eca\u5834", "RouteId": 33, "SeqNo": 18, "Terminal": 0, "DistrictId": 1, "Latitude": 22.647944, "Longitude": 120.321035, "IVRNo": 8703, "EXTVoiceNo": 8703, "traveltime": 0, "holidayTraveltime": 0}, {"Id": "0230", "pgp": 0, "GoBack": 1, "SID": 1422, "NameZh": "\u5efa\u5de5\u8def", "RouteId": 33, "SeqNo": 19, "Terminal": 0, "DistrictId": 1, "Latitude": 22.648458, "Longitude": 120.319111, "IVRNo": 230, "EXTVoiceNo": 230, "traveltime": 0, "holidayTraveltime": 0}, {"Id": "0231", "pgp": 0, "GoBack": 1, "SID": 1457, "NameZh": "\u6c11\u65cf\u6d3e\u51fa\u6240", "RouteId": 33, "SeqNo": 20, "Terminal": 0, "DistrictId": 1, "Latitude": 22.648081, "Longitude": 120.317058, "IVRNo": 231, "EXTVoiceNo": 231, "traveltime": 0, "holidayTraveltime": 0}, {"Id": "7377", "pgp": 0, "GoBack": 1, "SID": 1472, "NameZh": "\u679c\u83dc\u516c\u53f8", "RouteId": 33, "SeqNo": 21, "Terminal": 0, "DistrictId": 1, "Latitude": 22.645006, "Longitude": 120.314189, "IVRNo": 232, "EXTVoiceNo": 7377, "traveltime": 0, "holidayTraveltime": 0}, {"Id": "0233", "pgp": 0, "GoBack": 1, "SID": 1500, "NameZh": "\u611b\u570b\u570b\u5c0f", "RouteId": 33, "SeqNo": 22, "Terminal": 0, "DistrictId": 1, "Latitude": 22.64485, "Longitude": 120.313122, "IVRNo": 233, "EXTVoiceNo": 233, "traveltime": 0, "holidayTraveltime": 0}, {"Id": "0234", "pgp": 0, "GoBack": 1, "SID": 14317, "NameZh": "\u9ad8\u91ab(\u5341\u5168\u8def)", "RouteId": 33, "SeqNo": 23, "Terminal": 0, "DistrictId": 1, "Latitude": 22.645033, "Longitude": 120.309415, "IVRNo": 234, "EXTVoiceNo": 234, "traveltime": 0, "holidayTraveltime": 0}, {"Id": "5749", "pgp": 0, "GoBack": 1, "SID": 4316, "NameZh": "\u9ad8\u91ab(\u9ad8\u96c4\u91ab\u5b78\u5927\u5b78)", "RouteId": 33, "SeqNo": 24, "Terminal": 0, "DistrictId": 1, "Latitude": 22.646476, "Longitude": 120.308801, "IVRNo": 2841, "EXTVoiceNo": 5749, "traveltime": 0, "holidayTraveltime": 0}, {"Id": "0890", "pgp": 0, "GoBack": 1, "SID": 4199, "NameZh": "\u540c\u76df\u4e00\u8def\u53e3", "RouteId": 33, "SeqNo": 25, "Terminal": 0, "DistrictId": 1, "Latitude": 22.649357, "Longitude": 120.309193, "IVRNo": 5660, "EXTVoiceNo": 20890, "traveltime": 0, "holidayTraveltime": 0}, {"Id": "5022", "pgp": 0, "GoBack": 1, "SID": 3613, "NameZh": "\u540c\u76df\u8def\u53e3", "RouteId": 33, "SeqNo": 26, "Terminal": 0, "DistrictId": 1, "Latitude": 22.650606, "Longitude": 120.303358, "IVRNo": 5022, "EXTVoiceNo": 5022, "traveltime": 0, "holidayTraveltime": 0}, {"Id": "5024", "pgp": 0, "GoBack": 1, "SID": 3620, "NameZh": "\u6377\u904b\u5f8c\u9a5b\u7ad9", "RouteId": 33, "SeqNo": 27, "Terminal": 0, "DistrictId": 1, "Latitude": 22.648243, "Longitude": 120.303164, "IVRNo": 2838, "EXTVoiceNo": 5024, "traveltime": 0, "holidayTraveltime": 0}, {"Id": "5025", "pgp": 0, "GoBack": 1, "SID": 3623, "NameZh": "\u5341\u5168\u8def\u53e3", "RouteId": 33, "SeqNo": 28, "Terminal": 0, "DistrictId": 1, "Latitude": 22.645053, "Longitude": 120.302903, "IVRNo": 2837, "EXTVoiceNo": 5025, "traveltime": 0, "holidayTraveltime": 0}, {"Id": "0312", "pgp": 0, "GoBack": 1, "SID": 2200, "NameZh": "\u5f8c\u706b\u8eca\u7ad9", "RouteId": 33, "SeqNo": 29, "Terminal": 0, "DistrictId": 1, "Latitude": 22.641383, "Longitude": 120.302056, "IVRNo": 312, "EXTVoiceNo": 312, "traveltime": 0, "holidayTraveltime": 0}, {"Id": "0313", "pgp": 0, "GoBack": 1, "SID": 2207, "NameZh": "\u54c8\u723e\u6ff1\u8857\u53e3", "RouteId": 33, "SeqNo": 30, "Terminal": 0, "DistrictId": 1, "Latitude": 22.641556, "Longitude": 120.299722, "IVRNo": 313, "EXTVoiceNo": 313, "traveltime": 0, "holidayTraveltime": 0}, {"Id": "0314", "pgp": 0, "GoBack": 1, "SID": 2208, "NameZh": "\u9cf3\u9cf4\u96fb\u53f0", "RouteId": 33, "SeqNo": 31, "Terminal": 0, "DistrictId": 1, "Latitude": 22.641725, "Longitude": 120.297367, "IVRNo": 314, "EXTVoiceNo": 314, "traveltime": 0, "holidayTraveltime": 0}, {"Id": "5157", "pgp": 0, "GoBack": 1, "SID": 2212, "NameZh": "\u5b89\u6771\u8857\u53e3(\u4e5d\u5982\u4e8c\u8def)", "RouteId": 33, "SeqNo": 32, "Terminal": 0, "DistrictId": 1, "Latitude": 22.641853, "Longitude": 120.295497, "IVRNo": 315, "EXTVoiceNo": 5157, "traveltime": 0, "holidayTraveltime": 0}, {"Id": "5156", "pgp": 0, "GoBack": 1, "SID": 2215, "NameZh": "\u901a\u5316\u8857\u53e3", "RouteId": 33, "SeqNo": 33, "Terminal": 0, "DistrictId": 1, "Latitude": 22.642019, "Longitude": 120.293086, "IVRNo": 316, "EXTVoiceNo": 5156, "traveltime": 0, "holidayTraveltime": 0}, {"Id": "4038", "pgp": 0, "GoBack": 1, "SID": 2737, "NameZh": "\u4e09\u6c11\u5e02\u5834", "RouteId": 33, "SeqNo": 34, "Terminal": 0, "DistrictId": 1, "Latitude": 22.635827, "Longitude": 120.293309, "IVRNo": 4038, "EXTVoiceNo": 4038, "traveltime": 0, "holidayTraveltime": 0}, {"Id": "1525", "pgp": 0, "GoBack": 1, "SID": 2744, "NameZh": "\u4e03\u8ce2\u4e8c\u8def\u53e3(\u4e2d\u83ef\u4e09\u8def)", "RouteId": 33, "SeqNo": 35, "Terminal": 0, "DistrictId": 1, "Latitude": 22.63318, "Longitude": 120.2944, "IVRNo": 1525, "EXTVoiceNo": 1525, "traveltime": 0, "holidayTraveltime": 0}, {"Id": "4040", "pgp": 0, "GoBack": 1, "SID": 2754, "NameZh": "\u516d\u5408\u4e8c\u8def\u53e3", "RouteId": 33, "SeqNo": 36, "Terminal": 0, "DistrictId": 1, "Latitude": 22.631128, "Longitude": 120.295, "IVRNo": 4040, "EXTVoiceNo": 4040, "traveltime": 0, "holidayTraveltime": 0}, {"Id": "5135", "pgp": 0, "GoBack": 1, "SID": 3785, "NameZh": "\u5c0f\u5713\u74b0", "RouteId": 33, "SeqNo": 37, "Terminal": 0, "DistrictId": 1, "Latitude": 22.62845, "Longitude": 120.296036, "IVRNo": 5135, "EXTVoiceNo": 5135, "traveltime": 0, "holidayTraveltime": 0}, {"Id": "5136", "pgp": 0, "GoBack": 1, "SID": 3790, "NameZh": "\u5e02\u7acb\u4e2d\u91ab\u91ab\u9662(\u5927\u540c\u91ab\u9662)", "RouteId": 33, "SeqNo": 38, "Terminal": 0, "DistrictId": 1, "Latitude": 22.626753, "Longitude": 120.296692, "IVRNo": 5150, "EXTVoiceNo": 15136, "traveltime": 0, "holidayTraveltime": 0}, {"Id": "5137", "pgp": 0, "GoBack": 1, "SID": 3795, "NameZh": "\u4e2d\u592e\u516c\u5712", "RouteId": 33, "SeqNo": 39, "Terminal": 0, "DistrictId": 1, "Latitude": 22.623325, "Longitude": 120.298134, "IVRNo": 127, "EXTVoiceNo": 5137, "traveltime": 0, "holidayTraveltime": 0}, {"Id": "0036", "pgp": 0, "GoBack": 1, "SID": 917, "NameZh": "\u5927\u7acb\u767e\u8ca8", "RouteId": 33, "SeqNo": 40, "Terminal": 0, "DistrictId": 1, "Latitude": 22.621407, "Longitude": 120.295745, "IVRNo": 17, "EXTVoiceNo": 36, "traveltime": 0, "holidayTraveltime": 0}, {"Id": "0035", "pgp": 0, "GoBack": 1, "SID": 926, "NameZh": "\u9ad8\u96c4\u5973\u4e2d(\u771f\u611b\u78bc\u982d)", "RouteId": 33, "SeqNo": 41, "Terminal": 0, "DistrictId": 1, "Latitude": 22.620799, "Longitude": 120.2922, "IVRNo": 35, "EXTVoiceNo": 35, "traveltime": 0, "holidayTraveltime": 0}, {"Id": "0019", "pgp": 0, "GoBack": 1, "SID": 935, "NameZh": "\u5927\u6210\u8857\u53e3(\u771f\u611b\u78bc\u982d)", "RouteId": 33, "SeqNo": 42, "Terminal": 0, "DistrictId": 1, "Latitude": 22.62125, "Longitude": 120.28853, "IVRNo": 19, "EXTVoiceNo": 19, "traveltime": 0, "holidayTraveltime": 0}, {"Id": "0421", "pgp": 0, "GoBack": 1, "SID": 943, "NameZh": "\u5927\u667a\u8def\u53e3(\u4e94\u798f\u56db\u8def)", "RouteId": 33, "SeqNo": 43, "Terminal": 0, "DistrictId": 1, "Latitude": 22.621956, "Longitude": 120.286964, "IVRNo": 421, "EXTVoiceNo": 421, "traveltime": 0, "holidayTraveltime": 0}, {"Id": "0115", "pgp": 0, "GoBack": 1, "SID": 2961, "NameZh": "\u5927\u667a\u8def(\u5149\u69ae\u570b\u5c0f)", "RouteId": 33, "SeqNo": 44, "Terminal": 0, "DistrictId": 1, "Latitude": 22.623516, "Longitude": 120.2866, "IVRNo": 115, "EXTVoiceNo": 115, "traveltime": 0, "holidayTraveltime": 0}, {"Id": "4000", "pgp": 0, "GoBack": 1, "SID": 2658, "NameZh": "\u6377\u904b\u9e7d\u57d5\u57d4\u7ad9(\u5927\u4ec1\u8def)", "RouteId": 33, "SeqNo": 45, "Terminal": 0, "DistrictId": 1, "Latitude": 22.625203, "Longitude": 120.285357, "IVRNo": 4000, "EXTVoiceNo": 4000, "traveltime": 0, "holidayTraveltime": 0}, {"Id": "0544", "pgp": 0, "GoBack": 1, "SID": 3200, "NameZh": "\u6b77\u53f2\u535a\u7269\u9928(\u5927\u516c\u8def)", "RouteId": 33, "SeqNo": 46, "Terminal": 0, "DistrictId": 1, "Latitude": 22.62654, "Longitude": 120.285, "IVRNo": 2113, "EXTVoiceNo": 544, "traveltime": 0, "holidayTraveltime": 0}, {"Id": "0543", "pgp": 0, "GoBack": 1, "SID": 3978, "NameZh": "\u5927\u516c\u8def", "RouteId": 33, "SeqNo": 47, "Terminal": 0, "DistrictId": 1, "Latitude": 22.62734, "Longitude": 120.283463, "IVRNo": 531, "EXTVoiceNo": 543, "traveltime": 0, "holidayTraveltime": 0}, {"Id": "0542", "pgp": 0, "GoBack": 1, "SID": 3997, "NameZh": "\u570b\u969b\u5546\u5834", "RouteId": 33, "SeqNo": 48, "Terminal": 0, "DistrictId": 1, "Latitude": 22.625289, "Longitude": 120.281508, "IVRNo": 532, "EXTVoiceNo": 542, "traveltime": 0, "holidayTraveltime": 0}, {"Id": "0021", "pgp": 0, "GoBack": 1, "SID": 1218, "NameZh": "\u4e94\u798f\u7028\u5357\u8857\u53e3", "RouteId": 33, "SeqNo": 49, "Terminal": 0, "DistrictId": 1, "Latitude": 22.624025, "Longitude": 120.282547, "IVRNo": 21, "EXTVoiceNo": 21, "traveltime": 0, "holidayTraveltime": 0}, {"Id": "0423", "pgp": 0, "GoBack": 1, "SID": 2955, "NameZh": "\u6377\u904b\u9e7d\u57d5\u57d4\u7ad9(\u4e94\u798f\u56db\u8def)", "RouteId": 33, "SeqNo": 50, "Terminal": 1, "DistrictId": 1, "Latitude": 22.623167, "Longitude": 120.284262, "IVRNo": 426, "EXTVoiceNo": 423, "traveltime": 0, "holidayTraveltime": 0}, {"Id": "0423", "pgp": 0, "GoBack": 2, "SID": 2950, "NameZh": "\u6377\u904b\u9e7d\u57d5\u57d4\u7ad9(\u4e94\u798f\u56db\u8def)", "RouteId": 33, "SeqNo": 1, "Terminal": 0, "DistrictId": 1, "Latitude": 22.623167, "Longitude": 120.284262, "IVRNo": 426, "EXTVoiceNo": 423, "traveltime": 0, "holidayTraveltime": 0}, {"Id": "0421", "pgp": 0, "GoBack": 2, "SID": 2321, "NameZh": "\u5927\u667a\u8def\u53e3(\u4e94\u798f\u56db\u8def)", "RouteId": 33, "SeqNo": 2, "Terminal": 0, "DistrictId": 1, "Latitude": 22.621833, "Longitude": 120.286928, "IVRNo": 421, "EXTVoiceNo": 421, "traveltime": 0, "holidayTraveltime": 0}, {"Id": "0019", "pgp": 0, "GoBack": 2, "SID": 2395, "NameZh": "\u5927\u6210\u8857\u53e3(\u771f\u611b\u78bc\u982d)", "RouteId": 33, "SeqNo": 3, "Terminal": 0, "DistrictId": 1, "Latitude": 22.621098, "Longitude": 120.288459, "IVRNo": 19, "EXTVoiceNo": 19, "traveltime": 0, "holidayTraveltime": 0}, {"Id": "0035", "pgp": 0, "GoBack": 2, "SID": 2487, "NameZh": "\u9ad8\u96c4\u5973\u4e2d(\u771f\u611b\u78bc\u982d)", "RouteId": 33, "SeqNo": 4, "Terminal": 0, "DistrictId": 1, "Latitude": 22.620602, "Longitude": 120.292055, "IVRNo": 35, "EXTVoiceNo": 35, "traveltime": 0, "holidayTraveltime": 0}, {"Id": "0036", "pgp": 0, "GoBack": 2, "SID": 2603, "NameZh": "\u5927\u7acb\u767e\u8ca8", "RouteId": 33, "SeqNo": 5, "Terminal": 0, "DistrictId": 1, "Latitude": 22.621401, "Longitude": 120.296004, "IVRNo": 17, "EXTVoiceNo": 36, "traveltime": 0, "holidayTraveltime": 0}, {"Id": "5137", "pgp": 0, "GoBack": 2, "SID": 3797, "NameZh": "\u4e2d\u592e\u516c\u5712", "RouteId": 33, "SeqNo": 6, "Terminal": 0, "DistrictId": 1, "Latitude": 22.623183, "Longitude": 120.298242, "IVRNo": 127, "EXTVoiceNo": 5137, "traveltime": 0, "holidayTraveltime": 0}, {"Id": "5136", "pgp": 0, "GoBack": 2, "SID": 3803, "NameZh": "\u5e02\u7acb\u4e2d\u91ab\u91ab\u9662(\u5927\u540c\u91ab\u9662)", "RouteId": 33, "SeqNo": 7, "Terminal": 0, "DistrictId": 1, "Latitude": 22.626543, "Longitude": 120.297043, "IVRNo": 5150, "EXTVoiceNo": 15136, "traveltime": 0, "holidayTraveltime": 0}, {"Id": "5135", "pgp": 0, "GoBack": 2, "SID": 3804, "NameZh": "\u5c0f\u5713\u74b0", "RouteId": 33, "SeqNo": 8, "Terminal": 0, "DistrictId": 1, "Latitude": 22.628264, "Longitude": 120.296267, "IVRNo": 5135, "EXTVoiceNo": 5135, "traveltime": 0, "holidayTraveltime": 0}, {"Id": "4040", "pgp": 0, "GoBack": 2, "SID": 2771, "NameZh": "\u516d\u5408\u4e8c\u8def\u53e3", "RouteId": 33, "SeqNo": 9, "Terminal": 0, "DistrictId": 1, "Latitude": 22.631269, "Longitude": 120.29515, "IVRNo": 4040, "EXTVoiceNo": 4040, "traveltime": 0, "holidayTraveltime": 0}, {"Id": "1525", "pgp": 0, "GoBack": 2, "SID": 2774, "NameZh": "\u4e03\u8ce2\u4e8c\u8def\u53e3(\u4e2d\u83ef\u4e09\u8def)", "RouteId": 33, "SeqNo": 10, "Terminal": 0, "DistrictId": 1, "Latitude": 22.633282, "Longitude": 120.294528, "IVRNo": 1525, "EXTVoiceNo": 1525, "traveltime": 0, "holidayTraveltime": 0}, {"Id": "4038", "pgp": 0, "GoBack": 2, "SID": 2777, "NameZh": "\u4e09\u6c11\u5e02\u5834", "RouteId": 33, "SeqNo": 11, "Terminal": 0, "DistrictId": 1, "Latitude": 22.636162, "Longitude": 120.293297, "IVRNo": 4038, "EXTVoiceNo": 4038, "traveltime": 0, "holidayTraveltime": 0}, {"Id": "4058", "pgp": 0, "GoBack": 2, "SID": 2780, "NameZh": "\u4e5d\u5982\u4e09\u8def\u53e3", "RouteId": 33, "SeqNo": 12, "Terminal": 0, "DistrictId": 1, "Latitude": 22.6416, "Longitude": 120.29168, "IVRNo": 4037, "EXTVoiceNo": 4058, "traveltime": 0, "holidayTraveltime": 0}, {"Id": "5156", "pgp": 0, "GoBack": 2, "SID": 3807, "NameZh": "\u901a\u5316\u8857\u53e3", "RouteId": 33, "SeqNo": 13, "Terminal": 0, "DistrictId": 1, "Latitude": 22.641908, "Longitude": 120.292422, "IVRNo": 316, "EXTVoiceNo": 5156, "traveltime": 0, "holidayTraveltime": 0}, {"Id": "5157", "pgp": 0, "GoBack": 2, "SID": 3811, "NameZh": "\u5b89\u6771\u8857\u53e3(\u4e5d\u5982\u4e8c\u8def)", "RouteId": 33, "SeqNo": 14, "Terminal": 0, "DistrictId": 1, "Latitude": 22.641706, "Longitude": 120.295414, "IVRNo": 315, "EXTVoiceNo": 5157, "traveltime": 0, "holidayTraveltime": 0}, {"Id": "0314", "pgp": 0, "GoBack": 2, "SID": 2229, "NameZh": "\u9cf3\u9cf4\u96fb\u53f0", "RouteId": 33, "SeqNo": 15, "Terminal": 0, "DistrictId": 1, "Latitude": 22.641569, "Longitude": 120.297333, "IVRNo": 314, "EXTVoiceNo": 314, "traveltime": 0, "holidayTraveltime": 0}, {"Id": "0313", "pgp": 0, "GoBack": 2, "SID": 2235, "NameZh": "\u54c8\u723e\u6ff1\u8857\u53e3", "RouteId": 33, "SeqNo": 16, "Terminal": 0, "DistrictId": 1, "Latitude": 22.641392, "Longitude": 120.299811, "IVRNo": 313, "EXTVoiceNo": 313, "traveltime": 0, "holidayTraveltime": 0}, {"Id": "0312", "pgp": 0, "GoBack": 2, "SID": 2249, "NameZh": "\u5f8c\u706b\u8eca\u7ad9", "RouteId": 33, "SeqNo": 17, "Terminal": 0, "DistrictId": 1, "Latitude": 22.641194, "Longitude": 120.301856, "IVRNo": 312, "EXTVoiceNo": 312, "traveltime": 0, "holidayTraveltime": 0}, {"Id": "0311", "pgp": 0, "GoBack": 2, "SID": 2266, "NameZh": "\u5927\u9023\u8857\u53e3", "RouteId": 33, "SeqNo": 18, "Terminal": 0, "DistrictId": 1, "Latitude": 22.640954, "Longitude": 120.305194, "IVRNo": 311, "EXTVoiceNo": 311, "traveltime": 0, "holidayTraveltime": 0}, {"Id": "2839", "pgp": 0, "GoBack": 2, "SID": 1563, "NameZh": "\u4e09\u6c11\u516c\u5712(\u535a\u611b\u8def\u53e3)", "RouteId": 33, "SeqNo": 19, "Terminal": 0, "DistrictId": 1, "Latitude": 22.645442, "Longitude": 120.304389, "IVRNo": 236, "EXTVoiceNo": 2839, "traveltime": 0, "holidayTraveltime": 0}, {"Id": "5024", "pgp": 0, "GoBack": 2, "SID": 2051, "NameZh": "\u6377\u904b\u5f8c\u9a5b\u7ad9", "RouteId": 33, "SeqNo": 20, "Terminal": 0, "DistrictId": 1, "Latitude": 22.64802, "Longitude": 120.3035, "IVRNo": 2838, "EXTVoiceNo": 5024, "traveltime": 0, "holidayTraveltime": 0}, {"Id": "5022", "pgp": 0, "GoBack": 2, "SID": 3639, "NameZh": "\u540c\u76df\u8def\u53e3", "RouteId": 33, "SeqNo": 21, "Terminal": 0, "DistrictId": 1, "Latitude": 22.651462, "Longitude": 120.303569, "IVRNo": 5022, "EXTVoiceNo": 5022, "traveltime": 0, "holidayTraveltime": 0}, {"Id": "0890", "pgp": 0, "GoBack": 2, "SID": 4184, "NameZh": "\u540c\u76df\u4e00\u8def\u53e3", "RouteId": 33, "SeqNo": 22, "Terminal": 0, "DistrictId": 1, "Latitude": 22.649389, "Longitude": 120.309094, "IVRNo": 5660, "EXTVoiceNo": 20890, "traveltime": 0, "holidayTraveltime": 0}, {"Id": "5749", "pgp": 0, "GoBack": 2, "SID": 2059, "NameZh": "\u9ad8\u91ab(\u9ad8\u96c4\u91ab\u5b78\u5927\u5b78)", "RouteId": 33, "SeqNo": 23, "Terminal": 0, "DistrictId": 1, "Latitude": 22.646518, "Longitude": 120.309005, "IVRNo": 2841, "EXTVoiceNo": 5749, "traveltime": 0, "holidayTraveltime": 0}, {"Id": "0234", "pgp": 0, "GoBack": 2, "SID": 1736, "NameZh": "\u9ad8\u91ab(\u5341\u5168\u8def)", "RouteId": 33, "SeqNo": 24, "Terminal": 0, "DistrictId": 1, "Latitude": 22.644867, "Longitude": 120.310589, "IVRNo": 234, "EXTVoiceNo": 234, "traveltime": 0, "holidayTraveltime": 0}, {"Id": "0233", "pgp": 0, "GoBack": 2, "SID": 1744, "NameZh": "\u611b\u570b\u570b\u5c0f", "RouteId": 33, "SeqNo": 25, "Terminal": 0, "DistrictId": 1, "Latitude": 22.644681, "Longitude": 120.313094, "IVRNo": 233, "EXTVoiceNo": 233, "traveltime": 0, "holidayTraveltime": 0}, {"Id": "7377", "pgp": 0, "GoBack": 2, "SID": 1770, "NameZh": "\u679c\u83dc\u516c\u53f8", "RouteId": 33, "SeqNo": 26, "Terminal": 0, "DistrictId": 1, "Latitude": 22.645033, "Longitude": 120.314481, "IVRNo": 232, "EXTVoiceNo": 7377, "traveltime": 0, "holidayTraveltime": 0}, {"Id": "0231", "pgp": 0, "GoBack": 2, "SID": 1785, "NameZh": "\u6c11\u65cf\u6d3e\u51fa\u6240", "RouteId": 33, "SeqNo": 27, "Terminal": 0, "DistrictId": 1, "Latitude": 22.647803, "Longitude": 120.316367, "IVRNo": 231, "EXTVoiceNo": 231, "traveltime": 0, "holidayTraveltime": 0}, {"Id": "0230", "pgp": 0, "GoBack": 2, "SID": 1792, "NameZh": "\u5efa\u5de5\u8def", "RouteId": 33, "SeqNo": 28, "Terminal": 0, "DistrictId": 1, "Latitude": 22.648239, "Longitude": 120.318679, "IVRNo": 230, "EXTVoiceNo": 230, "traveltime": 0, "holidayTraveltime": 0}, {"Id": "8703", "pgp": 0, "GoBack": 2, "SID": 5665, "NameZh": "\u5efa\u8208\u505c\u8eca\u5834", "RouteId": 33, "SeqNo": 29, "Terminal": 0, "DistrictId": 1, "Latitude": 22.64788, "Longitude": 120.32137, "IVRNo": 8703, "EXTVoiceNo": 8703, "traveltime": 0, "holidayTraveltime": 0}, {"Id": "5117", "pgp": 0, "GoBack": 2, "SID": 3814, "NameZh": "\u5efa\u8208\u8def", "RouteId": 33, "SeqNo": 30, "Terminal": 0, "DistrictId": 1, "Latitude": 22.646561, "Longitude": 120.322742, "IVRNo": 5117, "EXTVoiceNo": 5117, "traveltime": 0, "holidayTraveltime": 0}, {"Id": "5116", "pgp": 0, "GoBack": 2, "SID": 3815, "NameZh": "\u5efa\u8208\u5e02\u5834", "RouteId": 33, "SeqNo": 31, "Terminal": 0, "DistrictId": 1, "Latitude": 22.644501, "Longitude": 120.324967, "IVRNo": 5116, "EXTVoiceNo": 5116, "traveltime": 0, "holidayTraveltime": 0}, {"Id": "1329", "pgp": 0, "GoBack": 2, "SID": 456, "NameZh": "\u6b63\u8208\u570b\u5c0f", "RouteId": 33, "SeqNo": 32, "Terminal": 0, "DistrictId": 1, "Latitude": 22.64505, "Longitude": 120.326, "IVRNo": 1319, "EXTVoiceNo": 1329, "traveltime": 0, "holidayTraveltime": 0}, {"Id": "3437", "pgp": 0, "GoBack": 2, "SID": 460, "NameZh": "\u5efa\u5de5\u8def\u53e3(\u9ad8\u96c4\u9ad8\u5de5)", "RouteId": 33, "SeqNo": 33, "Terminal": 0, "DistrictId": 1, "Latitude": 22.649484, "Longitude": 120.324689, "IVRNo": 3437, "EXTVoiceNo": 3437, "traveltime": 0, "holidayTraveltime": 0}, {"Id": "0228", "pgp": 0, "GoBack": 2, "SID": 1826, "NameZh": "\u9ad8\u96c4\u5de5\u8077", "RouteId": 33, "SeqNo": 34, "Terminal": 0, "DistrictId": 1, "Latitude": 22.650587, "Longitude": 120.325878, "IVRNo": 228, "EXTVoiceNo": 228, "traveltime": 0, "holidayTraveltime": 0}, {"Id": "0227", "pgp": 0, "GoBack": 2, "SID": 1838, "NameZh": "\u9ad8\u96c4\u79d1\u5927(\u5efa\u5de5)", "RouteId": 33, "SeqNo": 35, "Terminal": 0, "DistrictId": 1, "Latitude": 22.651607, "Longitude": 120.328191, "IVRNo": 227, "EXTVoiceNo": 227, "traveltime": 0, "holidayTraveltime": 0}, {"Id": "5413", "pgp": 0, "GoBack": 2, "SID": 4082, "NameZh": "\u7acb\u5fd7\u5de5\u5546", "RouteId": 33, "SeqNo": 36, "Terminal": 0, "DistrictId": 1, "Latitude": 22.653697, "Longitude": 120.326267, "IVRNo": 5413, "EXTVoiceNo": 5413, "traveltime": 0, "holidayTraveltime": 0}, {"Id": "5412", "pgp": 0, "GoBack": 2, "SID": 4087, "NameZh": "\u838a\u656c\u570b\u5c0f", "RouteId": 33, "SeqNo": 37, "Terminal": 0, "DistrictId": 1, "Latitude": 22.656167, "Longitude": 120.322906, "IVRNo": 5412, "EXTVoiceNo": 5412, "traveltime": 0, "holidayTraveltime": 0}, {"Id": "5908", "pgp": 0, "GoBack": 2, "SID": 4426, "NameZh": "\u9f0e\u5c71\u8857", "RouteId": 33, "SeqNo": 38, "Terminal": 0, "DistrictId": 1, "Latitude": 22.6591, "Longitude": 120.32183, "IVRNo": 5908, "EXTVoiceNo": 5908, "traveltime": 0, "holidayTraveltime": 0}, {"Id": "5109", "pgp": 0, "GoBack": 2, "SID": 3834, "NameZh": "\u9f0e\u897f\u91cc", "RouteId": 33, "SeqNo": 39, "Terminal": 0, "DistrictId": 1, "Latitude": 22.66101, "Longitude": 120.3222, "IVRNo": 5109, "EXTVoiceNo": 5109, "traveltime": 0, "holidayTraveltime": 0}, {"Id": "5108", "pgp": 0, "GoBack": 2, "SID": 3840, "NameZh": "\u91d1\u5c71\u8def\u53e3", "RouteId": 33, "SeqNo": 40, "Terminal": 0, "DistrictId": 1, "Latitude": 22.6622, "Longitude": 120.322, "IVRNo": 5108, "EXTVoiceNo": 5108, "traveltime": 0, "holidayTraveltime": 0}, {"Id": "1095", "pgp": 0, "GoBack": 2, "SID": 3849, "NameZh": "\u91d1\u9f0e\u8def\u53e3", "RouteId": 33, "SeqNo": 41, "Terminal": 0, "DistrictId": 1, "Latitude": 22.664306, "Longitude": 120.321885, "IVRNo": 5107, "EXTVoiceNo": 21095, "traveltime": 0, "holidayTraveltime": 0}, {"Id": "5106", "pgp": 0, "GoBack": 2, "SID": 3853, "NameZh": "\u91d1\u9f0e\u8def", "RouteId": 33, "SeqNo": 42, "Terminal": 0, "DistrictId": 1, "Latitude": 22.664822, "Longitude": 120.322419, "IVRNo": 5106, "EXTVoiceNo": 5106, "traveltime": 0, "holidayTraveltime": 0}, {"Id": "5105", "pgp": 0, "GoBack": 2, "SID": 3855, "NameZh": "\u91d1\u7345\u6e56", "RouteId": 33, "SeqNo": 43, "Terminal": 0, "DistrictId": 1, "Latitude": 22.665377, "Longitude": 120.324978, "IVRNo": 5105, "EXTVoiceNo": 5105, "traveltime": 0, "holidayTraveltime": 0}, {"Id": "5104", "pgp": 0, "GoBack": 2, "SID": 3856, "NameZh": "\u9f0e\u91d1\u91cc", "RouteId": 33, "SeqNo": 44, "Terminal": 0, "DistrictId": 1, "Latitude": 22.668167, "Longitude": 120.325867, "IVRNo": 5104, "EXTVoiceNo": 5104, "traveltime": 0, "holidayTraveltime": 0}, {"Id": "5102", "pgp": 0, "GoBack": 2, "SID": 3858, "NameZh": "\u9f0e\u529b\u8def", "RouteId": 33, "SeqNo": 45, "Terminal": 0, "DistrictId": 1, "Latitude": 22.668456, "Longitude": 120.323186, "IVRNo": 5102, "EXTVoiceNo": 5102, "traveltime": 0, "holidayTraveltime": 0}, {"Id": "5001", "pgp": 0, "GoBack": 2, "SID": 3526, "NameZh": "\u91d1\u7345\u6e56\u7ad9", "RouteId": 33, "SeqNo": 46, "Terminal": 1, "DistrictId": 1, "Latitude": 22.666223, "Longitude": 120.322019, "IVRNo": 5000, "EXTVoiceNo": 5001, "traveltime": 0, "holidayTraveltime": 0}]}