{"en": [{"Id": "0828", "pgp": 0, "GoBack": 1, "SID": 11813, "NameZh": "MRT Gangshan South Station", "RouteId": 8695, "SeqNo": 1, "Terminal": 0, "DistrictId": 1, "Latitude": 22.781124, "Longitude": 120.300244, "IVRNo": 828, "EXTVoiceNo": 828, "traveltime": 0, "holidayTraveltime": 0}, {"Id": "1110", "pgp": 0, "GoBack": 1, "SID": 8734, "NameZh": "Gangshan Cultural Center", "RouteId": 8695, "SeqNo": 2, "Terminal": 0, "DistrictId": 1, "Latitude": 22.78405, "Longitude": 120.297364, "IVRNo": 9564, "EXTVoiceNo": 21110, "traveltime": 0, "holidayTraveltime": 0}, {"Id": "9129", "pgp": 0, "GoBack": 1, "SID": 12419, "NameZh": "Wunhua St. Intersection", "RouteId": 8695, "SeqNo": 3, "Terminal": 0, "DistrictId": 1, "Latitude": 22.788516, "Longitude": 120.296634, "IVRNo": 9565, "EXTVoiceNo": 9129, "traveltime": 0, "holidayTraveltime": 0}, {"Id": "6151", "pgp": 0, "GoBack": 1, "SID": 11551, "NameZh": "Lijhih New Village", "RouteId": 8695, "SeqNo": 4, "Terminal": 0, "DistrictId": 1, "Latitude": 22.790276, "Longitude": 120.296366, "IVRNo": 9281, "EXTVoiceNo": 26151, "traveltime": 0, "holidayTraveltime": 0}, {"Id": "0731", "pgp": 0, "GoBack": 1, "SID": 8736, "NameZh": "National Immigration Agency", "RouteId": 8695, "SeqNo": 5, "Terminal": 0, "DistrictId": 1, "Latitude": 22.791216, "Longitude": 120.296275, "IVRNo": 9214, "EXTVoiceNo": 20731, "traveltime": 0, "holidayTraveltime": 0}, {"Id": "0832", "pgp": 0, "GoBack": 1, "SID": 13335, "NameZh": "Gangshan Transfer Station (Gangshan Train Station)", "RouteId": 8695, "SeqNo": 6, "Terminal": 0, "DistrictId": 1, "Latitude": 22.79233, "Longitude": 120.299444, "IVRNo": 832, "EXTVoiceNo": 832, "traveltime": 0, "holidayTraveltime": 0}, {"Id": "0230", "pgp": 0, "GoBack": 1, "SID": 13526, "NameZh": "Wunsian Market", "RouteId": 8695, "SeqNo": 7, "Terminal": 0, "DistrictId": 1, "Latitude": 22.794198, "Longitude": 120.295872, "IVRNo": 8308, "EXTVoiceNo": 20230, "traveltime": 0, "holidayTraveltime": 0}, {"Id": "9133", "pgp": 0, "GoBack": 1, "SID": 8737, "NameZh": "Gangshan Farmers` Association", "RouteId": 8695, "SeqNo": 8, "Terminal": 0, "DistrictId": 1, "Latitude": 22.795558, "Longitude": 120.295872, "IVRNo": 9569, "EXTVoiceNo": 9133, "traveltime": 0, "holidayTraveltime": 0}, {"Id": "9134", "pgp": 0, "GoBack": 1, "SID": 11149, "NameZh": "Gangshan District Office", "RouteId": 8695, "SeqNo": 9, "Terminal": 0, "DistrictId": 1, "Latitude": 22.798619, "Longitude": 120.295186, "IVRNo": 9570, "EXTVoiceNo": 9134, "traveltime": 0, "holidayTraveltime": 0}, {"Id": "1263", "pgp": 0, "GoBack": 1, "SID": 11078, "NameZh": "Gangshan Agricultural & Industrial Vocational Senior High School (Hehua Rd.)", "RouteId": 8695, "SeqNo": 10, "Terminal": 0, "DistrictId": 1, "Latitude": 22.8013, "Longitude": 120.29091, "IVRNo": 1263, "EXTVoiceNo": 1263, "traveltime": 0, "holidayTraveltime": 0}, {"Id": "8988", "pgp": 0, "GoBack": 1, "SID": 12420, "NameZh": "National Kangshan Senior High School", "RouteId": 8695, "SeqNo": 11, "Terminal": 1, "DistrictId": 1, "Latitude": 22.798048, "Longitude": 120.290292, "IVRNo": 8988, "EXTVoiceNo": 8988, "traveltime": 0, "holidayTraveltime": 0}, {"Id": "8988", "pgp": 0, "GoBack": 2, "SID": 8740, "NameZh": "National Kangshan Senior High School", "RouteId": 8695, "SeqNo": 1, "Terminal": 0, "DistrictId": 1, "Latitude": 22.797, "Longitude": 120.290862, "IVRNo": 8988, "EXTVoiceNo": 8988, "traveltime": 0, "holidayTraveltime": 0}, {"Id": "1198", "pgp": 0, "GoBack": 2, "SID": 14864, "NameZh": "Jhonghua Gridge", "RouteId": 8695, "SeqNo": 2, "Terminal": 0, "DistrictId": 1, "Latitude": 22.795698, "Longitude": 120.289312, "IVRNo": 9005, "EXTVoiceNo": 21198, "traveltime": 0, "holidayTraveltime": 0}, {"Id": "6153", "pgp": 0, "GoBack": 2, "SID": 14865, "NameZh": "Fo Guang Shan Lecture Theatre", "RouteId": 8695, "SeqNo": 3, "Terminal": 0, "DistrictId": 1, "Latitude": 22.793875, "Longitude": 120.288082, "IVRNo": 8981, "EXTVoiceNo": 26153, "traveltime": 0, "holidayTraveltime": 0}, {"Id": "1679", "pgp": 0, "GoBack": 2, "SID": 14866, "NameZh": "Minzu Rd. Intersection (Jhonghua Rd.)", "RouteId": 8695, "SeqNo": 4, "Terminal": 0, "DistrictId": 1, "Latitude": 22.792205, "Longitude": 120.28831, "IVRNo": 1679, "EXTVoiceNo": 1679, "traveltime": 0, "holidayTraveltime": 0}, {"Id": "7702", "pgp": 0, "GoBack": 2, "SID": 13131, "NameZh": "Dayi 2nd Rd. Intersection", "RouteId": 8695, "SeqNo": 5, "Terminal": 0, "DistrictId": 1, "Latitude": 22.787423, "Longitude": 120.28649, "IVRNo": 13466, "EXTVoiceNo": 7702, "traveltime": 0, "holidayTraveltime": 0}, {"Id": "7163", "pgp": 0, "GoBack": 2, "SID": 13132, "NameZh": "Armed Forces General Hospital Gangshan Branch", "RouteId": 8695, "SeqNo": 6, "Terminal": 0, "DistrictId": 1, "Latitude": 22.78915, "Longitude": 120.28504, "IVRNo": 9039, "EXTVoiceNo": 17163, "traveltime": 0, "holidayTraveltime": 0}, {"Id": "1259", "pgp": 0, "GoBack": 2, "SID": 14867, "NameZh": "Jhongjheng Hall (Gangshan)", "RouteId": 8695, "SeqNo": 7, "Terminal": 0, "DistrictId": 1, "Latitude": 22.79074, "Longitude": 120.289376, "IVRNo": 1259, "EXTVoiceNo": 1259, "traveltime": 0, "holidayTraveltime": 0}, {"Id": "0908", "pgp": 0, "GoBack": 2, "SID": 9566, "NameZh": "Gangshan Elementary School", "RouteId": 8695, "SeqNo": 8, "Terminal": 0, "DistrictId": 1, "Latitude": 22.791, "Longitude": 120.2945, "IVRNo": 648, "EXTVoiceNo": 10908, "traveltime": 0, "holidayTraveltime": 0}, {"Id": "0731", "pgp": 0, "GoBack": 2, "SID": 11574, "NameZh": "National Immigration Agency", "RouteId": 8695, "SeqNo": 9, "Terminal": 0, "DistrictId": 1, "Latitude": 22.791234, "Longitude": 120.296256, "IVRNo": 9214, "EXTVoiceNo": 20731, "traveltime": 0, "holidayTraveltime": 0}, {"Id": "0832", "pgp": 0, "GoBack": 2, "SID": 15332, "NameZh": "Gangshan Transfer Station (Gangshan Train Station)", "RouteId": 8695, "SeqNo": 10, "Terminal": 0, "DistrictId": 1, "Latitude": 22.792279, "Longitude": 120.299159, "IVRNo": 832, "EXTVoiceNo": 832, "traveltime": 0, "holidayTraveltime": 0}, {"Id": "6151", "pgp": 0, "GoBack": 2, "SID": 14863, "NameZh": "Lijhih New Village", "RouteId": 8695, "SeqNo": 11, "Terminal": 0, "DistrictId": 1, "Latitude": 22.789953, "Longitude": 120.296269, "IVRNo": 9281, "EXTVoiceNo": 26151, "traveltime": 0, "holidayTraveltime": 0}, {"Id": "9129", "pgp": 0, "GoBack": 2, "SID": 12421, "NameZh": "Wunhua St. Intersection", "RouteId": 8695, "SeqNo": 12, "Terminal": 0, "DistrictId": 1, "Latitude": 22.787683, "Longitude": 120.296644, "IVRNo": 9565, "EXTVoiceNo": 9129, "traveltime": 0, "holidayTraveltime": 0}, {"Id": "1110", "pgp": 0, "GoBack": 2, "SID": 8744, "NameZh": "Gangshan Cultural Center", "RouteId": 8695, "SeqNo": 13, "Terminal": 0, "DistrictId": 1, "Latitude": 22.783868, "Longitude": 120.297396, "IVRNo": 9564, "EXTVoiceNo": 21110, "traveltime": 0, "holidayTraveltime": 0}, {"Id": "0828", "pgp": 0, "GoBack": 2, "SID": 11814, "NameZh": "MRT Gangshan South Station", "RouteId": 8695, "SeqNo": 14, "Terminal": 1, "DistrictId": 1, "Latitude": 22.780347, "Longitude": 120.300666, "IVRNo": 828, "EXTVoiceNo": 828, "traveltime": 0, "holidayTraveltime": 0}], "zh": [{"Id": "0828", "pgp": 0, "GoBack": 1, "SID": 11813, "NameZh": "\u6377\u904b\u5357\u5ca1\u5c71\u7ad9", "RouteId": 8695, "SeqNo": 1, "Terminal": 0, "DistrictId": 1, "Latitude": 22.781124, "Longitude": 120.300244, "IVRNo": 828, "EXTVoiceNo": 828, "traveltime": 0, "holidayTraveltime": 0}, {"Id": "1110", "pgp": 0, "GoBack": 1, "SID": 8734, "NameZh": "\u5ca1\u5c71\u6587\u5316\u4e2d\u5fc3", "RouteId": 8695, "SeqNo": 2, "Terminal": 0, "DistrictId": 1, "Latitude": 22.78405, "Longitude": 120.297364, "IVRNo": 9564, "EXTVoiceNo": 21110, "traveltime": 0, "holidayTraveltime": 0}, {"Id": "9129", "pgp": 0, "GoBack": 1, "SID": 12419, "NameZh": "\u6587\u5316\u8857\u53e3", "RouteId": 8695, "SeqNo": 3, "Terminal": 0, "DistrictId": 1, "Latitude": 22.788516, "Longitude": 120.296634, "IVRNo": 9565, "EXTVoiceNo": 9129, "traveltime": 0, "holidayTraveltime": 0}, {"Id": "6151", "pgp": 0, "GoBack": 1, "SID": 11551, "NameZh": "\u52f5\u5fd7\u65b0\u57ce", "RouteId": 8695, "SeqNo": 4, "Terminal": 0, "DistrictId": 1, "Latitude": 22.790276, "Longitude": 120.296366, "IVRNo": 9281, "EXTVoiceNo": 26151, "traveltime": 0, "holidayTraveltime": 0}, {"Id": "0731", "pgp": 0, "GoBack": 1, "SID": 8736, "NameZh": "\u79fb\u6c11\u7f72", "RouteId": 8695, "SeqNo": 5, "Terminal": 0, "DistrictId": 1, "Latitude": 22.791216, "Longitude": 120.296275, "IVRNo": 9214, "EXTVoiceNo": 20731, "traveltime": 0, "holidayTraveltime": 0}, {"Id": "0832", "pgp": 0, "GoBack": 1, "SID": 13335, "NameZh": "\u5ca1\u5c71\u8f49\u904b\u7ad9(\u5ca1\u5c71\u706b\u8eca\u7ad9)", "RouteId": 8695, "SeqNo": 6, "Terminal": 0, "DistrictId": 1, "Latitude": 22.79233, "Longitude": 120.299444, "IVRNo": 832, "EXTVoiceNo": 832, "traveltime": 0, "holidayTraveltime": 0}, {"Id": "0230", "pgp": 0, "GoBack": 1, "SID": 13526, "NameZh": "\u6587\u8ce2\u5e02\u5834", "RouteId": 8695, "SeqNo": 7, "Terminal": 0, "DistrictId": 1, "Latitude": 22.794198, "Longitude": 120.295872, "IVRNo": 8308, "EXTVoiceNo": 20230, "traveltime": 0, "holidayTraveltime": 0}, {"Id": "9133", "pgp": 0, "GoBack": 1, "SID": 8737, "NameZh": "\u5ca1\u5c71\u8fb2\u6703", "RouteId": 8695, "SeqNo": 8, "Terminal": 0, "DistrictId": 1, "Latitude": 22.795558, "Longitude": 120.295872, "IVRNo": 9569, "EXTVoiceNo": 9133, "traveltime": 0, "holidayTraveltime": 0}, {"Id": "9134", "pgp": 0, "GoBack": 1, "SID": 11149, "NameZh": "\u5ca1\u5c71\u5340\u516c\u6240", "RouteId": 8695, "SeqNo": 9, "Terminal": 0, "DistrictId": 1, "Latitude": 22.798619, "Longitude": 120.295186, "IVRNo": 9570, "EXTVoiceNo": 9134, "traveltime": 0, "holidayTraveltime": 0}, {"Id": "1263", "pgp": 0, "GoBack": 1, "SID": 11078, "NameZh": "\u5ca1\u5c71\u8fb2\u5de5(\u6cb3\u83ef\u8def)", "RouteId": 8695, "SeqNo": 10, "Terminal": 0, "DistrictId": 1, "Latitude": 22.8013, "Longitude": 120.29091, "IVRNo": 1263, "EXTVoiceNo": 1263, "traveltime": 0, "holidayTraveltime": 0}, {"Id": "8988", "pgp": 0, "GoBack": 1, "SID": 12420, "NameZh": "\u5ca1\u5c71\u9ad8\u4e2d", "RouteId": 8695, "SeqNo": 11, "Terminal": 1, "DistrictId": 1, "Latitude": 22.798048, "Longitude": 120.290292, "IVRNo": 8988, "EXTVoiceNo": 8988, "traveltime": 0, "holidayTraveltime": 0}, {"Id": "8988", "pgp": 0, "GoBack": 2, "SID": 8740, "NameZh": "\u5ca1\u5c71\u9ad8\u4e2d", "RouteId": 8695, "SeqNo": 1, "Terminal": 0, "DistrictId": 1, "Latitude": 22.797, "Longitude": 120.290862, "IVRNo": 8988, "EXTVoiceNo": 8988, "traveltime": 0, "holidayTraveltime": 0}, {"Id": "1198", "pgp": 0, "GoBack": 2, "SID": 14864, "NameZh": "\u4e2d\u83ef\u6a4b", "RouteId": 8695, "SeqNo": 2, "Terminal": 0, "DistrictId": 1, "Latitude": 22.795698, "Longitude": 120.289312, "IVRNo": 9005, "EXTVoiceNo": 21198, "traveltime": 0, "holidayTraveltime": 0}, {"Id": "6153", "pgp": 0, "GoBack": 2, "SID": 14865, "NameZh": "\u4f5b\u5149\u5c71\u8b1b\u5802", "RouteId": 8695, "SeqNo": 3, "Terminal": 0, "DistrictId": 1, "Latitude": 22.793875, "Longitude": 120.288082, "IVRNo": 8981, "EXTVoiceNo": 26153, "traveltime": 0, "holidayTraveltime": 0}, {"Id": "1679", "pgp": 0, "GoBack": 2, "SID": 14866, "NameZh": "\u6c11\u65cf\u8def\u53e3(\u4e2d\u83ef\u8def)", "RouteId": 8695, "SeqNo": 4, "Terminal": 0, "DistrictId": 1, "Latitude": 22.792205, "Longitude": 120.28831, "IVRNo": 1679, "EXTVoiceNo": 1679, "traveltime": 0, "holidayTraveltime": 0}, {"Id": "7702", "pgp": 0, "GoBack": 2, "SID": 13131, "NameZh": "\u5927\u7fa9\u4e8c\u8def\u53e3", "RouteId": 8695, "SeqNo": 5, "Terminal": 0, "DistrictId": 1, "Latitude": 22.787423, "Longitude": 120.28649, "IVRNo": 13466, "EXTVoiceNo": 7702, "traveltime": 0, "holidayTraveltime": 0}, {"Id": "7163", "pgp": 0, "GoBack": 2, "SID": 13132, "NameZh": "\u570b\u8ecd\u5ca1\u5c71\u91ab\u9662", "RouteId": 8695, "SeqNo": 6, "Terminal": 0, "DistrictId": 1, "Latitude": 22.78915, "Longitude": 120.28504, "IVRNo": 9039, "EXTVoiceNo": 17163, "traveltime": 0, "holidayTraveltime": 0}, {"Id": "1259", "pgp": 0, "GoBack": 2, "SID": 14867, "NameZh": "\u4e2d\u6b63\u5802(\u5ca1\u5c71)", "RouteId": 8695, "SeqNo": 7, "Terminal": 0, "DistrictId": 1, "Latitude": 22.79074, "Longitude": 120.289376, "IVRNo": 1259, "EXTVoiceNo": 1259, "traveltime": 0, "holidayTraveltime": 0}, {"Id": "0908", "pgp": 0, "GoBack": 2, "SID": 9566, "NameZh": "\u5ca1\u5c71\u570b\u5c0f", "RouteId": 8695, "SeqNo": 8, "Terminal": 0, "DistrictId": 1, "Latitude": 22.791, "Longitude": 120.2945, "IVRNo": 648, "EXTVoiceNo": 10908, "traveltime": 0, "holidayTraveltime": 0}, {"Id": "0731", "pgp": 0, "GoBack": 2, "SID": 11574, "NameZh": "\u79fb\u6c11\u7f72", "RouteId": 8695, "SeqNo": 9, "Terminal": 0, "DistrictId": 1, "Latitude": 22.791234, "Longitude": 120.296256, "IVRNo": 9214, "EXTVoiceNo": 20731, "traveltime": 0, "holidayTraveltime": 0}, {"Id": "0832", "pgp": 0, "GoBack": 2, "SID": 15332, "NameZh": "\u5ca1\u5c71\u8f49\u904b\u7ad9(\u5ca1\u5c71\u706b\u8eca\u7ad9)", "RouteId": 8695, "SeqNo": 10, "Terminal": 0, "DistrictId": 1, "Latitude": 22.792279, "Longitude": 120.299159, "IVRNo": 832, "EXTVoiceNo": 832, "traveltime": 0, "holidayTraveltime": 0}, {"Id": "6151", "pgp": 0, "GoBack": 2, "SID": 14863, "NameZh": "\u52f5\u5fd7\u65b0\u57ce", "RouteId": 8695, "SeqNo": 11, "Terminal": 0, "DistrictId": 1, "Latitude": 22.789953, "Longitude": 120.296269, "IVRNo": 9281, "EXTVoiceNo": 26151, "traveltime": 0, "holidayTraveltime": 0}, {"Id": "9129", "pgp": 0, "GoBack": 2, "SID": 12421, "NameZh": "\u6587\u5316\u8857\u53e3", "RouteId": 8695, "SeqNo": 12, "Terminal": 0, "DistrictId": 1, "Latitude": 22.787683, "Longitude": 120.296644, "IVRNo": 9565, "EXTVoiceNo": 9129, "traveltime": 0, "holidayTraveltime": 0}, {"Id": "1110", "pgp": 0, "GoBack": 2, "SID": 8744, "NameZh": "\u5ca1\u5c71\u6587\u5316\u4e2d\u5fc3", "RouteId": 8695, "SeqNo": 13, "Terminal": 0, "DistrictId": 1, "Latitude": 22.783868, "Longitude": 120.297396, "IVRNo": 9564, "EXTVoiceNo": 21110, "traveltime": 0, "holidayTraveltime": 0}, {"Id": "0828", "pgp": 0, "GoBack": 2, "SID": 11814, "NameZh": "\u6377\u904b\u5357\u5ca1\u5c71\u7ad9", "RouteId": 8695, "SeqNo": 14, "Terminal": 1, "DistrictId": 1, "Latitude": 22.780347, "Longitude": 120.300666, "IVRNo": 828, "EXTVoiceNo": 828, "traveltime": 0, "holidayTraveltime": 0}]}