{"en": [{"Id": "0287", "pgp": 0, "GoBack": 1, "SID": 6399, "NameZh": "TRA New Zuoying Station", "RouteId": 8514, "SeqNo": 1, "Terminal": 0, "DistrictId": 1, "Latitude": 22.68866, "Longitude": 120.30748, "IVRNo": 7517, "EXTVoiceNo": 20287, "traveltime": 0, "holidayTraveltime": 0}, {"Id": "0279", "pgp": 0, "GoBack": 1, "SID": 5732, "NameZh": "Back Lane of Banping Mt.", "RouteId": 8514, "SeqNo": 2, "Terminal": 0, "DistrictId": 1, "Latitude": 22.68929, "Longitude": 120.3062, "IVRNo": 8775, "EXTVoiceNo": 20279, "traveltime": 0, "holidayTraveltime": 0}, {"Id": "8215", "pgp": 0, "GoBack": 1, "SID": 5487, "NameZh": "Cueiming Rd.", "RouteId": 8514, "SeqNo": 3, "Terminal": 0, "DistrictId": 1, "Latitude": 22.68934, "Longitude": 120.30172, "IVRNo": 8215, "EXTVoiceNo": 8215, "traveltime": 0, "holidayTraveltime": 0}, {"Id": "8214", "pgp": 0, "GoBack": 1, "SID": 5488, "NameZh": "Hello Market (Kaohsiung City Temple of Confucius)", "RouteId": 8514, "SeqNo": 4, "Terminal": 0, "DistrictId": 1, "Latitude": 22.69131, "Longitude": 120.301, "IVRNo": 8217, "EXTVoiceNo": 8214, "traveltime": 0, "holidayTraveltime": 0}, {"Id": "7516", "pgp": 0, "GoBack": 1, "SID": 5170, "NameZh": "Haigong E. Rd.", "RouteId": 8514, "SeqNo": 5, "Terminal": 0, "DistrictId": 1, "Latitude": 22.69371, "Longitude": 120.29977, "IVRNo": 7516, "EXTVoiceNo": 7516, "traveltime": 0, "holidayTraveltime": 0}, {"Id": "1021", "pgp": 0, "GoBack": 1, "SID": 3391, "NameZh": "Banping Mountain (Zuoying Avenue)", "RouteId": 8514, "SeqNo": 6, "Terminal": 0, "DistrictId": 1, "Latitude": 22.693308, "Longitude": 120.298778, "IVRNo": 1021, "EXTVoiceNo": 1021, "traveltime": 0, "holidayTraveltime": 0}, {"Id": "4787", "pgp": 0, "GoBack": 1, "SID": 3509, "NameZh": "Caigong Rd. Intersection (Zuoying Avenue)", "RouteId": 8514, "SeqNo": 7, "Terminal": 0, "DistrictId": 1, "Latitude": 22.692028, "Longitude": 120.298014, "IVRNo": 4786, "EXTVoiceNo": 4787, "traveltime": 0, "holidayTraveltime": 0}, {"Id": "0614", "pgp": 0, "GoBack": 1, "SID": 5884, "NameZh": "Fonggu Temple (Jinsyue Rd. Intersection)", "RouteId": 8514, "SeqNo": 8, "Terminal": 0, "DistrictId": 1, "Latitude": 22.690478, "Longitude": 120.296119, "IVRNo": 9001, "EXTVoiceNo": 20614, "traveltime": 0, "holidayTraveltime": 0}, {"Id": "4760", "pgp": 0, "GoBack": 1, "SID": 3403, "NameZh": "Zuoying Market", "RouteId": 8514, "SeqNo": 9, "Terminal": 0, "DistrictId": 1, "Latitude": 22.68758, "Longitude": 120.2935, "IVRNo": 4728, "EXTVoiceNo": 4760, "traveltime": 0, "holidayTraveltime": 0}, {"Id": "4761", "pgp": 0, "GoBack": 1, "SID": 3410, "NameZh": "Zuoying Avenue", "RouteId": 8514, "SeqNo": 10, "Terminal": 0, "DistrictId": 1, "Latitude": 22.68607, "Longitude": 120.29063, "IVRNo": 4727, "EXTVoiceNo": 4761, "traveltime": 0, "holidayTraveltime": 0}, {"Id": "4762", "pgp": 0, "GoBack": 1, "SID": 3430, "NameZh": "Dianzihding Rd. Intersection", "RouteId": 8514, "SeqNo": 11, "Terminal": 0, "DistrictId": 1, "Latitude": 22.68437, "Longitude": 120.28919, "IVRNo": 4726, "EXTVoiceNo": 4762, "traveltime": 0, "holidayTraveltime": 0}, {"Id": "4763", "pgp": 0, "GoBack": 1, "SID": 3435, "NameZh": "Zuoying Farmers` Association", "RouteId": 8514, "SeqNo": 12, "Terminal": 0, "DistrictId": 1, "Latitude": 22.68253, "Longitude": 120.2884, "IVRNo": 4725, "EXTVoiceNo": 4763, "traveltime": 0, "holidayTraveltime": 0}, {"Id": "7585", "pgp": 0, "GoBack": 1, "SID": 5148, "NameZh": "Shengli Rd.", "RouteId": 8514, "SeqNo": 13, "Terminal": 0, "DistrictId": 1, "Latitude": 22.680704, "Longitude": 120.289703, "IVRNo": 7523, "EXTVoiceNo": 7585, "traveltime": 0, "holidayTraveltime": 0}, {"Id": "7584", "pgp": 0, "GoBack": 1, "SID": 5153, "NameZh": "Lotus Pond (Shengli Rd.)", "RouteId": 8514, "SeqNo": 14, "Terminal": 0, "DistrictId": 1, "Latitude": 22.679264, "Longitude": 120.292374, "IVRNo": 7524, "EXTVoiceNo": 7584, "traveltime": 0, "holidayTraveltime": 0}, {"Id": "2430", "pgp": 0, "GoBack": 1, "SID": 13130, "NameZh": "Properties Museum, Lotus Pond Station", "RouteId": 8514, "SeqNo": 15, "Terminal": 0, "DistrictId": 1, "Latitude": 22.678384, "Longitude": 120.294918, "IVRNo": 9976, "EXTVoiceNo": 32430, "traveltime": 0, "holidayTraveltime": 0}, {"Id": "0492", "pgp": 0, "GoBack": 1, "SID": 536, "NameZh": "Kaohsiung Products Store", "RouteId": 8514, "SeqNo": 16, "Terminal": 1, "DistrictId": 1, "Latitude": 22.680496, "Longitude": 120.297765, "IVRNo": 854, "EXTVoiceNo": 492, "traveltime": 0, "holidayTraveltime": 0}, {"Id": "2430", "pgp": 0, "GoBack": 2, "SID": 11533, "NameZh": "Properties Museum, Lotus Pond Station", "RouteId": 8514, "SeqNo": 1, "Terminal": 0, "DistrictId": 1, "Latitude": 22.678435, "Longitude": 120.295152, "IVRNo": 9976, "EXTVoiceNo": 32430, "traveltime": 0, "holidayTraveltime": 0}, {"Id": "7584", "pgp": 0, "GoBack": 2, "SID": 5201, "NameZh": "Lotus Pond (Shengli Rd.)", "RouteId": 8514, "SeqNo": 2, "Terminal": 0, "DistrictId": 1, "Latitude": 22.679823, "Longitude": 120.292152, "IVRNo": 7524, "EXTVoiceNo": 7584, "traveltime": 0, "holidayTraveltime": 0}, {"Id": "7585", "pgp": 0, "GoBack": 2, "SID": 5206, "NameZh": "Shengli Rd.", "RouteId": 8514, "SeqNo": 3, "Terminal": 0, "DistrictId": 1, "Latitude": 22.68077, "Longitude": 120.2897, "IVRNo": 7523, "EXTVoiceNo": 7585, "traveltime": 0, "holidayTraveltime": 0}, {"Id": "4763", "pgp": 0, "GoBack": 2, "SID": 3256, "NameZh": "Zuoying Farmers` Association", "RouteId": 8514, "SeqNo": 4, "Terminal": 0, "DistrictId": 1, "Latitude": 22.68198, "Longitude": 120.28822, "IVRNo": 4725, "EXTVoiceNo": 4763, "traveltime": 0, "holidayTraveltime": 0}, {"Id": "4762", "pgp": 0, "GoBack": 2, "SID": 3269, "NameZh": "Dianzihding Rd. Intersection", "RouteId": 8514, "SeqNo": 5, "Terminal": 0, "DistrictId": 1, "Latitude": 22.68433, "Longitude": 120.28941, "IVRNo": 4726, "EXTVoiceNo": 4762, "traveltime": 0, "holidayTraveltime": 0}, {"Id": "4761", "pgp": 0, "GoBack": 2, "SID": 3282, "NameZh": "Zuoying Avenue", "RouteId": 8514, "SeqNo": 6, "Terminal": 0, "DistrictId": 1, "Latitude": 22.68636, "Longitude": 120.29106, "IVRNo": 4727, "EXTVoiceNo": 4761, "traveltime": 0, "holidayTraveltime": 0}, {"Id": "4760", "pgp": 0, "GoBack": 2, "SID": 3294, "NameZh": "Zuoying Market", "RouteId": 8514, "SeqNo": 7, "Terminal": 0, "DistrictId": 1, "Latitude": 22.68775, "Longitude": 120.29356, "IVRNo": 4728, "EXTVoiceNo": 4760, "traveltime": 0, "holidayTraveltime": 0}, {"Id": "0614", "pgp": 0, "GoBack": 2, "SID": 5895, "NameZh": "Fonggu Temple (Jinsyue Rd. Intersection)", "RouteId": 8514, "SeqNo": 8, "Terminal": 0, "DistrictId": 1, "Latitude": 22.690508, "Longitude": 120.296372, "IVRNo": 9001, "EXTVoiceNo": 20614, "traveltime": 0, "holidayTraveltime": 0}, {"Id": "4787", "pgp": 0, "GoBack": 2, "SID": 3506, "NameZh": "Caigong Rd. Intersection (Zuoying Avenue)", "RouteId": 8514, "SeqNo": 9, "Terminal": 0, "DistrictId": 1, "Latitude": 22.691828, "Longitude": 120.298144, "IVRNo": 4786, "EXTVoiceNo": 4787, "traveltime": 0, "holidayTraveltime": 0}, {"Id": "7516", "pgp": 0, "GoBack": 2, "SID": 5144, "NameZh": "Haigong E. Rd.", "RouteId": 8514, "SeqNo": 10, "Terminal": 0, "DistrictId": 1, "Latitude": 22.6935, "Longitude": 120.29983, "IVRNo": 7516, "EXTVoiceNo": 7516, "traveltime": 0, "holidayTraveltime": 0}, {"Id": "8214", "pgp": 0, "GoBack": 2, "SID": 5483, "NameZh": "Hello Market (Kaohsiung City Temple of Confucius)", "RouteId": 8514, "SeqNo": 11, "Terminal": 0, "DistrictId": 1, "Latitude": 22.69115, "Longitude": 120.30089, "IVRNo": 8217, "EXTVoiceNo": 8214, "traveltime": 0, "holidayTraveltime": 0}, {"Id": "8215", "pgp": 0, "GoBack": 2, "SID": 5484, "NameZh": "Cueiming Rd.", "RouteId": 8514, "SeqNo": 12, "Terminal": 0, "DistrictId": 1, "Latitude": 22.68928, "Longitude": 120.30164, "IVRNo": 8215, "EXTVoiceNo": 8215, "traveltime": 0, "holidayTraveltime": 0}, {"Id": "8767", "pgp": 0, "GoBack": 2, "SID": 5723, "NameZh": "Caigong 1st Rd. Intersection", "RouteId": 8514, "SeqNo": 13, "Terminal": 0, "DistrictId": 1, "Latitude": 22.687202, "Longitude": 120.304628, "IVRNo": 8767, "EXTVoiceNo": 8767, "traveltime": 0, "holidayTraveltime": 0}, {"Id": "0287", "pgp": 0, "GoBack": 2, "SID": 5174, "NameZh": "TRA New Zuoying Station", "RouteId": 8514, "SeqNo": 14, "Terminal": 1, "DistrictId": 1, "Latitude": 22.68855, "Longitude": 120.30763, "IVRNo": 7517, "EXTVoiceNo": 20287, "traveltime": 0, "holidayTraveltime": 0}], "zh": [{"Id": "0287", "pgp": 0, "GoBack": 1, "SID": 6399, "NameZh": "\u53f0\u9435\u65b0\u5de6\u71df\u7ad9", "RouteId": 8514, "SeqNo": 1, "Terminal": 0, "DistrictId": 1, "Latitude": 22.68866, "Longitude": 120.30748, "IVRNo": 7517, "EXTVoiceNo": 20287, "traveltime": 0, "holidayTraveltime": 0}, {"Id": "0279", "pgp": 0, "GoBack": 1, "SID": 5732, "NameZh": "\u534a\u5c4f\u5c71\u5f8c\u5df7", "RouteId": 8514, "SeqNo": 2, "Terminal": 0, "DistrictId": 1, "Latitude": 22.68929, "Longitude": 120.3062, "IVRNo": 8775, "EXTVoiceNo": 20279, "traveltime": 0, "holidayTraveltime": 0}, {"Id": "8215", "pgp": 0, "GoBack": 1, "SID": 5487, "NameZh": "\u7fe0\u660e\u8def", "RouteId": 8514, "SeqNo": 3, "Terminal": 0, "DistrictId": 1, "Latitude": 22.68934, "Longitude": 120.30172, "IVRNo": 8215, "EXTVoiceNo": 8215, "traveltime": 0, "holidayTraveltime": 0}, {"Id": "8214", "pgp": 0, "GoBack": 1, "SID": 5488, "NameZh": "\u54c8\u56c9\u5e02\u5834(\u5b54\u5edf)", "RouteId": 8514, "SeqNo": 4, "Terminal": 0, "DistrictId": 1, "Latitude": 22.69131, "Longitude": 120.301, "IVRNo": 8217, "EXTVoiceNo": 8214, "traveltime": 0, "holidayTraveltime": 0}, {"Id": "7516", "pgp": 0, "GoBack": 1, "SID": 5170, "NameZh": "\u6d77\u529f\u6771\u8def", "RouteId": 8514, "SeqNo": 5, "Terminal": 0, "DistrictId": 1, "Latitude": 22.69371, "Longitude": 120.29977, "IVRNo": 7516, "EXTVoiceNo": 7516, "traveltime": 0, "holidayTraveltime": 0}, {"Id": "1021", "pgp": 0, "GoBack": 1, "SID": 3391, "NameZh": "\u534a\u5c4f\u5c71(\u5de6\u71df\u5927\u8def)", "RouteId": 8514, "SeqNo": 6, "Terminal": 0, "DistrictId": 1, "Latitude": 22.693308, "Longitude": 120.298778, "IVRNo": 1021, "EXTVoiceNo": 1021, "traveltime": 0, "holidayTraveltime": 0}, {"Id": "4787", "pgp": 0, "GoBack": 1, "SID": 3509, "NameZh": "\u83dc\u516c\u8def\u53e3(\u5de6\u71df\u5927\u8def)", "RouteId": 8514, "SeqNo": 7, "Terminal": 0, "DistrictId": 1, "Latitude": 22.692028, "Longitude": 120.298014, "IVRNo": 4786, "EXTVoiceNo": 4787, "traveltime": 0, "holidayTraveltime": 0}, {"Id": "0614", "pgp": 0, "GoBack": 1, "SID": 5884, "NameZh": "\u8c50\u7a40\u5bae(\u9032\u5b78\u8def\u53e3)", "RouteId": 8514, "SeqNo": 8, "Terminal": 0, "DistrictId": 1, "Latitude": 22.690478, "Longitude": 120.296119, "IVRNo": 9001, "EXTVoiceNo": 20614, "traveltime": 0, "holidayTraveltime": 0}, {"Id": "4760", "pgp": 0, "GoBack": 1, "SID": 3403, "NameZh": "\u5de6\u71df\u5e02\u5834", "RouteId": 8514, "SeqNo": 9, "Terminal": 0, "DistrictId": 1, "Latitude": 22.68758, "Longitude": 120.2935, "IVRNo": 4728, "EXTVoiceNo": 4760, "traveltime": 0, "holidayTraveltime": 0}, {"Id": "4761", "pgp": 0, "GoBack": 1, "SID": 3410, "NameZh": "\u5de6\u71df\u5927\u8def", "RouteId": 8514, "SeqNo": 10, "Terminal": 0, "DistrictId": 1, "Latitude": 22.68607, "Longitude": 120.29063, "IVRNo": 4727, "EXTVoiceNo": 4761, "traveltime": 0, "holidayTraveltime": 0}, {"Id": "4762", "pgp": 0, "GoBack": 1, "SID": 3430, "NameZh": "\u5e97\u4ed4\u9802\u8def\u53e3", "RouteId": 8514, "SeqNo": 11, "Terminal": 0, "DistrictId": 1, "Latitude": 22.68437, "Longitude": 120.28919, "IVRNo": 4726, "EXTVoiceNo": 4762, "traveltime": 0, "holidayTraveltime": 0}, {"Id": "4763", "pgp": 0, "GoBack": 1, "SID": 3435, "NameZh": "\u5de6\u71df\u8fb2\u6703", "RouteId": 8514, "SeqNo": 12, "Terminal": 0, "DistrictId": 1, "Latitude": 22.68253, "Longitude": 120.2884, "IVRNo": 4725, "EXTVoiceNo": 4763, "traveltime": 0, "holidayTraveltime": 0}, {"Id": "7585", "pgp": 0, "GoBack": 1, "SID": 5148, "NameZh": "\u52dd\u5229\u8def", "RouteId": 8514, "SeqNo": 13, "Terminal": 0, "DistrictId": 1, "Latitude": 22.680704, "Longitude": 120.289703, "IVRNo": 7523, "EXTVoiceNo": 7585, "traveltime": 0, "holidayTraveltime": 0}, {"Id": "7584", "pgp": 0, "GoBack": 1, "SID": 5153, "NameZh": "\u84ee\u6c60\u6f6d(\u52dd\u5229\u8def)", "RouteId": 8514, "SeqNo": 14, "Terminal": 0, "DistrictId": 1, "Latitude": 22.679264, "Longitude": 120.292374, "IVRNo": 7524, "EXTVoiceNo": 7584, "traveltime": 0, "holidayTraveltime": 0}, {"Id": "2430", "pgp": 0, "GoBack": 1, "SID": 13130, "NameZh": "\u7269\u7522\u9928\u84ee\u6f6d\u7ad9", "RouteId": 8514, "SeqNo": 15, "Terminal": 0, "DistrictId": 1, "Latitude": 22.678384, "Longitude": 120.294918, "IVRNo": 9976, "EXTVoiceNo": 32430, "traveltime": 0, "holidayTraveltime": 0}, {"Id": "0492", "pgp": 0, "GoBack": 1, "SID": 536, "NameZh": "\u9ad8\u96c4\u7269\u7522\u9928", "RouteId": 8514, "SeqNo": 16, "Terminal": 1, "DistrictId": 1, "Latitude": 22.680496, "Longitude": 120.297765, "IVRNo": 854, "EXTVoiceNo": 492, "traveltime": 0, "holidayTraveltime": 0}, {"Id": "2430", "pgp": 0, "GoBack": 2, "SID": 11533, "NameZh": "\u7269\u7522\u9928\u84ee\u6f6d\u7ad9", "RouteId": 8514, "SeqNo": 1, "Terminal": 0, "DistrictId": 1, "Latitude": 22.678435, "Longitude": 120.295152, "IVRNo": 9976, "EXTVoiceNo": 32430, "traveltime": 0, "holidayTraveltime": 0}, {"Id": "7584", "pgp": 0, "GoBack": 2, "SID": 5201, "NameZh": "\u84ee\u6c60\u6f6d(\u52dd\u5229\u8def)", "RouteId": 8514, "SeqNo": 2, "Terminal": 0, "DistrictId": 1, "Latitude": 22.679823, "Longitude": 120.292152, "IVRNo": 7524, "EXTVoiceNo": 7584, "traveltime": 0, "holidayTraveltime": 0}, {"Id": "7585", "pgp": 0, "GoBack": 2, "SID": 5206, "NameZh": "\u52dd\u5229\u8def", "RouteId": 8514, "SeqNo": 3, "Terminal": 0, "DistrictId": 1, "Latitude": 22.68077, "Longitude": 120.2897, "IVRNo": 7523, "EXTVoiceNo": 7585, "traveltime": 0, "holidayTraveltime": 0}, {"Id": "4763", "pgp": 0, "GoBack": 2, "SID": 3256, "NameZh": "\u5de6\u71df\u8fb2\u6703", "RouteId": 8514, "SeqNo": 4, "Terminal": 0, "DistrictId": 1, "Latitude": 22.68198, "Longitude": 120.28822, "IVRNo": 4725, "EXTVoiceNo": 4763, "traveltime": 0, "holidayTraveltime": 0}, {"Id": "4762", "pgp": 0, "GoBack": 2, "SID": 3269, "NameZh": "\u5e97\u4ed4\u9802\u8def\u53e3", "RouteId": 8514, "SeqNo": 5, "Terminal": 0, "DistrictId": 1, "Latitude": 22.68433, "Longitude": 120.28941, "IVRNo": 4726, "EXTVoiceNo": 4762, "traveltime": 0, "holidayTraveltime": 0}, {"Id": "4761", "pgp": 0, "GoBack": 2, "SID": 3282, "NameZh": "\u5de6\u71df\u5927\u8def", "RouteId": 8514, "SeqNo": 6, "Terminal": 0, "DistrictId": 1, "Latitude": 22.68636, "Longitude": 120.29106, "IVRNo": 4727, "EXTVoiceNo": 4761, "traveltime": 0, "holidayTraveltime": 0}, {"Id": "4760", "pgp": 0, "GoBack": 2, "SID": 3294, "NameZh": "\u5de6\u71df\u5e02\u5834", "RouteId": 8514, "SeqNo": 7, "Terminal": 0, "DistrictId": 1, "Latitude": 22.68775, "Longitude": 120.29356, "IVRNo": 4728, "EXTVoiceNo": 4760, "traveltime": 0, "holidayTraveltime": 0}, {"Id": "0614", "pgp": 0, "GoBack": 2, "SID": 5895, "NameZh": "\u8c50\u7a40\u5bae(\u9032\u5b78\u8def\u53e3)", "RouteId": 8514, "SeqNo": 8, "Terminal": 0, "DistrictId": 1, "Latitude": 22.690508, "Longitude": 120.296372, "IVRNo": 9001, "EXTVoiceNo": 20614, "traveltime": 0, "holidayTraveltime": 0}, {"Id": "4787", "pgp": 0, "GoBack": 2, "SID": 3506, "NameZh": "\u83dc\u516c\u8def\u53e3(\u5de6\u71df\u5927\u8def)", "RouteId": 8514, "SeqNo": 9, "Terminal": 0, "DistrictId": 1, "Latitude": 22.691828, "Longitude": 120.298144, "IVRNo": 4786, "EXTVoiceNo": 4787, "traveltime": 0, "holidayTraveltime": 0}, {"Id": "7516", "pgp": 0, "GoBack": 2, "SID": 5144, "NameZh": "\u6d77\u529f\u6771\u8def", "RouteId": 8514, "SeqNo": 10, "Terminal": 0, "DistrictId": 1, "Latitude": 22.6935, "Longitude": 120.29983, "IVRNo": 7516, "EXTVoiceNo": 7516, "traveltime": 0, "holidayTraveltime": 0}, {"Id": "8214", "pgp": 0, "GoBack": 2, "SID": 5483, "NameZh": "\u54c8\u56c9\u5e02\u5834(\u5b54\u5edf)", "RouteId": 8514, "SeqNo": 11, "Terminal": 0, "DistrictId": 1, "Latitude": 22.69115, "Longitude": 120.30089, "IVRNo": 8217, "EXTVoiceNo": 8214, "traveltime": 0, "holidayTraveltime": 0}, {"Id": "8215", "pgp": 0, "GoBack": 2, "SID": 5484, "NameZh": "\u7fe0\u660e\u8def", "RouteId": 8514, "SeqNo": 12, "Terminal": 0, "DistrictId": 1, "Latitude": 22.68928, "Longitude": 120.30164, "IVRNo": 8215, "EXTVoiceNo": 8215, "traveltime": 0, "holidayTraveltime": 0}, {"Id": "8767", "pgp": 0, "GoBack": 2, "SID": 5723, "NameZh": "\u83dc\u516c\u4e00\u8def\u53e3", "RouteId": 8514, "SeqNo": 13, "Terminal": 0, "DistrictId": 1, "Latitude": 22.687202, "Longitude": 120.304628, "IVRNo": 8767, "EXTVoiceNo": 8767, "traveltime": 0, "holidayTraveltime": 0}, {"Id": "0287", "pgp": 0, "GoBack": 2, "SID": 5174, "NameZh": "\u53f0\u9435\u65b0\u5de6\u71df\u7ad9", "RouteId": 8514, "SeqNo": 14, "Terminal": 1, "DistrictId": 1, "Latitude": 22.68855, "Longitude": 120.30763, "IVRNo": 7517, "EXTVoiceNo": 20287, "traveltime": 0, "holidayTraveltime": 0}]}