{"en": [{"Id": "2001", "pgp": 0, "GoBack": 1, "SID": 1085, "NameZh": "Siaogang Station", "RouteId": 211, "SeqNo": 1, "Terminal": 0, "DistrictId": 1, "Latitude": 22.56537, "Longitude": 120.3412, "IVRNo": 2000, "EXTVoiceNo": 2001, "traveltime": 0, "holidayTraveltime": 0}, {"Id": "2002", "pgp": 0, "GoBack": 1, "SID": 1086, "NameZh": "Siaogang Precinct", "RouteId": 211, "SeqNo": 2, "Terminal": 0, "DistrictId": 1, "Latitude": 22.565553, "Longitude": 120.343961, "IVRNo": 2002, "EXTVoiceNo": 2002, "traveltime": 0, "holidayTraveltime": 0}, {"Id": "2765", "pgp": 0, "GoBack": 1, "SID": 1170, "NameZh": "The Open University", "RouteId": 211, "SeqNo": 3, "Terminal": 0, "DistrictId": 1, "Latitude": 22.566603, "Longitude": 120.345292, "IVRNo": 2073, "EXTVoiceNo": 2765, "traveltime": 0, "holidayTraveltime": 0}, {"Id": "2038", "pgp": 0, "GoBack": 1, "SID": 1076, "NameZh": "Kaohsiung Park (MRT Kaohsiung International Airport Station)", "RouteId": 211, "SeqNo": 4, "Terminal": 0, "DistrictId": 1, "Latitude": 22.5688, "Longitude": 120.3437, "IVRNo": 2038, "EXTVoiceNo": 12038, "traveltime": 0, "holidayTraveltime": 0}, {"Id": "2018", "pgp": 0, "GoBack": 1, "SID": 1171, "NameZh": "Hongping Rd.", "RouteId": 211, "SeqNo": 5, "Terminal": 0, "DistrictId": 1, "Latitude": 22.569806, "Longitude": 120.35128, "IVRNo": 2018, "EXTVoiceNo": 2018, "traveltime": 0, "holidayTraveltime": 0}, {"Id": "2017", "pgp": 0, "GoBack": 1, "SID": 1174, "NameZh": "Jinfu Rd. Intersection", "RouteId": 211, "SeqNo": 6, "Terminal": 0, "DistrictId": 1, "Latitude": 22.569831, "Longitude": 120.355161, "IVRNo": 2017, "EXTVoiceNo": 2017, "traveltime": 0, "holidayTraveltime": 0}, {"Id": "2008", "pgp": 0, "GoBack": 1, "SID": 1175, "NameZh": "Changbian 3rd Rd. Intersection (Hongping Rd.)", "RouteId": 211, "SeqNo": 7, "Terminal": 0, "DistrictId": 1, "Latitude": 22.569767, "Longitude": 120.357415, "IVRNo": 2008, "EXTVoiceNo": 2008, "traveltime": 0, "holidayTraveltime": 0}, {"Id": "2015", "pgp": 0, "GoBack": 1, "SID": 1178, "NameZh": "Shanming Rd. Intersection (Hongping Rd.)", "RouteId": 211, "SeqNo": 8, "Terminal": 0, "DistrictId": 1, "Latitude": 22.569817, "Longitude": 120.35965, "IVRNo": 2015, "EXTVoiceNo": 2015, "traveltime": 0, "holidayTraveltime": 0}, {"Id": "2410", "pgp": 0, "GoBack": 1, "SID": 1508, "NameZh": "Shanming Rd. (Hongping Rd. Intersection)", "RouteId": 211, "SeqNo": 9, "Terminal": 0, "DistrictId": 1, "Latitude": 22.569802, "Longitude": 120.361791, "IVRNo": 2410, "EXTVoiceNo": 2410, "traveltime": 0, "holidayTraveltime": 0}, {"Id": "2409", "pgp": 0, "GoBack": 1, "SID": 1700, "NameZh": "Kaohsiung Municipal Siaogang Hospital (Hanmin Rd. Intersection)", "RouteId": 211, "SeqNo": 10, "Terminal": 0, "DistrictId": 1, "Latitude": 22.568366, "Longitude": 120.362424, "IVRNo": 2430, "EXTVoiceNo": 2409, "traveltime": 0, "holidayTraveltime": 0}, {"Id": "2309", "pgp": 0, "GoBack": 1, "SID": 1509, "NameZh": "Sinfong St. Intersection", "RouteId": 211, "SeqNo": 11, "Terminal": 0, "DistrictId": 1, "Latitude": 22.567141, "Longitude": 120.360683, "IVRNo": 2309, "EXTVoiceNo": 2309, "traveltime": 0, "holidayTraveltime": 0}, {"Id": "2307", "pgp": 0, "GoBack": 1, "SID": 1522, "NameZh": "Siaogang Senior High School", "RouteId": 211, "SeqNo": 12, "Terminal": 0, "DistrictId": 1, "Latitude": 22.566883, "Longitude": 120.35755, "IVRNo": 2307, "EXTVoiceNo": 2307, "traveltime": 0, "holidayTraveltime": 0}, {"Id": "2306", "pgp": 0, "GoBack": 1, "SID": 1527, "NameZh": "Kaohsiung Municipal Chungshang Junior High School", "RouteId": 211, "SeqNo": 13, "Terminal": 0, "DistrictId": 1, "Latitude": 22.566964, "Longitude": 120.355221, "IVRNo": 2306, "EXTVoiceNo": 2306, "traveltime": 0, "holidayTraveltime": 0}, {"Id": "6028", "pgp": 0, "GoBack": 1, "SID": 4482, "NameZh": "MRT Siaogang Station", "RouteId": 211, "SeqNo": 14, "Terminal": 0, "DistrictId": 1, "Latitude": 22.564926, "Longitude": 120.353538, "IVRNo": 2040, "EXTVoiceNo": 6028, "traveltime": 0, "holidayTraveltime": 0}, {"Id": "6052", "pgp": 0, "GoBack": 1, "SID": 4496, "NameZh": "Licyun Rd. Intersection", "RouteId": 211, "SeqNo": 15, "Terminal": 0, "DistrictId": 1, "Latitude": 22.563016, "Longitude": 120.355181, "IVRNo": 6052, "EXTVoiceNo": 6052, "traveltime": 0, "holidayTraveltime": 0}, {"Id": "6030", "pgp": 0, "GoBack": 1, "SID": 4488, "NameZh": "Yanhai 1st Rd.", "RouteId": 211, "SeqNo": 16, "Terminal": 0, "DistrictId": 1, "Latitude": 22.562101, "Longitude": 120.355949, "IVRNo": 6030, "EXTVoiceNo": 6030, "traveltime": 0, "holidayTraveltime": 0}, {"Id": "6035", "pgp": 0, "GoBack": 1, "SID": 4490, "NameZh": "Tang Eng Iron Works Co., Ltd.", "RouteId": 211, "SeqNo": 17, "Terminal": 0, "DistrictId": 1, "Latitude": 22.544921, "Longitude": 120.369228, "IVRNo": 6035, "EXTVoiceNo": 6035, "traveltime": 0, "holidayTraveltime": 0}, {"Id": "2534", "pgp": 0, "GoBack": 1, "SID": 1757, "NameZh": "Fong Ming Elementary School", "RouteId": 211, "SeqNo": 18, "Terminal": 0, "DistrictId": 1, "Latitude": 22.515136, "Longitude": 120.357783, "IVRNo": 2534, "EXTVoiceNo": 2534, "traveltime": 0, "holidayTraveltime": 0}, {"Id": "2535", "pgp": 0, "GoBack": 1, "SID": 1759, "NameZh": "Fongming Village", "RouteId": 211, "SeqNo": 19, "Terminal": 0, "DistrictId": 1, "Latitude": 22.513716, "Longitude": 120.359233, "IVRNo": 2535, "EXTVoiceNo": 2535, "traveltime": 0, "holidayTraveltime": 0}, {"Id": "2536", "pgp": 0, "GoBack": 1, "SID": 8777, "NameZh": "Fongbitou (Fongming Rd.)", "RouteId": 211, "SeqNo": 20, "Terminal": 0, "DistrictId": 1, "Latitude": 22.511574, "Longitude": 120.361493, "IVRNo": 2377, "EXTVoiceNo": 2536, "traveltime": 0, "holidayTraveltime": 0}, {"Id": "2358", "pgp": 0, "GoBack": 1, "SID": 1558, "NameZh": "Daan Forest", "RouteId": 211, "SeqNo": 21, "Terminal": 0, "DistrictId": 1, "Latitude": 22.508752, "Longitude": 120.366323, "IVRNo": 2358, "EXTVoiceNo": 2358, "traveltime": 0, "holidayTraveltime": 0}, {"Id": "2492", "pgp": 0, "GoBack": 1, "SID": 1708, "NameZh": "Haician Rd. Intersection", "RouteId": 211, "SeqNo": 22, "Terminal": 0, "DistrictId": 1, "Latitude": 22.507485, "Longitude": 120.368163, "IVRNo": 2492, "EXTVoiceNo": 2492, "traveltime": 0, "holidayTraveltime": 0}, {"Id": "2359", "pgp": 0, "GoBack": 1, "SID": 1559, "NameZh": "Jhongmen 7-11 Station", "RouteId": 211, "SeqNo": 23, "Terminal": 0, "DistrictId": 1, "Latitude": 22.504951, "Longitude": 120.371831, "IVRNo": 2359, "EXTVoiceNo": 2359, "traveltime": 0, "holidayTraveltime": 0}, {"Id": "2360", "pgp": 0, "GoBack": 1, "SID": 1565, "NameZh": "Gangpu Police Station", "RouteId": 211, "SeqNo": 24, "Terminal": 0, "DistrictId": 1, "Latitude": 22.5041, "Longitude": 120.37648, "IVRNo": 2360, "EXTVoiceNo": 2360, "traveltime": 0, "holidayTraveltime": 0}, {"Id": "2361", "pgp": 0, "GoBack": 1, "SID": 1566, "NameZh": "Dingcuo Rd. Intersection", "RouteId": 211, "SeqNo": 25, "Terminal": 0, "DistrictId": 1, "Latitude": 22.50351, "Longitude": 120.37981, "IVRNo": 2361, "EXTVoiceNo": 2361, "traveltime": 0, "holidayTraveltime": 0}, {"Id": "2490", "pgp": 0, "GoBack": 1, "SID": 1706, "NameZh": "Guoguo Lane Intersection", "RouteId": 211, "SeqNo": 26, "Terminal": 0, "DistrictId": 1, "Latitude": 22.50126, "Longitude": 120.38418, "IVRNo": 2490, "EXTVoiceNo": 2490, "traveltime": 0, "holidayTraveltime": 0}, {"Id": "2362", "pgp": 0, "GoBack": 1, "SID": 1567, "NameZh": "Tiancuo Rd. Intersection", "RouteId": 211, "SeqNo": 27, "Terminal": 0, "DistrictId": 1, "Latitude": 22.50005, "Longitude": 120.3871, "IVRNo": 2362, "EXTVoiceNo": 2362, "traveltime": 0, "holidayTraveltime": 0}, {"Id": "2363", "pgp": 0, "GoBack": 1, "SID": 1568, "NameZh": "Shin Kong Life Insurance", "RouteId": 211, "SeqNo": 28, "Terminal": 0, "DistrictId": 1, "Latitude": 22.50006, "Longitude": 120.39275, "IVRNo": 2363, "EXTVoiceNo": 2363, "traveltime": 0, "holidayTraveltime": 0}, {"Id": "6080", "pgp": 0, "GoBack": 1, "SID": 5828, "NameZh": "Sisi Rd.", "RouteId": 211, "SeqNo": 29, "Terminal": 0, "DistrictId": 1, "Latitude": 22.490245, "Longitude": 120.393091, "IVRNo": 8866, "EXTVoiceNo": 6080, "traveltime": 0, "holidayTraveltime": 0}, {"Id": "6081", "pgp": 0, "GoBack": 1, "SID": 11277, "NameZh": "Jhongyun Elementary School (Side Door)", "RouteId": 211, "SeqNo": 30, "Terminal": 0, "DistrictId": 1, "Latitude": 22.48818, "Longitude": 120.396018, "IVRNo": 8868, "EXTVoiceNo": 6081, "traveltime": 0, "holidayTraveltime": 0}, {"Id": "6082", "pgp": 0, "GoBack": 1, "SID": 11278, "NameZh": "Fongyun Station", "RouteId": 211, "SeqNo": 31, "Terminal": 0, "DistrictId": 1, "Latitude": 22.487014, "Longitude": 120.397519, "IVRNo": 8870, "EXTVoiceNo": 6082, "traveltime": 0, "holidayTraveltime": 0}, {"Id": "8872", "pgp": 0, "GoBack": 1, "SID": 5833, "NameZh": "Fish Port Park", "RouteId": 211, "SeqNo": 32, "Terminal": 0, "DistrictId": 1, "Latitude": 22.485707, "Longitude": 120.400029, "IVRNo": 8872, "EXTVoiceNo": 8872, "traveltime": 0, "holidayTraveltime": 0}, {"Id": "6084", "pgp": 0, "GoBack": 1, "SID": 5835, "NameZh": "Shanwei", "RouteId": 211, "SeqNo": 33, "Terminal": 0, "DistrictId": 1, "Latitude": 22.481589, "Longitude": 120.409576, "IVRNo": 8874, "EXTVoiceNo": 6084, "traveltime": 0, "holidayTraveltime": 0}, {"Id": "6085", "pgp": 0, "GoBack": 1, "SID": 5837, "NameZh": "Jhongyun", "RouteId": 211, "SeqNo": 34, "Terminal": 0, "DistrictId": 1, "Latitude": 22.490108, "Longitude": 120.397399, "IVRNo": 8876, "EXTVoiceNo": 6085, "traveltime": 0, "holidayTraveltime": 0}, {"Id": "2365", "pgp": 0, "GoBack": 1, "SID": 1570, "NameZh": "Cathay Life Insurance Co., Ltd.", "RouteId": 211, "SeqNo": 35, "Terminal": 0, "DistrictId": 1, "Latitude": 22.501521, "Longitude": 120.397878, "IVRNo": 2365, "EXTVoiceNo": 2365, "traveltime": 0, "holidayTraveltime": 0}, {"Id": "2487", "pgp": 0, "GoBack": 1, "SID": 1701, "NameZh": "Fonglin Rd. Sec. 1", "RouteId": 211, "SeqNo": 36, "Terminal": 0, "DistrictId": 1, "Latitude": 22.506882, "Longitude": 120.396605, "IVRNo": 2487, "EXTVoiceNo": 2487, "traveltime": 0, "holidayTraveltime": 0}, {"Id": "2488", "pgp": 0, "GoBack": 1, "SID": 1702, "NameZh": "Linyuan Senior High School", "RouteId": 211, "SeqNo": 37, "Terminal": 1, "DistrictId": 1, "Latitude": 22.51268, "Longitude": 120.39488, "IVRNo": 359, "EXTVoiceNo": 2488, "traveltime": 0, "holidayTraveltime": 0}, {"Id": "9386", "pgp": 0, "GoBack": 2, "SID": 15912, "NameZh": "Linyuan District Office", "RouteId": 211, "SeqNo": 1, "Terminal": 0, "DistrictId": 1, "Latitude": 22.50769, "Longitude": 120.39497, "IVRNo": 2366, "EXTVoiceNo": 9386, "traveltime": 0, "holidayTraveltime": 0}, {"Id": "2487", "pgp": 0, "GoBack": 2, "SID": 1703, "NameZh": "Fonglin Rd. Sec. 1", "RouteId": 211, "SeqNo": 2, "Terminal": 0, "DistrictId": 1, "Latitude": 22.5061, "Longitude": 120.39668, "IVRNo": 2487, "EXTVoiceNo": 2487, "traveltime": 0, "holidayTraveltime": 0}, {"Id": "2365", "pgp": 0, "GoBack": 2, "SID": 1572, "NameZh": "Cathay Life Insurance Co., Ltd.", "RouteId": 211, "SeqNo": 3, "Terminal": 0, "DistrictId": 1, "Latitude": 22.50156, "Longitude": 120.39771, "IVRNo": 2365, "EXTVoiceNo": 2365, "traveltime": 0, "holidayTraveltime": 0}, {"Id": "0802", "pgp": 0, "GoBack": 2, "SID": 13344, "NameZh": "No.10 Park", "RouteId": 211, "SeqNo": 4, "Terminal": 0, "DistrictId": 1, "Latitude": 22.500418, "Longitude": 120.394989, "IVRNo": 802, "EXTVoiceNo": 802, "traveltime": 0, "holidayTraveltime": 0}, {"Id": "2363", "pgp": 0, "GoBack": 2, "SID": 1573, "NameZh": "Shin Kong Life Insurance", "RouteId": 211, "SeqNo": 5, "Terminal": 0, "DistrictId": 1, "Latitude": 22.50016, "Longitude": 120.39288, "IVRNo": 2363, "EXTVoiceNo": 2363, "traveltime": 0, "holidayTraveltime": 0}, {"Id": "2362", "pgp": 0, "GoBack": 2, "SID": 1576, "NameZh": "Tiancuo Rd. Intersection", "RouteId": 211, "SeqNo": 6, "Terminal": 0, "DistrictId": 1, "Latitude": 22.50015, "Longitude": 120.38708, "IVRNo": 2362, "EXTVoiceNo": 2362, "traveltime": 0, "holidayTraveltime": 0}, {"Id": "2490", "pgp": 0, "GoBack": 2, "SID": 1707, "NameZh": "Guoguo Lane Intersection", "RouteId": 211, "SeqNo": 7, "Terminal": 0, "DistrictId": 1, "Latitude": 22.500913, "Longitude": 120.385136, "IVRNo": 2490, "EXTVoiceNo": 2490, "traveltime": 0, "holidayTraveltime": 0}, {"Id": "2361", "pgp": 0, "GoBack": 2, "SID": 1577, "NameZh": "Dingcuo Rd. Intersection", "RouteId": 211, "SeqNo": 8, "Terminal": 0, "DistrictId": 1, "Latitude": 22.503589, "Longitude": 120.379801, "IVRNo": 2361, "EXTVoiceNo": 2361, "traveltime": 0, "holidayTraveltime": 0}, {"Id": "2360", "pgp": 0, "GoBack": 2, "SID": 1578, "NameZh": "Gangpu Police Station", "RouteId": 211, "SeqNo": 9, "Terminal": 0, "DistrictId": 1, "Latitude": 22.504196, "Longitude": 120.376493, "IVRNo": 2360, "EXTVoiceNo": 2360, "traveltime": 0, "holidayTraveltime": 0}, {"Id": "2359", "pgp": 0, "GoBack": 2, "SID": 1579, "NameZh": "Jhongmen 7-11 Station", "RouteId": 211, "SeqNo": 10, "Terminal": 0, "DistrictId": 1, "Latitude": 22.505023, "Longitude": 120.372022, "IVRNo": 2359, "EXTVoiceNo": 2359, "traveltime": 0, "holidayTraveltime": 0}, {"Id": "2492", "pgp": 0, "GoBack": 2, "SID": 1709, "NameZh": "Haician Rd. Intersection", "RouteId": 211, "SeqNo": 11, "Terminal": 0, "DistrictId": 1, "Latitude": 22.506745, "Longitude": 120.369258, "IVRNo": 2492, "EXTVoiceNo": 2492, "traveltime": 0, "holidayTraveltime": 0}, {"Id": "2358", "pgp": 0, "GoBack": 2, "SID": 1580, "NameZh": "Daan Forest", "RouteId": 211, "SeqNo": 12, "Terminal": 0, "DistrictId": 1, "Latitude": 22.508879, "Longitude": 120.36626, "IVRNo": 2358, "EXTVoiceNo": 2358, "traveltime": 0, "holidayTraveltime": 0}, {"Id": "2536", "pgp": 0, "GoBack": 2, "SID": 8777, "NameZh": "Fongbitou (Fongming Rd.)", "RouteId": 211, "SeqNo": 13, "Terminal": 0, "DistrictId": 1, "Latitude": 22.511574, "Longitude": 120.361493, "IVRNo": 2377, "EXTVoiceNo": 2536, "traveltime": 0, "holidayTraveltime": 0}, {"Id": "2535", "pgp": 0, "GoBack": 2, "SID": 1765, "NameZh": "Fongming Village", "RouteId": 211, "SeqNo": 14, "Terminal": 0, "DistrictId": 1, "Latitude": 22.513722, "Longitude": 120.359342, "IVRNo": 2535, "EXTVoiceNo": 2535, "traveltime": 0, "holidayTraveltime": 0}, {"Id": "2534", "pgp": 0, "GoBack": 2, "SID": 1773, "NameZh": "Fong Ming Elementary School", "RouteId": 211, "SeqNo": 15, "Terminal": 0, "DistrictId": 1, "Latitude": 22.515283, "Longitude": 120.357783, "IVRNo": 2534, "EXTVoiceNo": 2534, "traveltime": 0, "holidayTraveltime": 0}, {"Id": "6035", "pgp": 0, "GoBack": 2, "SID": 4498, "NameZh": "Tang Eng Iron Works Co., Ltd.", "RouteId": 211, "SeqNo": 16, "Terminal": 0, "DistrictId": 1, "Latitude": 22.544661, "Longitude": 120.369593, "IVRNo": 6035, "EXTVoiceNo": 6035, "traveltime": 0, "holidayTraveltime": 0}, {"Id": "6030", "pgp": 0, "GoBack": 2, "SID": 4489, "NameZh": "Yanhai 1st Rd.", "RouteId": 211, "SeqNo": 17, "Terminal": 0, "DistrictId": 1, "Latitude": 22.561722, "Longitude": 120.35661, "IVRNo": 6030, "EXTVoiceNo": 6030, "traveltime": 0, "holidayTraveltime": 0}, {"Id": "6052", "pgp": 0, "GoBack": 2, "SID": 4497, "NameZh": "Licyun Rd. Intersection", "RouteId": 211, "SeqNo": 18, "Terminal": 0, "DistrictId": 1, "Latitude": 22.562975, "Longitude": 120.355539, "IVRNo": 6052, "EXTVoiceNo": 6052, "traveltime": 0, "holidayTraveltime": 0}, {"Id": "6028", "pgp": 0, "GoBack": 2, "SID": 4487, "NameZh": "MRT Siaogang Station", "RouteId": 211, "SeqNo": 19, "Terminal": 0, "DistrictId": 1, "Latitude": 22.564664, "Longitude": 120.354048, "IVRNo": 2040, "EXTVoiceNo": 6028, "traveltime": 0, "holidayTraveltime": 0}, {"Id": "2306", "pgp": 0, "GoBack": 2, "SID": 1438, "NameZh": "Kaohsiung Municipal Chungshang Junior High School", "RouteId": 211, "SeqNo": 20, "Terminal": 0, "DistrictId": 1, "Latitude": 22.566764, "Longitude": 120.355221, "IVRNo": 2306, "EXTVoiceNo": 2306, "traveltime": 0, "holidayTraveltime": 0}, {"Id": "2307", "pgp": 0, "GoBack": 2, "SID": 1441, "NameZh": "Siaogang Senior High School", "RouteId": 211, "SeqNo": 21, "Terminal": 0, "DistrictId": 1, "Latitude": 22.566683, "Longitude": 120.35755, "IVRNo": 2307, "EXTVoiceNo": 2307, "traveltime": 0, "holidayTraveltime": 0}, {"Id": "2309", "pgp": 0, "GoBack": 2, "SID": 1455, "NameZh": "Sinfong St. Intersection", "RouteId": 211, "SeqNo": 22, "Terminal": 0, "DistrictId": 1, "Latitude": 22.566941, "Longitude": 120.360683, "IVRNo": 2309, "EXTVoiceNo": 2309, "traveltime": 0, "holidayTraveltime": 0}, {"Id": "2409", "pgp": 0, "GoBack": 2, "SID": 1613, "NameZh": "Kaohsiung Municipal Siaogang Hospital (Hanmin Rd. Intersection)", "RouteId": 211, "SeqNo": 23, "Terminal": 0, "DistrictId": 1, "Latitude": 22.568113, "Longitude": 120.362493, "IVRNo": 2430, "EXTVoiceNo": 2409, "traveltime": 0, "holidayTraveltime": 0}, {"Id": "2410", "pgp": 0, "GoBack": 2, "SID": 1461, "NameZh": "Shanming Rd. (Hongping Rd. Intersection)", "RouteId": 211, "SeqNo": 24, "Terminal": 0, "DistrictId": 1, "Latitude": 22.56952, "Longitude": 120.361946, "IVRNo": 2410, "EXTVoiceNo": 2410, "traveltime": 0, "holidayTraveltime": 0}, {"Id": "2015", "pgp": 0, "GoBack": 2, "SID": 997, "NameZh": "Shanming Rd. Intersection (Hongping Rd.)", "RouteId": 211, "SeqNo": 25, "Terminal": 0, "DistrictId": 1, "Latitude": 22.569967, "Longitude": 120.360094, "IVRNo": 2015, "EXTVoiceNo": 2015, "traveltime": 0, "holidayTraveltime": 0}, {"Id": "2008", "pgp": 0, "GoBack": 2, "SID": 998, "NameZh": "Changbian 3rd Rd. Intersection (Hongping Rd.)", "RouteId": 211, "SeqNo": 26, "Terminal": 0, "DistrictId": 1, "Latitude": 22.57, "Longitude": 120.357761, "IVRNo": 2008, "EXTVoiceNo": 2008, "traveltime": 0, "holidayTraveltime": 0}, {"Id": "2017", "pgp": 0, "GoBack": 2, "SID": 1001, "NameZh": "Jinfu Rd. Intersection", "RouteId": 211, "SeqNo": 27, "Terminal": 0, "DistrictId": 1, "Latitude": 22.569978, "Longitude": 120.355192, "IVRNo": 2017, "EXTVoiceNo": 2017, "traveltime": 0, "holidayTraveltime": 0}, {"Id": "2018", "pgp": 0, "GoBack": 2, "SID": 1002, "NameZh": "Hongping Rd.", "RouteId": 211, "SeqNo": 28, "Terminal": 0, "DistrictId": 1, "Latitude": 22.569839, "Longitude": 120.351577, "IVRNo": 2018, "EXTVoiceNo": 2018, "traveltime": 0, "holidayTraveltime": 0}, {"Id": "2038", "pgp": 0, "GoBack": 2, "SID": 1073, "NameZh": "Kaohsiung Park (MRT Kaohsiung International Airport Station)", "RouteId": 211, "SeqNo": 29, "Terminal": 0, "DistrictId": 1, "Latitude": 22.568766, "Longitude": 120.343465, "IVRNo": 2038, "EXTVoiceNo": 12038, "traveltime": 0, "holidayTraveltime": 0}, {"Id": "2765", "pgp": 0, "GoBack": 2, "SID": 2008, "NameZh": "The Open University", "RouteId": 211, "SeqNo": 30, "Terminal": 0, "DistrictId": 1, "Latitude": 22.567073, "Longitude": 120.344656, "IVRNo": 2073, "EXTVoiceNo": 2765, "traveltime": 0, "holidayTraveltime": 0}, {"Id": "2002", "pgp": 0, "GoBack": 2, "SID": 1089, "NameZh": "Siaogang Precinct", "RouteId": 211, "SeqNo": 31, "Terminal": 0, "DistrictId": 1, "Latitude": 22.565731, "Longitude": 120.344228, "IVRNo": 2002, "EXTVoiceNo": 2002, "traveltime": 0, "holidayTraveltime": 0}, {"Id": "2001", "pgp": 0, "GoBack": 2, "SID": 1081, "NameZh": "Siaogang Station", "RouteId": 211, "SeqNo": 32, "Terminal": 1, "DistrictId": 1, "Latitude": 22.565309, "Longitude": 120.340961, "IVRNo": 2000, "EXTVoiceNo": 2001, "traveltime": 0, "holidayTraveltime": 0}], "zh": [{"Id": "2001", "pgp": 0, "GoBack": 1, "SID": 1085, "NameZh": "\u5c0f\u6e2f\u7ad9", "RouteId": 211, "SeqNo": 1, "Terminal": 0, "DistrictId": 1, "Latitude": 22.56537, "Longitude": 120.3412, "IVRNo": 2000, "EXTVoiceNo": 2001, "traveltime": 0, "holidayTraveltime": 0}, {"Id": "2002", "pgp": 0, "GoBack": 1, "SID": 1086, "NameZh": "\u5c0f\u6e2f\u5206\u5c40", "RouteId": 211, "SeqNo": 2, "Terminal": 0, "DistrictId": 1, "Latitude": 22.565553, "Longitude": 120.343961, "IVRNo": 2002, "EXTVoiceNo": 2002, "traveltime": 0, "holidayTraveltime": 0}, {"Id": "2765", "pgp": 0, "GoBack": 1, "SID": 1170, "NameZh": "\u5e02\u7acb\u7a7a\u5927", "RouteId": 211, "SeqNo": 3, "Terminal": 0, "DistrictId": 1, "Latitude": 22.566603, "Longitude": 120.345292, "IVRNo": 2073, "EXTVoiceNo": 2765, "traveltime": 0, "holidayTraveltime": 0}, {"Id": "2038", "pgp": 0, "GoBack": 1, "SID": 1076, "NameZh": "\u9ad8\u96c4\u516c\u5712(\u6377\u904b\u9ad8\u96c4\u570b\u969b\u6a5f\u5834\u7ad9)", "RouteId": 211, "SeqNo": 4, "Terminal": 0, "DistrictId": 1, "Latitude": 22.5688, "Longitude": 120.3437, "IVRNo": 2038, "EXTVoiceNo": 12038, "traveltime": 0, "holidayTraveltime": 0}, {"Id": "2018", "pgp": 0, "GoBack": 1, "SID": 1171, "NameZh": "\u5b8f\u5e73\u8def", "RouteId": 211, "SeqNo": 5, "Terminal": 0, "DistrictId": 1, "Latitude": 22.569806, "Longitude": 120.35128, "IVRNo": 2018, "EXTVoiceNo": 2018, "traveltime": 0, "holidayTraveltime": 0}, {"Id": "2017", "pgp": 0, "GoBack": 1, "SID": 1174, "NameZh": "\u91d1\u5e9c\u8def\u53e3", "RouteId": 211, "SeqNo": 6, "Terminal": 0, "DistrictId": 1, "Latitude": 22.569831, "Longitude": 120.355161, "IVRNo": 2017, "EXTVoiceNo": 2017, "traveltime": 0, "holidayTraveltime": 0}, {"Id": "2008", "pgp": 0, "GoBack": 1, "SID": 1175, "NameZh": "\u5ee0\u908a\u4e09\u8def\u53e3(\u5b8f\u5e73\u8def)", "RouteId": 211, "SeqNo": 7, "Terminal": 0, "DistrictId": 1, "Latitude": 22.569767, "Longitude": 120.357415, "IVRNo": 2008, "EXTVoiceNo": 2008, "traveltime": 0, "holidayTraveltime": 0}, {"Id": "2015", "pgp": 0, "GoBack": 1, "SID": 1178, "NameZh": "\u5c71\u660e\u8def\u53e3(\u5b8f\u5e73\u8def)", "RouteId": 211, "SeqNo": 8, "Terminal": 0, "DistrictId": 1, "Latitude": 22.569817, "Longitude": 120.35965, "IVRNo": 2015, "EXTVoiceNo": 2015, "traveltime": 0, "holidayTraveltime": 0}, {"Id": "2410", "pgp": 0, "GoBack": 1, "SID": 1508, "NameZh": "\u5c71\u660e\u8def(\u5b8f\u5e73\u8def\u53e3)", "RouteId": 211, "SeqNo": 9, "Terminal": 0, "DistrictId": 1, "Latitude": 22.569802, "Longitude": 120.361791, "IVRNo": 2410, "EXTVoiceNo": 2410, "traveltime": 0, "holidayTraveltime": 0}, {"Id": "2409", "pgp": 0, "GoBack": 1, "SID": 1700, "NameZh": "\u5c0f\u6e2f\u91ab\u9662(\u6f22\u6c11\u8def\u53e3)", "RouteId": 211, "SeqNo": 10, "Terminal": 0, "DistrictId": 1, "Latitude": 22.568366, "Longitude": 120.362424, "IVRNo": 2430, "EXTVoiceNo": 2409, "traveltime": 0, "holidayTraveltime": 0}, {"Id": "2309", "pgp": 0, "GoBack": 1, "SID": 1509, "NameZh": "\u65b0\u8c50\u8857\u53e3", "RouteId": 211, "SeqNo": 11, "Terminal": 0, "DistrictId": 1, "Latitude": 22.567141, "Longitude": 120.360683, "IVRNo": 2309, "EXTVoiceNo": 2309, "traveltime": 0, "holidayTraveltime": 0}, {"Id": "2307", "pgp": 0, "GoBack": 1, "SID": 1522, "NameZh": "\u5c0f\u6e2f\u9ad8\u4e2d", "RouteId": 211, "SeqNo": 12, "Terminal": 0, "DistrictId": 1, "Latitude": 22.566883, "Longitude": 120.35755, "IVRNo": 2307, "EXTVoiceNo": 2307, "traveltime": 0, "holidayTraveltime": 0}, {"Id": "2306", "pgp": 0, "GoBack": 1, "SID": 1527, "NameZh": "\u4e2d\u5c71\u570b\u4e2d", "RouteId": 211, "SeqNo": 13, "Terminal": 0, "DistrictId": 1, "Latitude": 22.566964, "Longitude": 120.355221, "IVRNo": 2306, "EXTVoiceNo": 2306, "traveltime": 0, "holidayTraveltime": 0}, {"Id": "6028", "pgp": 0, "GoBack": 1, "SID": 4482, "NameZh": "\u6377\u904b\u5c0f\u6e2f\u7ad9", "RouteId": 211, "SeqNo": 14, "Terminal": 0, "DistrictId": 1, "Latitude": 22.564926, "Longitude": 120.353538, "IVRNo": 2040, "EXTVoiceNo": 6028, "traveltime": 0, "holidayTraveltime": 0}, {"Id": "6052", "pgp": 0, "GoBack": 1, "SID": 4496, "NameZh": "\u7acb\u7fa4\u8def\u53e3", "RouteId": 211, "SeqNo": 15, "Terminal": 0, "DistrictId": 1, "Latitude": 22.563016, "Longitude": 120.355181, "IVRNo": 6052, "EXTVoiceNo": 6052, "traveltime": 0, "holidayTraveltime": 0}, {"Id": "6030", "pgp": 0, "GoBack": 1, "SID": 4488, "NameZh": "\u6cbf\u6d77\u4e00\u8def", "RouteId": 211, "SeqNo": 16, "Terminal": 0, "DistrictId": 1, "Latitude": 22.562101, "Longitude": 120.355949, "IVRNo": 6030, "EXTVoiceNo": 6030, "traveltime": 0, "holidayTraveltime": 0}, {"Id": "6035", "pgp": 0, "GoBack": 1, "SID": 4490, "NameZh": "\u5510\u69ae\u516c\u53f8", "RouteId": 211, "SeqNo": 17, "Terminal": 0, "DistrictId": 1, "Latitude": 22.544921, "Longitude": 120.369228, "IVRNo": 6035, "EXTVoiceNo": 6035, "traveltime": 0, "holidayTraveltime": 0}, {"Id": "2534", "pgp": 0, "GoBack": 1, "SID": 1757, "NameZh": "\u9cf3\u9cf4\u570b\u5c0f", "RouteId": 211, "SeqNo": 18, "Terminal": 0, "DistrictId": 1, "Latitude": 22.515136, "Longitude": 120.357783, "IVRNo": 2534, "EXTVoiceNo": 2534, "traveltime": 0, "holidayTraveltime": 0}, {"Id": "2535", "pgp": 0, "GoBack": 1, "SID": 1759, "NameZh": "\u9cf3\u9cf4\u91cc", "RouteId": 211, "SeqNo": 19, "Terminal": 0, "DistrictId": 1, "Latitude": 22.513716, "Longitude": 120.359233, "IVRNo": 2535, "EXTVoiceNo": 2535, "traveltime": 0, "holidayTraveltime": 0}, {"Id": "2536", "pgp": 0, "GoBack": 1, "SID": 8777, "NameZh": "\u9cf3\u9f3b\u982d(\u9cf3\u9cf4\u8def)", "RouteId": 211, "SeqNo": 20, "Terminal": 0, "DistrictId": 1, "Latitude": 22.511574, "Longitude": 120.361493, "IVRNo": 2377, "EXTVoiceNo": 2536, "traveltime": 0, "holidayTraveltime": 0}, {"Id": "2358", "pgp": 0, "GoBack": 1, "SID": 1558, "NameZh": "\u5927\u5b89\u68ee\u6797", "RouteId": 211, "SeqNo": 21, "Terminal": 0, "DistrictId": 1, "Latitude": 22.508752, "Longitude": 120.366323, "IVRNo": 2358, "EXTVoiceNo": 2358, "traveltime": 0, "holidayTraveltime": 0}, {"Id": "2492", "pgp": 0, "GoBack": 1, "SID": 1708, "NameZh": "\u6d77\u5898\u8def\u53e3", "RouteId": 211, "SeqNo": 22, "Terminal": 0, "DistrictId": 1, "Latitude": 22.507485, "Longitude": 120.368163, "IVRNo": 2492, "EXTVoiceNo": 2492, "traveltime": 0, "holidayTraveltime": 0}, {"Id": "2359", "pgp": 0, "GoBack": 1, "SID": 1559, "NameZh": "\u4e2d\u95807-11\u7ad9", "RouteId": 211, "SeqNo": 23, "Terminal": 0, "DistrictId": 1, "Latitude": 22.504951, "Longitude": 120.371831, "IVRNo": 2359, "EXTVoiceNo": 2359, "traveltime": 0, "holidayTraveltime": 0}, {"Id": "2360", "pgp": 0, "GoBack": 1, "SID": 1565, "NameZh": "\u6e2f\u57d4\u6d3e\u51fa\u6240", "RouteId": 211, "SeqNo": 24, "Terminal": 0, "DistrictId": 1, "Latitude": 22.5041, "Longitude": 120.37648, "IVRNo": 2360, "EXTVoiceNo": 2360, "traveltime": 0, "holidayTraveltime": 0}, {"Id": "2361", "pgp": 0, "GoBack": 1, "SID": 1566, "NameZh": "\u9802\u539d\u8def\u53e3", "RouteId": 211, "SeqNo": 25, "Terminal": 0, "DistrictId": 1, "Latitude": 22.50351, "Longitude": 120.37981, "IVRNo": 2361, "EXTVoiceNo": 2361, "traveltime": 0, "holidayTraveltime": 0}, {"Id": "2490", "pgp": 0, "GoBack": 1, "SID": 1706, "NameZh": "\u904e\u6e9d\u5df7\u53e3", "RouteId": 211, "SeqNo": 26, "Terminal": 0, "DistrictId": 1, "Latitude": 22.50126, "Longitude": 120.38418, "IVRNo": 2490, "EXTVoiceNo": 2490, "traveltime": 0, "holidayTraveltime": 0}, {"Id": "2362", "pgp": 0, "GoBack": 1, "SID": 1567, "NameZh": "\u7530\u539d\u8def\u53e3", "RouteId": 211, "SeqNo": 27, "Terminal": 0, "DistrictId": 1, "Latitude": 22.50005, "Longitude": 120.3871, "IVRNo": 2362, "EXTVoiceNo": 2362, "traveltime": 0, "holidayTraveltime": 0}, {"Id": "2363", "pgp": 0, "GoBack": 1, "SID": 1568, "NameZh": "\u65b0\u5149\u4eba\u58fd", "RouteId": 211, "SeqNo": 28, "Terminal": 0, "DistrictId": 1, "Latitude": 22.50006, "Longitude": 120.39275, "IVRNo": 2363, "EXTVoiceNo": 2363, "traveltime": 0, "holidayTraveltime": 0}, {"Id": "6080", "pgp": 0, "GoBack": 1, "SID": 5828, "NameZh": "\u897f\u6eaa\u8def", "RouteId": 211, "SeqNo": 29, "Terminal": 0, "DistrictId": 1, "Latitude": 22.490245, "Longitude": 120.393091, "IVRNo": 8866, "EXTVoiceNo": 6080, "traveltime": 0, "holidayTraveltime": 0}, {"Id": "6081", "pgp": 0, "GoBack": 1, "SID": 11277, "NameZh": "\u4e2d\u82b8\u570b\u5c0f(\u5074\u9580)", "RouteId": 211, "SeqNo": 30, "Terminal": 0, "DistrictId": 1, "Latitude": 22.48818, "Longitude": 120.396018, "IVRNo": 8868, "EXTVoiceNo": 6081, "traveltime": 0, "holidayTraveltime": 0}, {"Id": "6082", "pgp": 0, "GoBack": 1, "SID": 11278, "NameZh": "\u9cf3\u82b8\u7ad9", "RouteId": 211, "SeqNo": 31, "Terminal": 0, "DistrictId": 1, "Latitude": 22.487014, "Longitude": 120.397519, "IVRNo": 8870, "EXTVoiceNo": 6082, "traveltime": 0, "holidayTraveltime": 0}, {"Id": "8872", "pgp": 0, "GoBack": 1, "SID": 5833, "NameZh": "\u6f01\u6e2f\u516c\u5712", "RouteId": 211, "SeqNo": 32, "Terminal": 0, "DistrictId": 1, "Latitude": 22.485707, "Longitude": 120.400029, "IVRNo": 8872, "EXTVoiceNo": 8872, "traveltime": 0, "holidayTraveltime": 0}, {"Id": "6084", "pgp": 0, "GoBack": 1, "SID": 5835, "NameZh": "\u6c55\u5c3e", "RouteId": 211, "SeqNo": 33, "Terminal": 0, "DistrictId": 1, "Latitude": 22.481589, "Longitude": 120.409576, "IVRNo": 8874, "EXTVoiceNo": 6084, "traveltime": 0, "holidayTraveltime": 0}, {"Id": "6085", "pgp": 0, "GoBack": 1, "SID": 5837, "NameZh": "\u4e2d\u82b8", "RouteId": 211, "SeqNo": 34, "Terminal": 0, "DistrictId": 1, "Latitude": 22.490108, "Longitude": 120.397399, "IVRNo": 8876, "EXTVoiceNo": 6085, "traveltime": 0, "holidayTraveltime": 0}, {"Id": "2365", "pgp": 0, "GoBack": 1, "SID": 1570, "NameZh": "\u570b\u6cf0\u4eba\u58fd", "RouteId": 211, "SeqNo": 35, "Terminal": 0, "DistrictId": 1, "Latitude": 22.501521, "Longitude": 120.397878, "IVRNo": 2365, "EXTVoiceNo": 2365, "traveltime": 0, "holidayTraveltime": 0}, {"Id": "2487", "pgp": 0, "GoBack": 1, "SID": 1701, "NameZh": "\u9cf3\u6797\u8def\u4e00\u6bb5", "RouteId": 211, "SeqNo": 36, "Terminal": 0, "DistrictId": 1, "Latitude": 22.506882, "Longitude": 120.396605, "IVRNo": 2487, "EXTVoiceNo": 2487, "traveltime": 0, "holidayTraveltime": 0}, {"Id": "2488", "pgp": 0, "GoBack": 1, "SID": 1702, "NameZh": "\u6797\u5712\u9ad8\u4e2d", "RouteId": 211, "SeqNo": 37, "Terminal": 1, "DistrictId": 1, "Latitude": 22.51268, "Longitude": 120.39488, "IVRNo": 359, "EXTVoiceNo": 2488, "traveltime": 0, "holidayTraveltime": 0}, {"Id": "9386", "pgp": 0, "GoBack": 2, "SID": 15912, "NameZh": "\u6797\u5712\u5340\u516c\u6240", "RouteId": 211, "SeqNo": 1, "Terminal": 0, "DistrictId": 1, "Latitude": 22.50769, "Longitude": 120.39497, "IVRNo": 2366, "EXTVoiceNo": 9386, "traveltime": 0, "holidayTraveltime": 0}, {"Id": "2487", "pgp": 0, "GoBack": 2, "SID": 1703, "NameZh": "\u9cf3\u6797\u8def\u4e00\u6bb5", "RouteId": 211, "SeqNo": 2, "Terminal": 0, "DistrictId": 1, "Latitude": 22.5061, "Longitude": 120.39668, "IVRNo": 2487, "EXTVoiceNo": 2487, "traveltime": 0, "holidayTraveltime": 0}, {"Id": "2365", "pgp": 0, "GoBack": 2, "SID": 1572, "NameZh": "\u570b\u6cf0\u4eba\u58fd", "RouteId": 211, "SeqNo": 3, "Terminal": 0, "DistrictId": 1, "Latitude": 22.50156, "Longitude": 120.39771, "IVRNo": 2365, "EXTVoiceNo": 2365, "traveltime": 0, "holidayTraveltime": 0}, {"Id": "0802", "pgp": 0, "GoBack": 2, "SID": 13344, "NameZh": "\u5341\u865f\u516c\u5712", "RouteId": 211, "SeqNo": 4, "Terminal": 0, "DistrictId": 1, "Latitude": 22.500418, "Longitude": 120.394989, "IVRNo": 802, "EXTVoiceNo": 802, "traveltime": 0, "holidayTraveltime": 0}, {"Id": "2363", "pgp": 0, "GoBack": 2, "SID": 1573, "NameZh": "\u65b0\u5149\u4eba\u58fd", "RouteId": 211, "SeqNo": 5, "Terminal": 0, "DistrictId": 1, "Latitude": 22.50016, "Longitude": 120.39288, "IVRNo": 2363, "EXTVoiceNo": 2363, "traveltime": 0, "holidayTraveltime": 0}, {"Id": "2362", "pgp": 0, "GoBack": 2, "SID": 1576, "NameZh": "\u7530\u539d\u8def\u53e3", "RouteId": 211, "SeqNo": 6, "Terminal": 0, "DistrictId": 1, "Latitude": 22.50015, "Longitude": 120.38708, "IVRNo": 2362, "EXTVoiceNo": 2362, "traveltime": 0, "holidayTraveltime": 0}, {"Id": "2490", "pgp": 0, "GoBack": 2, "SID": 1707, "NameZh": "\u904e\u6e9d\u5df7\u53e3", "RouteId": 211, "SeqNo": 7, "Terminal": 0, "DistrictId": 1, "Latitude": 22.500913, "Longitude": 120.385136, "IVRNo": 2490, "EXTVoiceNo": 2490, "traveltime": 0, "holidayTraveltime": 0}, {"Id": "2361", "pgp": 0, "GoBack": 2, "SID": 1577, "NameZh": "\u9802\u539d\u8def\u53e3", "RouteId": 211, "SeqNo": 8, "Terminal": 0, "DistrictId": 1, "Latitude": 22.503589, "Longitude": 120.379801, "IVRNo": 2361, "EXTVoiceNo": 2361, "traveltime": 0, "holidayTraveltime": 0}, {"Id": "2360", "pgp": 0, "GoBack": 2, "SID": 1578, "NameZh": "\u6e2f\u57d4\u6d3e\u51fa\u6240", "RouteId": 211, "SeqNo": 9, "Terminal": 0, "DistrictId": 1, "Latitude": 22.504196, "Longitude": 120.376493, "IVRNo": 2360, "EXTVoiceNo": 2360, "traveltime": 0, "holidayTraveltime": 0}, {"Id": "2359", "pgp": 0, "GoBack": 2, "SID": 1579, "NameZh": "\u4e2d\u95807-11\u7ad9", "RouteId": 211, "SeqNo": 10, "Terminal": 0, "DistrictId": 1, "Latitude": 22.505023, "Longitude": 120.372022, "IVRNo": 2359, "EXTVoiceNo": 2359, "traveltime": 0, "holidayTraveltime": 0}, {"Id": "2492", "pgp": 0, "GoBack": 2, "SID": 1709, "NameZh": "\u6d77\u5898\u8def\u53e3", "RouteId": 211, "SeqNo": 11, "Terminal": 0, "DistrictId": 1, "Latitude": 22.506745, "Longitude": 120.369258, "IVRNo": 2492, "EXTVoiceNo": 2492, "traveltime": 0, "holidayTraveltime": 0}, {"Id": "2358", "pgp": 0, "GoBack": 2, "SID": 1580, "NameZh": "\u5927\u5b89\u68ee\u6797", "RouteId": 211, "SeqNo": 12, "Terminal": 0, "DistrictId": 1, "Latitude": 22.508879, "Longitude": 120.36626, "IVRNo": 2358, "EXTVoiceNo": 2358, "traveltime": 0, "holidayTraveltime": 0}, {"Id": "2536", "pgp": 0, "GoBack": 2, "SID": 8777, "NameZh": "\u9cf3\u9f3b\u982d(\u9cf3\u9cf4\u8def)", "RouteId": 211, "SeqNo": 13, "Terminal": 0, "DistrictId": 1, "Latitude": 22.511574, "Longitude": 120.361493, "IVRNo": 2377, "EXTVoiceNo": 2536, "traveltime": 0, "holidayTraveltime": 0}, {"Id": "2535", "pgp": 0, "GoBack": 2, "SID": 1765, "NameZh": "\u9cf3\u9cf4\u91cc", "RouteId": 211, "SeqNo": 14, "Terminal": 0, "DistrictId": 1, "Latitude": 22.513722, "Longitude": 120.359342, "IVRNo": 2535, "EXTVoiceNo": 2535, "traveltime": 0, "holidayTraveltime": 0}, {"Id": "2534", "pgp": 0, "GoBack": 2, "SID": 1773, "NameZh": "\u9cf3\u9cf4\u570b\u5c0f", "RouteId": 211, "SeqNo": 15, "Terminal": 0, "DistrictId": 1, "Latitude": 22.515283, "Longitude": 120.357783, "IVRNo": 2534, "EXTVoiceNo": 2534, "traveltime": 0, "holidayTraveltime": 0}, {"Id": "6035", "pgp": 0, "GoBack": 2, "SID": 4498, "NameZh": "\u5510\u69ae\u516c\u53f8", "RouteId": 211, "SeqNo": 16, "Terminal": 0, "DistrictId": 1, "Latitude": 22.544661, "Longitude": 120.369593, "IVRNo": 6035, "EXTVoiceNo": 6035, "traveltime": 0, "holidayTraveltime": 0}, {"Id": "6030", "pgp": 0, "GoBack": 2, "SID": 4489, "NameZh": "\u6cbf\u6d77\u4e00\u8def", "RouteId": 211, "SeqNo": 17, "Terminal": 0, "DistrictId": 1, "Latitude": 22.561722, "Longitude": 120.35661, "IVRNo": 6030, "EXTVoiceNo": 6030, "traveltime": 0, "holidayTraveltime": 0}, {"Id": "6052", "pgp": 0, "GoBack": 2, "SID": 4497, "NameZh": "\u7acb\u7fa4\u8def\u53e3", "RouteId": 211, "SeqNo": 18, "Terminal": 0, "DistrictId": 1, "Latitude": 22.562975, "Longitude": 120.355539, "IVRNo": 6052, "EXTVoiceNo": 6052, "traveltime": 0, "holidayTraveltime": 0}, {"Id": "6028", "pgp": 0, "GoBack": 2, "SID": 4487, "NameZh": "\u6377\u904b\u5c0f\u6e2f\u7ad9", "RouteId": 211, "SeqNo": 19, "Terminal": 0, "DistrictId": 1, "Latitude": 22.564664, "Longitude": 120.354048, "IVRNo": 2040, "EXTVoiceNo": 6028, "traveltime": 0, "holidayTraveltime": 0}, {"Id": "2306", "pgp": 0, "GoBack": 2, "SID": 1438, "NameZh": "\u4e2d\u5c71\u570b\u4e2d", "RouteId": 211, "SeqNo": 20, "Terminal": 0, "DistrictId": 1, "Latitude": 22.566764, "Longitude": 120.355221, "IVRNo": 2306, "EXTVoiceNo": 2306, "traveltime": 0, "holidayTraveltime": 0}, {"Id": "2307", "pgp": 0, "GoBack": 2, "SID": 1441, "NameZh": "\u5c0f\u6e2f\u9ad8\u4e2d", "RouteId": 211, "SeqNo": 21, "Terminal": 0, "DistrictId": 1, "Latitude": 22.566683, "Longitude": 120.35755, "IVRNo": 2307, "EXTVoiceNo": 2307, "traveltime": 0, "holidayTraveltime": 0}, {"Id": "2309", "pgp": 0, "GoBack": 2, "SID": 1455, "NameZh": "\u65b0\u8c50\u8857\u53e3", "RouteId": 211, "SeqNo": 22, "Terminal": 0, "DistrictId": 1, "Latitude": 22.566941, "Longitude": 120.360683, "IVRNo": 2309, "EXTVoiceNo": 2309, "traveltime": 0, "holidayTraveltime": 0}, {"Id": "2409", "pgp": 0, "GoBack": 2, "SID": 1613, "NameZh": "\u5c0f\u6e2f\u91ab\u9662(\u6f22\u6c11\u8def\u53e3)", "RouteId": 211, "SeqNo": 23, "Terminal": 0, "DistrictId": 1, "Latitude": 22.568113, "Longitude": 120.362493, "IVRNo": 2430, "EXTVoiceNo": 2409, "traveltime": 0, "holidayTraveltime": 0}, {"Id": "2410", "pgp": 0, "GoBack": 2, "SID": 1461, "NameZh": "\u5c71\u660e\u8def(\u5b8f\u5e73\u8def\u53e3)", "RouteId": 211, "SeqNo": 24, "Terminal": 0, "DistrictId": 1, "Latitude": 22.56952, "Longitude": 120.361946, "IVRNo": 2410, "EXTVoiceNo": 2410, "traveltime": 0, "holidayTraveltime": 0}, {"Id": "2015", "pgp": 0, "GoBack": 2, "SID": 997, "NameZh": "\u5c71\u660e\u8def\u53e3(\u5b8f\u5e73\u8def)", "RouteId": 211, "SeqNo": 25, "Terminal": 0, "DistrictId": 1, "Latitude": 22.569967, "Longitude": 120.360094, "IVRNo": 2015, "EXTVoiceNo": 2015, "traveltime": 0, "holidayTraveltime": 0}, {"Id": "2008", "pgp": 0, "GoBack": 2, "SID": 998, "NameZh": "\u5ee0\u908a\u4e09\u8def\u53e3(\u5b8f\u5e73\u8def)", "RouteId": 211, "SeqNo": 26, "Terminal": 0, "DistrictId": 1, "Latitude": 22.57, "Longitude": 120.357761, "IVRNo": 2008, "EXTVoiceNo": 2008, "traveltime": 0, "holidayTraveltime": 0}, {"Id": "2017", "pgp": 0, "GoBack": 2, "SID": 1001, "NameZh": "\u91d1\u5e9c\u8def\u53e3", "RouteId": 211, "SeqNo": 27, "Terminal": 0, "DistrictId": 1, "Latitude": 22.569978, "Longitude": 120.355192, "IVRNo": 2017, "EXTVoiceNo": 2017, "traveltime": 0, "holidayTraveltime": 0}, {"Id": "2018", "pgp": 0, "GoBack": 2, "SID": 1002, "NameZh": "\u5b8f\u5e73\u8def", "RouteId": 211, "SeqNo": 28, "Terminal": 0, "DistrictId": 1, "Latitude": 22.569839, "Longitude": 120.351577, "IVRNo": 2018, "EXTVoiceNo": 2018, "traveltime": 0, "holidayTraveltime": 0}, {"Id": "2038", "pgp": 0, "GoBack": 2, "SID": 1073, "NameZh": "\u9ad8\u96c4\u516c\u5712(\u6377\u904b\u9ad8\u96c4\u570b\u969b\u6a5f\u5834\u7ad9)", "RouteId": 211, "SeqNo": 29, "Terminal": 0, "DistrictId": 1, "Latitude": 22.568766, "Longitude": 120.343465, "IVRNo": 2038, "EXTVoiceNo": 12038, "traveltime": 0, "holidayTraveltime": 0}, {"Id": "2765", "pgp": 0, "GoBack": 2, "SID": 2008, "NameZh": "\u5e02\u7acb\u7a7a\u5927", "RouteId": 211, "SeqNo": 30, "Terminal": 0, "DistrictId": 1, "Latitude": 22.567073, "Longitude": 120.344656, "IVRNo": 2073, "EXTVoiceNo": 2765, "traveltime": 0, "holidayTraveltime": 0}, {"Id": "2002", "pgp": 0, "GoBack": 2, "SID": 1089, "NameZh": "\u5c0f\u6e2f\u5206\u5c40", "RouteId": 211, "SeqNo": 31, "Terminal": 0, "DistrictId": 1, "Latitude": 22.565731, "Longitude": 120.344228, "IVRNo": 2002, "EXTVoiceNo": 2002, "traveltime": 0, "holidayTraveltime": 0}, {"Id": "2001", "pgp": 0, "GoBack": 2, "SID": 1081, "NameZh": "\u5c0f\u6e2f\u7ad9", "RouteId": 211, "SeqNo": 32, "Terminal": 1, "DistrictId": 1, "Latitude": 22.565309, "Longitude": 120.340961, "IVRNo": 2000, "EXTVoiceNo": 2001, "traveltime": 0, "holidayTraveltime": 0}]}