{"en": [{"Id": "0002", "pgp": 0, "GoBack": 1, "SID": 16, "NameZh": "Jianjun Station (MRT Weiwuying Station)", "RouteId": 9701, "SeqNo": 1, "Terminal": 0, "DistrictId": 1, "Latitude": 22.624975, "Longitude": 120.343796, "IVRNo": 1, "EXTVoiceNo": 2, "traveltime": 0, "holidayTraveltime": 0}, {"Id": "0980", "pgp": 0, "GoBack": 1, "SID": 982, "NameZh": "Kaohsiung Armed Forces General Hospital", "RouteId": 9701, "SeqNo": 2, "Terminal": 0, "DistrictId": 1, "Latitude": 22.6263, "Longitude": 120.3423, "IVRNo": 2, "EXTVoiceNo": 20980, "traveltime": 0, "holidayTraveltime": 0}, {"Id": "3528", "pgp": 0, "GoBack": 1, "SID": 3602, "NameZh": "Fongshan Administration Center (Jhongshan W. Rd.)", "RouteId": 9701, "SeqNo": 3, "Terminal": 0, "DistrictId": 1, "Latitude": 22.6281, "Longitude": 120.3437, "IVRNo": 502, "EXTVoiceNo": 13528, "traveltime": 0, "holidayTraveltime": 0}, {"Id": "2498", "pgp": 0, "GoBack": 1, "SID": 19017, "NameZh": "Fongshan Administration Center (Chengcing Rd.)", "RouteId": 9701, "SeqNo": 4, "Terminal": 0, "DistrictId": 1, "Latitude": 22.63043, "Longitude": 120.344552, "IVRNo": 2498, "EXTVoiceNo": 2498, "traveltime": 0, "holidayTraveltime": 0}, {"Id": "8935", "pgp": 0, "GoBack": 1, "SID": 6026, "NameZh": "Wunhua Elementary School", "RouteId": 9701, "SeqNo": 5, "Terminal": 0, "DistrictId": 1, "Latitude": 22.634293, "Longitude": 120.35251, "IVRNo": 9398, "EXTVoiceNo": 8935, "traveltime": 0, "holidayTraveltime": 0}, {"Id": "9009", "pgp": 0, "GoBack": 1, "SID": 10721, "NameZh": "RT-MART", "RouteId": 9701, "SeqNo": 6, "Terminal": 0, "DistrictId": 1, "Latitude": 22.63358, "Longitude": 120.355761, "IVRNo": 9515, "EXTVoiceNo": 9009, "traveltime": 0, "holidayTraveltime": 0}, {"Id": "8936", "pgp": 0, "GoBack": 1, "SID": 6027, "NameZh": "National Feng-Shan Commercial & Industrial Vocational School", "RouteId": 9701, "SeqNo": 7, "Terminal": 0, "DistrictId": 1, "Latitude": 22.6338, "Longitude": 120.3582, "IVRNo": 148, "EXTVoiceNo": 8936, "traveltime": 0, "holidayTraveltime": 0}, {"Id": "0051", "pgp": 0, "GoBack": 1, "SID": 18493, "NameZh": "Wunying Village", "RouteId": 9701, "SeqNo": 8, "Terminal": 0, "DistrictId": 1, "Latitude": 22.637844, "Longitude": 120.356401, "IVRNo": 992, "EXTVoiceNo": 51, "traveltime": 0, "holidayTraveltime": 0}, {"Id": "9010", "pgp": 0, "GoBack": 1, "SID": 10683, "NameZh": "Wunshan Lane", "RouteId": 9701, "SeqNo": 9, "Terminal": 0, "DistrictId": 1, "Latitude": 22.63989, "Longitude": 120.356195, "IVRNo": 9518, "EXTVoiceNo": 9010, "traveltime": 0, "holidayTraveltime": 0}, {"Id": "8956", "pgp": 0, "GoBack": 1, "SID": 6028, "NameZh": "Wunde Elementary School", "RouteId": 9701, "SeqNo": 10, "Terminal": 0, "DistrictId": 1, "Latitude": 22.6403, "Longitude": 120.3537, "IVRNo": 9400, "EXTVoiceNo": 8956, "traveltime": 0, "holidayTraveltime": 0}, {"Id": "8937", "pgp": 0, "GoBack": 1, "SID": 6029, "NameZh": "Wunheng Rd. Intersection", "RouteId": 9701, "SeqNo": 11, "Terminal": 0, "DistrictId": 1, "Latitude": 22.6411, "Longitude": 120.3512, "IVRNo": 451, "EXTVoiceNo": 8937, "traveltime": 0, "holidayTraveltime": 0}, {"Id": "8938", "pgp": 0, "GoBack": 1, "SID": 6030, "NameZh": "Binshan St. Intersection", "RouteId": 9701, "SeqNo": 12, "Terminal": 0, "DistrictId": 1, "Latitude": 22.645076, "Longitude": 120.350161, "IVRNo": 9402, "EXTVoiceNo": 8938, "traveltime": 0, "holidayTraveltime": 0}, {"Id": "8939", "pgp": 0, "GoBack": 1, "SID": 6031, "NameZh": "Chengyuan", "RouteId": 9701, "SeqNo": 13, "Terminal": 0, "DistrictId": 1, "Latitude": 22.647472, "Longitude": 120.347189, "IVRNo": 9403, "EXTVoiceNo": 8939, "traveltime": 0, "holidayTraveltime": 0}, {"Id": "0636", "pgp": 0, "GoBack": 1, "SID": 2519, "NameZh": "Cheng Shiu University (Chengcing Lake)", "RouteId": 9701, "SeqNo": 14, "Terminal": 0, "DistrictId": 1, "Latitude": 22.6512, "Longitude": 120.3489, "IVRNo": 3533, "EXTVoiceNo": 10636, "traveltime": 0, "holidayTraveltime": 0}, {"Id": "3546", "pgp": 0, "GoBack": 1, "SID": 2588, "NameZh": "Chang Gung Rehabilitation buil Ding", "RouteId": 9701, "SeqNo": 15, "Terminal": 0, "DistrictId": 1, "Latitude": 22.6505, "Longitude": 120.3531, "IVRNo": 3546, "EXTVoiceNo": 3546, "traveltime": 0, "holidayTraveltime": 0}, {"Id": "3534", "pgp": 0, "GoBack": 1, "SID": 2552, "NameZh": "Chang Gung Memorial Hospital", "RouteId": 9701, "SeqNo": 16, "Terminal": 0, "DistrictId": 1, "Latitude": 22.6508, "Longitude": 120.3566, "IVRNo": 3534, "EXTVoiceNo": 3534, "traveltime": 0, "holidayTraveltime": 0}, {"Id": "8941", "pgp": 0, "GoBack": 1, "SID": 6039, "NameZh": "The Labor Recreation Center", "RouteId": 9701, "SeqNo": 17, "Terminal": 0, "DistrictId": 1, "Latitude": 22.652948, "Longitude": 120.35972, "IVRNo": 9411, "EXTVoiceNo": 8941, "traveltime": 0, "holidayTraveltime": 0}, {"Id": "1912", "pgp": 0, "GoBack": 1, "SID": 2535, "NameZh": "Chengcing Lake Baseball Field", "RouteId": 9701, "SeqNo": 18, "Terminal": 0, "DistrictId": 1, "Latitude": 22.6555, "Longitude": 120.3599, "IVRNo": 11912, "EXTVoiceNo": 11912, "traveltime": 0, "holidayTraveltime": 0}, {"Id": "7705", "pgp": 0, "GoBack": 1, "SID": 2536, "NameZh": "Jhongcheng Rd. Intersection", "RouteId": 9701, "SeqNo": 19, "Terminal": 0, "DistrictId": 1, "Latitude": 22.6582, "Longitude": 120.361, "IVRNo": 864, "EXTVoiceNo": 7705, "traveltime": 0, "holidayTraveltime": 0}, {"Id": "4332", "pgp": 0, "GoBack": 1, "SID": 5995, "NameZh": "Niaosong District Office (Shennong Rd.)", "RouteId": 9701, "SeqNo": 20, "Terminal": 0, "DistrictId": 1, "Latitude": 22.659086, "Longitude": 120.36487, "IVRNo": 9367, "EXTVoiceNo": 14332, "traveltime": 0, "holidayTraveltime": 0}, {"Id": "0243", "pgp": 0, "GoBack": 1, "SID": 12113, "NameZh": "Shueiguan Rd. Intersection (Shennong Rd.)", "RouteId": 9701, "SeqNo": 21, "Terminal": 0, "DistrictId": 1, "Latitude": 22.659406, "Longitude": 120.37306, "IVRNo": 1238, "EXTVoiceNo": 20243, "traveltime": 0, "holidayTraveltime": 0}, {"Id": "2632", "pgp": 0, "GoBack": 1, "SID": 10725, "NameZh": "Songbu Rd. Intersection (Yuanjhao Temple)", "RouteId": 9701, "SeqNo": 22, "Terminal": 0, "DistrictId": 1, "Latitude": 22.659156, "Longitude": 120.380266, "IVRNo": 5690, "EXTVoiceNo": 2632, "traveltime": 0, "holidayTraveltime": 0}, {"Id": "8942", "pgp": 0, "GoBack": 1, "SID": 5996, "NameZh": "Dipu", "RouteId": 9701, "SeqNo": 23, "Terminal": 0, "DistrictId": 1, "Latitude": 22.657968, "Longitude": 120.384756, "IVRNo": 9368, "EXTVoiceNo": 8942, "traveltime": 0, "holidayTraveltime": 0}, {"Id": "9020", "pgp": 0, "GoBack": 1, "SID": 10726, "NameZh": "Gaoma", "RouteId": 9701, "SeqNo": 24, "Terminal": 0, "DistrictId": 1, "Latitude": 22.658146, "Longitude": 120.389149, "IVRNo": 9538, "EXTVoiceNo": 9020, "traveltime": 0, "holidayTraveltime": 0}, {"Id": "8943", "pgp": 0, "GoBack": 1, "SID": 5997, "NameZh": "Renmei Elementary School", "RouteId": 9701, "SeqNo": 25, "Terminal": 0, "DistrictId": 1, "Latitude": 22.65827, "Longitude": 120.393076, "IVRNo": 9369, "EXTVoiceNo": 8943, "traveltime": 0, "holidayTraveltime": 0}, {"Id": "8944", "pgp": 0, "GoBack": 1, "SID": 5998, "NameZh": "Shueimei Gas Station", "RouteId": 9701, "SeqNo": 26, "Terminal": 0, "DistrictId": 1, "Latitude": 22.658265, "Longitude": 120.399513, "IVRNo": 9370, "EXTVoiceNo": 8944, "traveltime": 0, "holidayTraveltime": 0}, {"Id": "9209", "pgp": 0, "GoBack": 1, "SID": 6410, "NameZh": "Shueiliao Jhonghua Rd.", "RouteId": 9701, "SeqNo": 27, "Terminal": 0, "DistrictId": 1, "Latitude": 22.663363, "Longitude": 120.40444, "IVRNo": 9760, "EXTVoiceNo": 9209, "traveltime": 0, "holidayTraveltime": 0}, {"Id": "8945", "pgp": 0, "GoBack": 1, "SID": 5999, "NameZh": "Shueiliao Elementary School", "RouteId": 9701, "SeqNo": 28, "Terminal": 0, "DistrictId": 1, "Latitude": 22.666957, "Longitude": 120.407689, "IVRNo": 9371, "EXTVoiceNo": 8945, "traveltime": 0, "holidayTraveltime": 0}, {"Id": "8946", "pgp": 0, "GoBack": 1, "SID": 11493, "NameZh": "Shueiliao Jhongshan Rd.", "RouteId": 9701, "SeqNo": 29, "Terminal": 0, "DistrictId": 1, "Latitude": 22.667083, "Longitude": 120.409118, "IVRNo": 9372, "EXTVoiceNo": 8946, "traveltime": 0, "holidayTraveltime": 0}, {"Id": "8947", "pgp": 0, "GoBack": 1, "SID": 11494, "NameZh": "Shueiliao", "RouteId": 9701, "SeqNo": 30, "Terminal": 0, "DistrictId": 1, "Latitude": 22.665571, "Longitude": 120.409523, "IVRNo": 9373, "EXTVoiceNo": 8947, "traveltime": 0, "holidayTraveltime": 0}, {"Id": "8948", "pgp": 0, "GoBack": 1, "SID": 11495, "NameZh": "Shueian Village", "RouteId": 9701, "SeqNo": 31, "Terminal": 0, "DistrictId": 1, "Latitude": 22.662636, "Longitude": 120.410972, "IVRNo": 9374, "EXTVoiceNo": 8948, "traveltime": 0, "holidayTraveltime": 0}, {"Id": "8949", "pgp": 0, "GoBack": 1, "SID": 11496, "NameZh": "Hudi Bridge (Dashu)", "RouteId": 9701, "SeqNo": 32, "Terminal": 0, "DistrictId": 1, "Latitude": 22.658185, "Longitude": 120.415714, "IVRNo": 9375, "EXTVoiceNo": 8949, "traveltime": 0, "holidayTraveltime": 0}, {"Id": "9404", "pgp": 0, "GoBack": 1, "SID": 11497, "NameZh": "Dashu Library", "RouteId": 9701, "SeqNo": 33, "Terminal": 0, "DistrictId": 1, "Latitude": 22.658413, "Longitude": 120.419072, "IVRNo": 464, "EXTVoiceNo": 9404, "traveltime": 0, "holidayTraveltime": 0}, {"Id": "9405", "pgp": 0, "GoBack": 1, "SID": 11498, "NameZh": "Jioutang Village (Yongfongyou Paper-Making Industry)", "RouteId": 9701, "SeqNo": 34, "Terminal": 0, "DistrictId": 1, "Latitude": 22.659185, "Longitude": 120.420595, "IVRNo": 465, "EXTVoiceNo": 9405, "traveltime": 0, "holidayTraveltime": 0}, {"Id": "9210", "pgp": 0, "GoBack": 1, "SID": 11499, "NameZh": "Dashu Junior High School", "RouteId": 9701, "SeqNo": 35, "Terminal": 0, "DistrictId": 1, "Latitude": 22.656322, "Longitude": 120.422765, "IVRNo": 8913, "EXTVoiceNo": 9210, "traveltime": 0, "holidayTraveltime": 0}, {"Id": "9405", "pgp": 0, "GoBack": 1, "SID": 11501, "NameZh": "Jioutang Village (Yongfongyou Paper-Making Industry)", "RouteId": 9701, "SeqNo": 36, "Terminal": 0, "DistrictId": 1, "Latitude": 22.659245, "Longitude": 120.420552, "IVRNo": 465, "EXTVoiceNo": 9405, "traveltime": 0, "holidayTraveltime": 0}, {"Id": "9404", "pgp": 0, "GoBack": 1, "SID": 11502, "NameZh": "Dashu Library", "RouteId": 9701, "SeqNo": 37, "Terminal": 0, "DistrictId": 1, "Latitude": 22.658482, "Longitude": 120.419072, "IVRNo": 464, "EXTVoiceNo": 9404, "traveltime": 0, "holidayTraveltime": 0}, {"Id": "8949", "pgp": 0, "GoBack": 1, "SID": 11503, "NameZh": "Hudi Bridge (Dashu)", "RouteId": 9701, "SeqNo": 38, "Terminal": 0, "DistrictId": 1, "Latitude": 22.658166, "Longitude": 120.415692, "IVRNo": 9375, "EXTVoiceNo": 8949, "traveltime": 0, "holidayTraveltime": 0}, {"Id": "8948", "pgp": 0, "GoBack": 1, "SID": 11504, "NameZh": "Shueian Village", "RouteId": 9701, "SeqNo": 39, "Terminal": 0, "DistrictId": 1, "Latitude": 22.662571, "Longitude": 120.410961, "IVRNo": 9374, "EXTVoiceNo": 8948, "traveltime": 0, "holidayTraveltime": 0}, {"Id": "8947", "pgp": 0, "GoBack": 1, "SID": 11505, "NameZh": "Shueiliao", "RouteId": 9701, "SeqNo": 40, "Terminal": 0, "DistrictId": 1, "Latitude": 22.665551, "Longitude": 120.409502, "IVRNo": 9373, "EXTVoiceNo": 8947, "traveltime": 0, "holidayTraveltime": 0}, {"Id": "8946", "pgp": 0, "GoBack": 1, "SID": 11506, "NameZh": "Shueiliao Jhongshan Rd.", "RouteId": 9701, "SeqNo": 41, "Terminal": 0, "DistrictId": 1, "Latitude": 22.667076, "Longitude": 120.409105, "IVRNo": 9372, "EXTVoiceNo": 8946, "traveltime": 0, "holidayTraveltime": 0}, {"Id": "9312", "pgp": 0, "GoBack": 1, "SID": 10728, "NameZh": "Jingzihjiao", "RouteId": 9701, "SeqNo": 42, "Terminal": 0, "DistrictId": 1, "Latitude": 22.669197, "Longitude": 120.409694, "IVRNo": 9969, "EXTVoiceNo": 9312, "traveltime": 0, "holidayTraveltime": 0}, {"Id": "9313", "pgp": 0, "GoBack": 1, "SID": 10729, "NameZh": "Jingzih Village", "RouteId": 9701, "SeqNo": 43, "Terminal": 0, "DistrictId": 1, "Latitude": 22.67209, "Longitude": 120.408538, "IVRNo": 9970, "EXTVoiceNo": 9313, "traveltime": 0, "holidayTraveltime": 0}, {"Id": "9314", "pgp": 0, "GoBack": 1, "SID": 10730, "NameZh": "Chongsheng Temple", "RouteId": 9701, "SeqNo": 44, "Terminal": 0, "DistrictId": 1, "Latitude": 22.674046, "Longitude": 120.40781, "IVRNo": 9971, "EXTVoiceNo": 9314, "traveltime": 0, "holidayTraveltime": 0}, {"Id": "9315", "pgp": 0, "GoBack": 1, "SID": 10731, "NameZh": "Siaopingding", "RouteId": 9701, "SeqNo": 45, "Terminal": 0, "DistrictId": 1, "Latitude": 22.680114, "Longitude": 120.408697, "IVRNo": 9972, "EXTVoiceNo": 9315, "traveltime": 0, "holidayTraveltime": 0}, {"Id": "9316", "pgp": 0, "GoBack": 1, "SID": 10732, "NameZh": "Siao Ping Elementary School", "RouteId": 9701, "SeqNo": 46, "Terminal": 0, "DistrictId": 1, "Latitude": 22.681815, "Longitude": 120.411152, "IVRNo": 9973, "EXTVoiceNo": 9316, "traveltime": 0, "holidayTraveltime": 0}, {"Id": "9317", "pgp": 0, "GoBack": 1, "SID": 10733, "NameZh": "Longmu", "RouteId": 9701, "SeqNo": 47, "Terminal": 0, "DistrictId": 1, "Latitude": 22.685558, "Longitude": 120.416508, "IVRNo": 9974, "EXTVoiceNo": 9317, "traveltime": 0, "holidayTraveltime": 0}, {"Id": "9318", "pgp": 0, "GoBack": 1, "SID": 10734, "NameZh": "Dashu Village", "RouteId": 9701, "SeqNo": 48, "Terminal": 0, "DistrictId": 1, "Latitude": 22.686588, "Longitude": 120.418568, "IVRNo": 9975, "EXTVoiceNo": 9318, "traveltime": 0, "holidayTraveltime": 0}, {"Id": "9319", "pgp": 0, "GoBack": 1, "SID": 10735, "NameZh": "Baoan Temple (Dashu)", "RouteId": 9701, "SeqNo": 49, "Terminal": 0, "DistrictId": 1, "Latitude": 22.687095, "Longitude": 120.429782, "IVRNo": 9465, "EXTVoiceNo": 9319, "traveltime": 0, "holidayTraveltime": 0}, {"Id": "9216", "pgp": 0, "GoBack": 1, "SID": 10736, "NameZh": "Shihjian St.", "RouteId": 9701, "SeqNo": 50, "Terminal": 0, "DistrictId": 1, "Latitude": 22.688898, "Longitude": 120.431048, "IVRNo": 9769, "EXTVoiceNo": 9216, "traveltime": 0, "holidayTraveltime": 0}, {"Id": "0298", "pgp": 0, "GoBack": 1, "SID": 13061, "NameZh": "Public Library (Dashu)", "RouteId": 9701, "SeqNo": 51, "Terminal": 0, "DistrictId": 1, "Latitude": 22.691069, "Longitude": 120.430948, "IVRNo": 496, "EXTVoiceNo": 20298, "traveltime": 0, "holidayTraveltime": 0}, {"Id": "1231", "pgp": 0, "GoBack": 1, "SID": 13062, "NameZh": "Beiji Temple (Dashu)", "RouteId": 9701, "SeqNo": 52, "Terminal": 0, "DistrictId": 1, "Latitude": 22.69374, "Longitude": 120.42613, "IVRNo": 1231, "EXTVoiceNo": 1231, "traveltime": 0, "holidayTraveltime": 0}, {"Id": "4641", "pgp": 0, "GoBack": 1, "SID": 11267, "NameZh": "Heshan Temple", "RouteId": 9701, "SeqNo": 53, "Terminal": 0, "DistrictId": 1, "Latitude": 22.70569, "Longitude": 120.41701, "IVRNo": 4641, "EXTVoiceNo": 4641, "traveltime": 0, "holidayTraveltime": 0}, {"Id": "4642", "pgp": 0, "GoBack": 1, "SID": 11268, "NameZh": "Da Shu Elementary School (Heshan)", "RouteId": 9701, "SeqNo": 54, "Terminal": 0, "DistrictId": 1, "Latitude": 22.70379, "Longitude": 120.41702, "IVRNo": 4642, "EXTVoiceNo": 4642, "traveltime": 0, "holidayTraveltime": 0}, {"Id": "4643", "pgp": 0, "GoBack": 1, "SID": 11269, "NameZh": "Heshan Rd.", "RouteId": 9701, "SeqNo": 55, "Terminal": 0, "DistrictId": 1, "Latitude": 22.70154, "Longitude": 120.41732, "IVRNo": 4643, "EXTVoiceNo": 4643, "traveltime": 0, "holidayTraveltime": 0}, {"Id": "0456", "pgp": 0, "GoBack": 1, "SID": 13063, "NameZh": "Heshan Community", "RouteId": 9701, "SeqNo": 56, "Terminal": 0, "DistrictId": 1, "Latitude": 22.69733, "Longitude": 120.41962, "IVRNo": 498, "EXTVoiceNo": 20456, "traveltime": 0, "holidayTraveltime": 0}, {"Id": "1231", "pgp": 0, "GoBack": 1, "SID": 13064, "NameZh": "Beiji Temple (Dashu)", "RouteId": 9701, "SeqNo": 57, "Terminal": 0, "DistrictId": 1, "Latitude": 22.6936, "Longitude": 120.42616, "IVRNo": 1231, "EXTVoiceNo": 1231, "traveltime": 0, "holidayTraveltime": 0}, {"Id": "0298", "pgp": 0, "GoBack": 1, "SID": 13065, "NameZh": "Public Library (Dashu)", "RouteId": 9701, "SeqNo": 58, "Terminal": 0, "DistrictId": 1, "Latitude": 22.691138, "Longitude": 120.430682, "IVRNo": 496, "EXTVoiceNo": 20298, "traveltime": 0, "holidayTraveltime": 0}, {"Id": "9217", "pgp": 0, "GoBack": 1, "SID": 10737, "NameZh": "Dashu Farmer`s Association", "RouteId": 9701, "SeqNo": 59, "Terminal": 0, "DistrictId": 1, "Latitude": 22.690973, "Longitude": 120.432719, "IVRNo": 9770, "EXTVoiceNo": 9217, "traveltime": 0, "holidayTraveltime": 0}, {"Id": "9218", "pgp": 0, "GoBack": 1, "SID": 10738, "NameZh": "Dashu District Office", "RouteId": 9701, "SeqNo": 60, "Terminal": 0, "DistrictId": 1, "Latitude": 22.69317, "Longitude": 120.432944, "IVRNo": 9774, "EXTVoiceNo": 9218, "traveltime": 0, "holidayTraveltime": 0}, {"Id": "9219", "pgp": 0, "GoBack": 1, "SID": 15880, "NameZh": "Jhongsing N. Rd.", "RouteId": 9701, "SeqNo": 61, "Terminal": 0, "DistrictId": 1, "Latitude": 22.695473, "Longitude": 120.433083, "IVRNo": 9773, "EXTVoiceNo": 9219, "traveltime": 0, "holidayTraveltime": 0}, {"Id": "1368", "pgp": 0, "GoBack": 1, "SID": 6779, "NameZh": "Kunming Temple", "RouteId": 9701, "SeqNo": 62, "Terminal": 0, "DistrictId": 1, "Latitude": 22.69995, "Longitude": 120.43349, "IVRNo": 11368, "EXTVoiceNo": 11368, "traveltime": 0, "holidayTraveltime": 0}, {"Id": "0896", "pgp": 0, "GoBack": 1, "SID": 6780, "NameZh": "Gupoliao", "RouteId": 9701, "SeqNo": 63, "Terminal": 0, "DistrictId": 1, "Latitude": 22.70501, "Longitude": 120.43433, "IVRNo": 10896, "EXTVoiceNo": 10896, "traveltime": 0, "holidayTraveltime": 0}, {"Id": "0894", "pgp": 0, "GoBack": 1, "SID": 6781, "NameZh": "Gu-Shan Elementary school", "RouteId": 9701, "SeqNo": 64, "Terminal": 0, "DistrictId": 1, "Latitude": 22.70834, "Longitude": 120.43815, "IVRNo": 10894, "EXTVoiceNo": 10894, "traveltime": 0, "holidayTraveltime": 0}, {"Id": "1236", "pgp": 0, "GoBack": 1, "SID": 19259, "NameZh": "Gushan Warehouse Industrial Culture Park (Dakeng Rd.)", "RouteId": 9701, "SeqNo": 65, "Terminal": 0, "DistrictId": 1, "Latitude": 22.710133, "Longitude": 120.439414, "IVRNo": 1236, "EXTVoiceNo": 1236, "traveltime": 0, "holidayTraveltime": 0}, {"Id": "1160", "pgp": 0, "GoBack": 1, "SID": 6782, "NameZh": "Jhouzai", "RouteId": 9701, "SeqNo": 66, "Terminal": 0, "DistrictId": 1, "Latitude": 22.71374, "Longitude": 120.44133, "IVRNo": 11160, "EXTVoiceNo": 11160, "traveltime": 0, "holidayTraveltime": 0}, {"Id": "0077", "pgp": 0, "GoBack": 1, "SID": 6783, "NameZh": "Dakeng", "RouteId": 9701, "SeqNo": 67, "Terminal": 0, "DistrictId": 1, "Latitude": 22.71778, "Longitude": 120.44321, "IVRNo": 10159, "EXTVoiceNo": 20077, "traveltime": 0, "holidayTraveltime": 0}, {"Id": "0334", "pgp": 0, "GoBack": 1, "SID": 6784, "NameZh": "Sipu Elementary School", "RouteId": 9701, "SeqNo": 68, "Terminal": 0, "DistrictId": 1, "Latitude": 22.72246, "Longitude": 120.44344, "IVRNo": 334, "EXTVoiceNo": 334, "traveltime": 0, "holidayTraveltime": 0}, {"Id": "0134", "pgp": 0, "GoBack": 1, "SID": 6785, "NameZh": "Sipu Police Station", "RouteId": 9701, "SeqNo": 69, "Terminal": 0, "DistrictId": 1, "Latitude": 22.72764, "Longitude": 120.44455, "IVRNo": 134, "EXTVoiceNo": 134, "traveltime": 0, "holidayTraveltime": 0}, {"Id": "2299", "pgp": 0, "GoBack": 1, "SID": 6786, "NameZh": "Sipu", "RouteId": 9701, "SeqNo": 70, "Terminal": 0, "DistrictId": 1, "Latitude": 22.732023, "Longitude": 120.447211, "IVRNo": 133, "EXTVoiceNo": 32299, "traveltime": 0, "holidayTraveltime": 0}, {"Id": "3396", "pgp": 0, "GoBack": 1, "SID": 6787, "NameZh": "Sinsing (Dashu)", "RouteId": 9701, "SeqNo": 71, "Terminal": 0, "DistrictId": 1, "Latitude": 22.73734, "Longitude": 120.44775, "IVRNo": 11668, "EXTVoiceNo": 13396, "traveltime": 0, "holidayTraveltime": 0}, {"Id": "1981", "pgp": 0, "GoBack": 1, "SID": 6788, "NameZh": "Singtian", "RouteId": 9701, "SeqNo": 72, "Terminal": 0, "DistrictId": 1, "Latitude": 22.742011, "Longitude": 120.448161, "IVRNo": 11981, "EXTVoiceNo": 11981, "traveltime": 0, "holidayTraveltime": 0}, {"Id": "2298", "pgp": 0, "GoBack": 1, "SID": 12580, "NameZh": "Majhuyuan", "RouteId": 9701, "SeqNo": 73, "Terminal": 0, "DistrictId": 1, "Latitude": 22.74623, "Longitude": 120.44717, "IVRNo": 3263, "EXTVoiceNo": 32298, "traveltime": 0, "holidayTraveltime": 0}, {"Id": "0395", "pgp": 0, "GoBack": 1, "SID": 6790, "NameZh": "Fo Guang Shan", "RouteId": 9701, "SeqNo": 74, "Terminal": 0, "DistrictId": 1, "Latitude": 22.749753, "Longitude": 120.447395, "IVRNo": 395, "EXTVoiceNo": 395, "traveltime": 0, "holidayTraveltime": 0}, {"Id": "0396", "pgp": 0, "GoBack": 1, "SID": 12722, "NameZh": "Fo Guang Shan Buddha Museum", "RouteId": 9701, "SeqNo": 75, "Terminal": 1, "DistrictId": 1, "Latitude": 22.75497, "Longitude": 120.44615, "IVRNo": 396, "EXTVoiceNo": 396, "traveltime": 0, "holidayTraveltime": 0}, {"Id": "0396", "pgp": 0, "GoBack": 2, "SID": 12362, "NameZh": "Fo Guang Shan Buddha Museum", "RouteId": 9701, "SeqNo": 1, "Terminal": 0, "DistrictId": 1, "Latitude": 22.754891, "Longitude": 120.447555, "IVRNo": 396, "EXTVoiceNo": 396, "traveltime": 0, "holidayTraveltime": 0}, {"Id": "0395", "pgp": 0, "GoBack": 2, "SID": 6648, "NameZh": "Fo Guang Shan", "RouteId": 9701, "SeqNo": 2, "Terminal": 0, "DistrictId": 1, "Latitude": 22.749377, "Longitude": 120.447207, "IVRNo": 395, "EXTVoiceNo": 395, "traveltime": 0, "holidayTraveltime": 0}, {"Id": "2298", "pgp": 0, "GoBack": 2, "SID": 12477, "NameZh": "Majhuyuan", "RouteId": 9701, "SeqNo": 3, "Terminal": 0, "DistrictId": 1, "Latitude": 22.74639, "Longitude": 120.447, "IVRNo": 3263, "EXTVoiceNo": 32298, "traveltime": 0, "holidayTraveltime": 0}, {"Id": "1981", "pgp": 0, "GoBack": 2, "SID": 6650, "NameZh": "Singtian", "RouteId": 9701, "SeqNo": 4, "Terminal": 0, "DistrictId": 1, "Latitude": 22.74199, "Longitude": 120.44826, "IVRNo": 11981, "EXTVoiceNo": 11981, "traveltime": 0, "holidayTraveltime": 0}, {"Id": "3396", "pgp": 0, "GoBack": 2, "SID": 6651, "NameZh": "Sinsing (Dashu)", "RouteId": 9701, "SeqNo": 5, "Terminal": 0, "DistrictId": 1, "Latitude": 22.73735, "Longitude": 120.44769, "IVRNo": 11668, "EXTVoiceNo": 13396, "traveltime": 0, "holidayTraveltime": 0}, {"Id": "2299", "pgp": 0, "GoBack": 2, "SID": 6652, "NameZh": "Sipu", "RouteId": 9701, "SeqNo": 6, "Terminal": 0, "DistrictId": 1, "Latitude": 22.73201, "Longitude": 120.44736, "IVRNo": 133, "EXTVoiceNo": 32299, "traveltime": 0, "holidayTraveltime": 0}, {"Id": "0134", "pgp": 0, "GoBack": 2, "SID": 6653, "NameZh": "Sipu Police Station", "RouteId": 9701, "SeqNo": 7, "Terminal": 0, "DistrictId": 1, "Latitude": 22.72768, "Longitude": 120.4445, "IVRNo": 134, "EXTVoiceNo": 134, "traveltime": 0, "holidayTraveltime": 0}, {"Id": "0334", "pgp": 0, "GoBack": 2, "SID": 6654, "NameZh": "Sipu Elementary School", "RouteId": 9701, "SeqNo": 8, "Terminal": 0, "DistrictId": 1, "Latitude": 22.72261, "Longitude": 120.44332, "IVRNo": 334, "EXTVoiceNo": 334, "traveltime": 0, "holidayTraveltime": 0}, {"Id": "0077", "pgp": 0, "GoBack": 2, "SID": 6655, "NameZh": "Dakeng", "RouteId": 9701, "SeqNo": 9, "Terminal": 0, "DistrictId": 1, "Latitude": 22.71764, "Longitude": 120.44308, "IVRNo": 10159, "EXTVoiceNo": 20077, "traveltime": 0, "holidayTraveltime": 0}, {"Id": "1160", "pgp": 0, "GoBack": 2, "SID": 6656, "NameZh": "Jhouzai", "RouteId": 9701, "SeqNo": 10, "Terminal": 0, "DistrictId": 1, "Latitude": 22.71363, "Longitude": 120.44115, "IVRNo": 11160, "EXTVoiceNo": 11160, "traveltime": 0, "holidayTraveltime": 0}, {"Id": "1236", "pgp": 0, "GoBack": 2, "SID": 19260, "NameZh": "Gushan Warehouse Industrial Culture Park (Dakeng Rd.)", "RouteId": 9701, "SeqNo": 11, "Terminal": 0, "DistrictId": 1, "Latitude": 22.709841, "Longitude": 120.439158, "IVRNo": 1236, "EXTVoiceNo": 1236, "traveltime": 0, "holidayTraveltime": 0}, {"Id": "0894", "pgp": 0, "GoBack": 2, "SID": 6657, "NameZh": "Gu-Shan Elementary school", "RouteId": 9701, "SeqNo": 12, "Terminal": 0, "DistrictId": 1, "Latitude": 22.708283, "Longitude": 120.43823, "IVRNo": 10894, "EXTVoiceNo": 10894, "traveltime": 0, "holidayTraveltime": 0}, {"Id": "0896", "pgp": 0, "GoBack": 2, "SID": 6658, "NameZh": "Gupoliao", "RouteId": 9701, "SeqNo": 13, "Terminal": 0, "DistrictId": 1, "Latitude": 22.705085, "Longitude": 120.434216, "IVRNo": 10896, "EXTVoiceNo": 10896, "traveltime": 0, "holidayTraveltime": 0}, {"Id": "1368", "pgp": 0, "GoBack": 2, "SID": 6659, "NameZh": "Kunming Temple", "RouteId": 9701, "SeqNo": 14, "Terminal": 0, "DistrictId": 1, "Latitude": 22.7, "Longitude": 120.43332, "IVRNo": 11368, "EXTVoiceNo": 11368, "traveltime": 0, "holidayTraveltime": 0}, {"Id": "9220", "pgp": 0, "GoBack": 2, "SID": 10740, "NameZh": "Jhongjheng 1st. Rd.", "RouteId": 9701, "SeqNo": 15, "Terminal": 0, "DistrictId": 1, "Latitude": 22.693447, "Longitude": 120.434607, "IVRNo": 9772, "EXTVoiceNo": 9220, "traveltime": 0, "holidayTraveltime": 0}, {"Id": "7138", "pgp": 0, "GoBack": 2, "SID": 10741, "NameZh": "Jhongsing E. Rd.", "RouteId": 9701, "SeqNo": 16, "Terminal": 0, "DistrictId": 1, "Latitude": 22.691537, "Longitude": 120.434371, "IVRNo": 9771, "EXTVoiceNo": 17138, "traveltime": 0, "holidayTraveltime": 0}, {"Id": "9217", "pgp": 0, "GoBack": 2, "SID": 10742, "NameZh": "Dashu Farmer`s Association", "RouteId": 9701, "SeqNo": 17, "Terminal": 0, "DistrictId": 1, "Latitude": 22.690884, "Longitude": 120.432193, "IVRNo": 9770, "EXTVoiceNo": 9217, "traveltime": 0, "holidayTraveltime": 0}, {"Id": "9216", "pgp": 0, "GoBack": 2, "SID": 10696, "NameZh": "Shihjian St.", "RouteId": 9701, "SeqNo": 18, "Terminal": 0, "DistrictId": 1, "Latitude": 22.688963, "Longitude": 120.431217, "IVRNo": 9769, "EXTVoiceNo": 9216, "traveltime": 0, "holidayTraveltime": 0}, {"Id": "9319", "pgp": 0, "GoBack": 2, "SID": 10744, "NameZh": "Baoan Temple (Dashu)", "RouteId": 9701, "SeqNo": 19, "Terminal": 0, "DistrictId": 1, "Latitude": 22.687139, "Longitude": 120.430013, "IVRNo": 9465, "EXTVoiceNo": 9319, "traveltime": 0, "holidayTraveltime": 0}, {"Id": "9318", "pgp": 0, "GoBack": 2, "SID": 10745, "NameZh": "Dashu Village", "RouteId": 9701, "SeqNo": 20, "Terminal": 0, "DistrictId": 1, "Latitude": 22.686568, "Longitude": 120.418675, "IVRNo": 9975, "EXTVoiceNo": 9318, "traveltime": 0, "holidayTraveltime": 0}, {"Id": "9317", "pgp": 0, "GoBack": 2, "SID": 10746, "NameZh": "Longmu", "RouteId": 9701, "SeqNo": 21, "Terminal": 0, "DistrictId": 1, "Latitude": 22.685242, "Longitude": 120.416079, "IVRNo": 9974, "EXTVoiceNo": 9317, "traveltime": 0, "holidayTraveltime": 0}, {"Id": "9316", "pgp": 0, "GoBack": 2, "SID": 10747, "NameZh": "Siao Ping Elementary School", "RouteId": 9701, "SeqNo": 22, "Terminal": 0, "DistrictId": 1, "Latitude": 22.682174, "Longitude": 120.411391, "IVRNo": 9973, "EXTVoiceNo": 9316, "traveltime": 0, "holidayTraveltime": 0}, {"Id": "9315", "pgp": 0, "GoBack": 2, "SID": 10748, "NameZh": "Siaopingding", "RouteId": 9701, "SeqNo": 23, "Terminal": 0, "DistrictId": 1, "Latitude": 22.679936, "Longitude": 120.40859, "IVRNo": 9972, "EXTVoiceNo": 9315, "traveltime": 0, "holidayTraveltime": 0}, {"Id": "9314", "pgp": 0, "GoBack": 2, "SID": 10749, "NameZh": "Chongsheng Temple", "RouteId": 9701, "SeqNo": 24, "Terminal": 0, "DistrictId": 1, "Latitude": 22.673538, "Longitude": 120.407908, "IVRNo": 9971, "EXTVoiceNo": 9314, "traveltime": 0, "holidayTraveltime": 0}, {"Id": "9313", "pgp": 0, "GoBack": 2, "SID": 10750, "NameZh": "Jingzih Village", "RouteId": 9701, "SeqNo": 25, "Terminal": 0, "DistrictId": 1, "Latitude": 22.672118, "Longitude": 120.408438, "IVRNo": 9970, "EXTVoiceNo": 9313, "traveltime": 0, "holidayTraveltime": 0}, {"Id": "9312", "pgp": 0, "GoBack": 2, "SID": 10751, "NameZh": "Jingzihjiao", "RouteId": 9701, "SeqNo": 26, "Terminal": 0, "DistrictId": 1, "Latitude": 22.669088, "Longitude": 120.4096, "IVRNo": 9969, "EXTVoiceNo": 9312, "traveltime": 0, "holidayTraveltime": 0}, {"Id": "8946", "pgp": 0, "GoBack": 2, "SID": 11508, "NameZh": "Shueiliao Jhongshan Rd.", "RouteId": 9701, "SeqNo": 27, "Terminal": 0, "DistrictId": 1, "Latitude": 22.667066, "Longitude": 120.409148, "IVRNo": 9372, "EXTVoiceNo": 8946, "traveltime": 0, "holidayTraveltime": 0}, {"Id": "8947", "pgp": 0, "GoBack": 2, "SID": 11509, "NameZh": "Shueiliao", "RouteId": 9701, "SeqNo": 28, "Terminal": 0, "DistrictId": 1, "Latitude": 22.665513, "Longitude": 120.409538, "IVRNo": 9373, "EXTVoiceNo": 8947, "traveltime": 0, "holidayTraveltime": 0}, {"Id": "8948", "pgp": 0, "GoBack": 2, "SID": 11510, "NameZh": "Shueian Village", "RouteId": 9701, "SeqNo": 29, "Terminal": 0, "DistrictId": 1, "Latitude": 22.662662, "Longitude": 120.410893, "IVRNo": 9374, "EXTVoiceNo": 8948, "traveltime": 0, "holidayTraveltime": 0}, {"Id": "8949", "pgp": 0, "GoBack": 2, "SID": 11511, "NameZh": "Hudi Bridge (Dashu)", "RouteId": 9701, "SeqNo": 30, "Terminal": 0, "DistrictId": 1, "Latitude": 22.658228, "Longitude": 120.415491, "IVRNo": 9375, "EXTVoiceNo": 8949, "traveltime": 0, "holidayTraveltime": 0}, {"Id": "9404", "pgp": 0, "GoBack": 2, "SID": 11512, "NameZh": "Dashu Library", "RouteId": 9701, "SeqNo": 31, "Terminal": 0, "DistrictId": 1, "Latitude": 22.65814, "Longitude": 120.41825, "IVRNo": 464, "EXTVoiceNo": 9404, "traveltime": 0, "holidayTraveltime": 0}, {"Id": "9405", "pgp": 0, "GoBack": 2, "SID": 11513, "NameZh": "Jioutang Village (Yongfongyou Paper-Making Industry)", "RouteId": 9701, "SeqNo": 32, "Terminal": 0, "DistrictId": 1, "Latitude": 22.658953, "Longitude": 120.419941, "IVRNo": 465, "EXTVoiceNo": 9405, "traveltime": 0, "holidayTraveltime": 0}, {"Id": "9210", "pgp": 0, "GoBack": 2, "SID": 6190, "NameZh": "Dashu Junior High School", "RouteId": 9701, "SeqNo": 33, "Terminal": 0, "DistrictId": 1, "Latitude": 22.656322, "Longitude": 120.422765, "IVRNo": 8913, "EXTVoiceNo": 9210, "traveltime": 0, "holidayTraveltime": 0}, {"Id": "9210", "pgp": 0, "GoBack": 2, "SID": 14045, "NameZh": "Dashu Junior High School", "RouteId": 9701, "SeqNo": 34, "Terminal": 0, "DistrictId": 1, "Latitude": 22.656334, "Longitude": 120.42273, "IVRNo": 8913, "EXTVoiceNo": 9210, "traveltime": 0, "holidayTraveltime": 0}, {"Id": "9405", "pgp": 0, "GoBack": 2, "SID": 14046, "NameZh": "Jioutang Village (Yongfongyou Paper-Making Industry)", "RouteId": 9701, "SeqNo": 35, "Terminal": 0, "DistrictId": 1, "Latitude": 22.65896, "Longitude": 120.41992, "IVRNo": 465, "EXTVoiceNo": 9405, "traveltime": 0, "holidayTraveltime": 0}, {"Id": "9404", "pgp": 0, "GoBack": 2, "SID": 14128, "NameZh": "Dashu Library", "RouteId": 9701, "SeqNo": 36, "Terminal": 0, "DistrictId": 1, "Latitude": 22.65815, "Longitude": 120.41827, "IVRNo": 464, "EXTVoiceNo": 9404, "traveltime": 0, "holidayTraveltime": 0}, {"Id": "8949", "pgp": 0, "GoBack": 2, "SID": 14129, "NameZh": "Hudi Bridge (Dashu)", "RouteId": 9701, "SeqNo": 37, "Terminal": 0, "DistrictId": 1, "Latitude": 22.658327, "Longitude": 120.415521, "IVRNo": 9375, "EXTVoiceNo": 8949, "traveltime": 0, "holidayTraveltime": 0}, {"Id": "8948", "pgp": 0, "GoBack": 2, "SID": 16074, "NameZh": "Shueian Village", "RouteId": 9701, "SeqNo": 38, "Terminal": 0, "DistrictId": 1, "Latitude": 22.662689, "Longitude": 120.410939, "IVRNo": 9374, "EXTVoiceNo": 8948, "traveltime": 0, "holidayTraveltime": 0}, {"Id": "8947", "pgp": 0, "GoBack": 2, "SID": 16075, "NameZh": "Shueiliao", "RouteId": 9701, "SeqNo": 39, "Terminal": 0, "DistrictId": 1, "Latitude": 22.665538, "Longitude": 120.409569, "IVRNo": 9373, "EXTVoiceNo": 8947, "traveltime": 0, "holidayTraveltime": 0}, {"Id": "8946", "pgp": 0, "GoBack": 2, "SID": 16138, "NameZh": "Shueiliao Jhongshan Rd.", "RouteId": 9701, "SeqNo": 40, "Terminal": 0, "DistrictId": 1, "Latitude": 22.667081, "Longitude": 120.409094, "IVRNo": 9372, "EXTVoiceNo": 8946, "traveltime": 0, "holidayTraveltime": 0}, {"Id": "8945", "pgp": 0, "GoBack": 2, "SID": 6020, "NameZh": "Shueiliao Elementary School", "RouteId": 9701, "SeqNo": 41, "Terminal": 0, "DistrictId": 1, "Latitude": 22.667121, "Longitude": 120.408102, "IVRNo": 9371, "EXTVoiceNo": 8945, "traveltime": 0, "holidayTraveltime": 0}, {"Id": "9209", "pgp": 0, "GoBack": 2, "SID": 6411, "NameZh": "Shueiliao Jhonghua Rd.", "RouteId": 9701, "SeqNo": 42, "Terminal": 0, "DistrictId": 1, "Latitude": 22.663363, "Longitude": 120.40444, "IVRNo": 9760, "EXTVoiceNo": 9209, "traveltime": 0, "holidayTraveltime": 0}, {"Id": "8944", "pgp": 0, "GoBack": 2, "SID": 6021, "NameZh": "Shueimei Gas Station", "RouteId": 9701, "SeqNo": 43, "Terminal": 0, "DistrictId": 1, "Latitude": 22.6586, "Longitude": 120.3995, "IVRNo": 9370, "EXTVoiceNo": 8944, "traveltime": 0, "holidayTraveltime": 0}, {"Id": "8943", "pgp": 0, "GoBack": 2, "SID": 6022, "NameZh": "Renmei Elementary School", "RouteId": 9701, "SeqNo": 44, "Terminal": 0, "DistrictId": 1, "Latitude": 22.657972, "Longitude": 120.394495, "IVRNo": 9369, "EXTVoiceNo": 8943, "traveltime": 0, "holidayTraveltime": 0}, {"Id": "9020", "pgp": 0, "GoBack": 2, "SID": 10753, "NameZh": "Gaoma", "RouteId": 9701, "SeqNo": 45, "Terminal": 0, "DistrictId": 1, "Latitude": 22.658185, "Longitude": 120.389321, "IVRNo": 9538, "EXTVoiceNo": 9020, "traveltime": 0, "holidayTraveltime": 0}, {"Id": "8942", "pgp": 0, "GoBack": 2, "SID": 6023, "NameZh": "Dipu", "RouteId": 9701, "SeqNo": 46, "Terminal": 0, "DistrictId": 1, "Latitude": 22.658044, "Longitude": 120.384522, "IVRNo": 9368, "EXTVoiceNo": 8942, "traveltime": 0, "holidayTraveltime": 0}, {"Id": "2632", "pgp": 0, "GoBack": 2, "SID": 10754, "NameZh": "Songbu Rd. Intersection (Yuanjhao Temple)", "RouteId": 9701, "SeqNo": 47, "Terminal": 0, "DistrictId": 1, "Latitude": 22.6591, "Longitude": 120.3802, "IVRNo": 5690, "EXTVoiceNo": 2632, "traveltime": 0, "holidayTraveltime": 0}, {"Id": "0243", "pgp": 0, "GoBack": 2, "SID": 9064, "NameZh": "Shueiguan Rd. Intersection (Shennong Rd.)", "RouteId": 9701, "SeqNo": 48, "Terminal": 0, "DistrictId": 1, "Latitude": 22.659614, "Longitude": 120.373377, "IVRNo": 1238, "EXTVoiceNo": 20243, "traveltime": 0, "holidayTraveltime": 0}, {"Id": "4332", "pgp": 0, "GoBack": 2, "SID": 6024, "NameZh": "Niaosong District Office (Shennong Rd.)", "RouteId": 9701, "SeqNo": 49, "Terminal": 0, "DistrictId": 1, "Latitude": 22.6593, "Longitude": 120.3652, "IVRNo": 9367, "EXTVoiceNo": 14332, "traveltime": 0, "holidayTraveltime": 0}, {"Id": "7705", "pgp": 0, "GoBack": 2, "SID": 2592, "NameZh": "Jhongcheng Rd. Intersection", "RouteId": 9701, "SeqNo": 50, "Terminal": 0, "DistrictId": 1, "Latitude": 22.658, "Longitude": 120.3609, "IVRNo": 864, "EXTVoiceNo": 7705, "traveltime": 0, "holidayTraveltime": 0}, {"Id": "1912", "pgp": 0, "GoBack": 2, "SID": 2548, "NameZh": "Chengcing Lake Baseball Field", "RouteId": 9701, "SeqNo": 51, "Terminal": 0, "DistrictId": 1, "Latitude": 22.6553, "Longitude": 120.36, "IVRNo": 11912, "EXTVoiceNo": 11912, "traveltime": 0, "holidayTraveltime": 0}, {"Id": "8941", "pgp": 0, "GoBack": 2, "SID": 6040, "NameZh": "The Labor Recreation Center", "RouteId": 9701, "SeqNo": 52, "Terminal": 0, "DistrictId": 1, "Latitude": 22.652809, "Longitude": 120.359709, "IVRNo": 9411, "EXTVoiceNo": 8941, "traveltime": 0, "holidayTraveltime": 0}, {"Id": "3534", "pgp": 0, "GoBack": 2, "SID": 2550, "NameZh": "Chang Gung Memorial Hospital", "RouteId": 9701, "SeqNo": 53, "Terminal": 0, "DistrictId": 1, "Latitude": 22.650933, "Longitude": 120.356409, "IVRNo": 3534, "EXTVoiceNo": 3534, "traveltime": 0, "holidayTraveltime": 0}, {"Id": "0636", "pgp": 0, "GoBack": 2, "SID": 2563, "NameZh": "Cheng Shiu University (Chengcing Lake)", "RouteId": 9701, "SeqNo": 54, "Terminal": 0, "DistrictId": 1, "Latitude": 22.651522, "Longitude": 120.348916, "IVRNo": 3533, "EXTVoiceNo": 10636, "traveltime": 0, "holidayTraveltime": 0}, {"Id": "8939", "pgp": 0, "GoBack": 2, "SID": 6032, "NameZh": "Chengyuan", "RouteId": 9701, "SeqNo": 55, "Terminal": 0, "DistrictId": 1, "Latitude": 22.6471, "Longitude": 120.3475, "IVRNo": 9403, "EXTVoiceNo": 8939, "traveltime": 0, "holidayTraveltime": 0}, {"Id": "8938", "pgp": 0, "GoBack": 2, "SID": 6033, "NameZh": "Binshan St. Intersection", "RouteId": 9701, "SeqNo": 56, "Terminal": 0, "DistrictId": 1, "Latitude": 22.6451, "Longitude": 120.3501, "IVRNo": 9402, "EXTVoiceNo": 8938, "traveltime": 0, "holidayTraveltime": 0}, {"Id": "8937", "pgp": 0, "GoBack": 2, "SID": 6034, "NameZh": "Wunheng Rd. Intersection", "RouteId": 9701, "SeqNo": 57, "Terminal": 0, "DistrictId": 1, "Latitude": 22.641284, "Longitude": 120.351276, "IVRNo": 451, "EXTVoiceNo": 8937, "traveltime": 0, "holidayTraveltime": 0}, {"Id": "8956", "pgp": 0, "GoBack": 2, "SID": 6035, "NameZh": "Wunde Elementary School", "RouteId": 9701, "SeqNo": 58, "Terminal": 0, "DistrictId": 1, "Latitude": 22.640353, "Longitude": 120.353508, "IVRNo": 9400, "EXTVoiceNo": 8956, "traveltime": 0, "holidayTraveltime": 0}, {"Id": "9010", "pgp": 0, "GoBack": 2, "SID": 10755, "NameZh": "Wunshan Lane", "RouteId": 9701, "SeqNo": 59, "Terminal": 0, "DistrictId": 1, "Latitude": 22.63968, "Longitude": 120.356405, "IVRNo": 9518, "EXTVoiceNo": 9010, "traveltime": 0, "holidayTraveltime": 0}, {"Id": "0051", "pgp": 0, "GoBack": 2, "SID": 18494, "NameZh": "Wunying Village", "RouteId": 9701, "SeqNo": 60, "Terminal": 0, "DistrictId": 1, "Latitude": 22.637662, "Longitude": 120.356498, "IVRNo": 992, "EXTVoiceNo": 51, "traveltime": 0, "holidayTraveltime": 0}, {"Id": "8936", "pgp": 0, "GoBack": 2, "SID": 6036, "NameZh": "National Feng-Shan Commercial & Industrial Vocational School", "RouteId": 9701, "SeqNo": 61, "Terminal": 0, "DistrictId": 1, "Latitude": 22.634392, "Longitude": 120.358239, "IVRNo": 148, "EXTVoiceNo": 8936, "traveltime": 0, "holidayTraveltime": 0}, {"Id": "9009", "pgp": 0, "GoBack": 2, "SID": 10758, "NameZh": "RT-MART", "RouteId": 9701, "SeqNo": 62, "Terminal": 0, "DistrictId": 1, "Latitude": 22.633775, "Longitude": 120.355614, "IVRNo": 9515, "EXTVoiceNo": 9009, "traveltime": 0, "holidayTraveltime": 0}, {"Id": "8935", "pgp": 0, "GoBack": 2, "SID": 6037, "NameZh": "Wunhua Elementary School", "RouteId": 9701, "SeqNo": 63, "Terminal": 0, "DistrictId": 1, "Latitude": 22.634382, "Longitude": 120.352135, "IVRNo": 9398, "EXTVoiceNo": 8935, "traveltime": 0, "holidayTraveltime": 0}, {"Id": "2498", "pgp": 0, "GoBack": 2, "SID": 19018, "NameZh": "Fongshan Administration Center (Chengcing Rd.)", "RouteId": 9701, "SeqNo": 64, "Terminal": 0, "DistrictId": 1, "Latitude": 22.630033, "Longitude": 120.344378, "IVRNo": 2498, "EXTVoiceNo": 2498, "traveltime": 0, "holidayTraveltime": 0}, {"Id": "3528", "pgp": 0, "GoBack": 2, "SID": 3604, "NameZh": "Fongshan Administration Center (Jhongshan W. Rd.)", "RouteId": 9701, "SeqNo": 65, "Terminal": 0, "DistrictId": 1, "Latitude": 22.628133, "Longitude": 120.343836, "IVRNo": 502, "EXTVoiceNo": 13528, "traveltime": 0, "holidayTraveltime": 0}, {"Id": "0980", "pgp": 0, "GoBack": 2, "SID": 2063, "NameZh": "Kaohsiung Armed Forces General Hospital", "RouteId": 9701, "SeqNo": 66, "Terminal": 0, "DistrictId": 1, "Latitude": 22.626747, "Longitude": 120.342243, "IVRNo": 2, "EXTVoiceNo": 20980, "traveltime": 0, "holidayTraveltime": 0}, {"Id": "0002", "pgp": 0, "GoBack": 2, "SID": 6, "NameZh": "Jianjun Station (MRT Weiwuying Station)", "RouteId": 9701, "SeqNo": 67, "Terminal": 1, "DistrictId": 1, "Latitude": 22.624966, "Longitude": 120.343291, "IVRNo": 1, "EXTVoiceNo": 2, "traveltime": 0, "holidayTraveltime": 0}], "zh": [{"Id": "0002", "pgp": 0, "GoBack": 1, "SID": 16, "NameZh": "\u5efa\u8ecd\u7ad9(\u6377\u904b\u885b\u6b66\u71df\u7ad9)", "RouteId": 9701, "SeqNo": 1, "Terminal": 0, "DistrictId": 1, "Latitude": 22.624975, "Longitude": 120.343796, "IVRNo": 1, "EXTVoiceNo": 2, "traveltime": 0, "holidayTraveltime": 0}, {"Id": "0980", "pgp": 0, "GoBack": 1, "SID": 982, "NameZh": "\u570b\u8ecd\u9ad8\u96c4\u7e3d\u91ab\u9662", "RouteId": 9701, "SeqNo": 2, "Terminal": 0, "DistrictId": 1, "Latitude": 22.6263, "Longitude": 120.3423, "IVRNo": 2, "EXTVoiceNo": 20980, "traveltime": 0, "holidayTraveltime": 0}, {"Id": "3528", "pgp": 0, "GoBack": 1, "SID": 3602, "NameZh": "\u9cf3\u5c71\u884c\u653f\u4e2d\u5fc3(\u4e2d\u5c71\u897f\u8def)", "RouteId": 9701, "SeqNo": 3, "Terminal": 0, "DistrictId": 1, "Latitude": 22.6281, "Longitude": 120.3437, "IVRNo": 502, "EXTVoiceNo": 13528, "traveltime": 0, "holidayTraveltime": 0}, {"Id": "2498", "pgp": 0, "GoBack": 1, "SID": 19017, "NameZh": "\u9cf3\u5c71\u884c\u653f\u4e2d\u5fc3(\u6f84\u6e05\u8def)", "RouteId": 9701, "SeqNo": 4, "Terminal": 0, "DistrictId": 1, "Latitude": 22.63043, "Longitude": 120.344552, "IVRNo": 2498, "EXTVoiceNo": 2498, "traveltime": 0, "holidayTraveltime": 0}, {"Id": "8935", "pgp": 0, "GoBack": 1, "SID": 6026, "NameZh": "\u6587\u83ef\u570b\u5c0f", "RouteId": 9701, "SeqNo": 5, "Terminal": 0, "DistrictId": 1, "Latitude": 22.634293, "Longitude": 120.35251, "IVRNo": 9398, "EXTVoiceNo": 8935, "traveltime": 0, "holidayTraveltime": 0}, {"Id": "9009", "pgp": 0, "GoBack": 1, "SID": 10721, "NameZh": "\u5927\u6f64\u767c", "RouteId": 9701, "SeqNo": 6, "Terminal": 0, "DistrictId": 1, "Latitude": 22.63358, "Longitude": 120.355761, "IVRNo": 9515, "EXTVoiceNo": 9009, "traveltime": 0, "holidayTraveltime": 0}, {"Id": "8936", "pgp": 0, "GoBack": 1, "SID": 6027, "NameZh": "\u9cf3\u5c71\u5546\u5de5", "RouteId": 9701, "SeqNo": 7, "Terminal": 0, "DistrictId": 1, "Latitude": 22.6338, "Longitude": 120.3582, "IVRNo": 148, "EXTVoiceNo": 8936, "traveltime": 0, "holidayTraveltime": 0}, {"Id": "0051", "pgp": 0, "GoBack": 1, "SID": 18493, "NameZh": "\u6587\u82f1\u91cc", "RouteId": 9701, "SeqNo": 8, "Terminal": 0, "DistrictId": 1, "Latitude": 22.637844, "Longitude": 120.356401, "IVRNo": 992, "EXTVoiceNo": 51, "traveltime": 0, "holidayTraveltime": 0}, {"Id": "9010", "pgp": 0, "GoBack": 1, "SID": 10683, "NameZh": "\u6587\u5c71\u91cc", "RouteId": 9701, "SeqNo": 9, "Terminal": 0, "DistrictId": 1, "Latitude": 22.63989, "Longitude": 120.356195, "IVRNo": 9518, "EXTVoiceNo": 9010, "traveltime": 0, "holidayTraveltime": 0}, {"Id": "8956", "pgp": 0, "GoBack": 1, "SID": 6028, "NameZh": "\u6587\u5fb7\u570b\u5c0f", "RouteId": 9701, "SeqNo": 10, "Terminal": 0, "DistrictId": 1, "Latitude": 22.6403, "Longitude": 120.3537, "IVRNo": 9400, "EXTVoiceNo": 8956, "traveltime": 0, "holidayTraveltime": 0}, {"Id": "8937", "pgp": 0, "GoBack": 1, "SID": 6029, "NameZh": "\u6587\u8861\u8def\u53e3", "RouteId": 9701, "SeqNo": 11, "Terminal": 0, "DistrictId": 1, "Latitude": 22.6411, "Longitude": 120.3512, "IVRNo": 451, "EXTVoiceNo": 8937, "traveltime": 0, "holidayTraveltime": 0}, {"Id": "8938", "pgp": 0, "GoBack": 1, "SID": 6030, "NameZh": "\u6ff1\u5c71\u8857\u53e3", "RouteId": 9701, "SeqNo": 12, "Terminal": 0, "DistrictId": 1, "Latitude": 22.645076, "Longitude": 120.350161, "IVRNo": 9402, "EXTVoiceNo": 8938, "traveltime": 0, "holidayTraveltime": 0}, {"Id": "8939", "pgp": 0, "GoBack": 1, "SID": 6031, "NameZh": "\u6f84\u5712", "RouteId": 9701, "SeqNo": 13, "Terminal": 0, "DistrictId": 1, "Latitude": 22.647472, "Longitude": 120.347189, "IVRNo": 9403, "EXTVoiceNo": 8939, "traveltime": 0, "holidayTraveltime": 0}, {"Id": "0636", "pgp": 0, "GoBack": 1, "SID": 2519, "NameZh": "\u6b63\u4fee\u79d1\u5927(\u6f84\u6e05\u6e56)", "RouteId": 9701, "SeqNo": 14, "Terminal": 0, "DistrictId": 1, "Latitude": 22.6512, "Longitude": 120.3489, "IVRNo": 3533, "EXTVoiceNo": 10636, "traveltime": 0, "holidayTraveltime": 0}, {"Id": "3546", "pgp": 0, "GoBack": 1, "SID": 2588, "NameZh": "\u9577\u5e9a\u5fa9\u5065\u5927\u6a13", "RouteId": 9701, "SeqNo": 15, "Terminal": 0, "DistrictId": 1, "Latitude": 22.6505, "Longitude": 120.3531, "IVRNo": 3546, "EXTVoiceNo": 3546, "traveltime": 0, "holidayTraveltime": 0}, {"Id": "3534", "pgp": 0, "GoBack": 1, "SID": 2552, "NameZh": "\u9577\u5e9a\u91ab\u9662", "RouteId": 9701, "SeqNo": 16, "Terminal": 0, "DistrictId": 1, "Latitude": 22.6508, "Longitude": 120.3566, "IVRNo": 3534, "EXTVoiceNo": 3534, "traveltime": 0, "holidayTraveltime": 0}, {"Id": "8941", "pgp": 0, "GoBack": 1, "SID": 6039, "NameZh": "\u52de\u5de5\u80b2\u6a02\u4e2d\u5fc3", "RouteId": 9701, "SeqNo": 17, "Terminal": 0, "DistrictId": 1, "Latitude": 22.652948, "Longitude": 120.35972, "IVRNo": 9411, "EXTVoiceNo": 8941, "traveltime": 0, "holidayTraveltime": 0}, {"Id": "1912", "pgp": 0, "GoBack": 1, "SID": 2535, "NameZh": "\u6f84\u6e05\u6e56\u68d2\u7403\u5834", "RouteId": 9701, "SeqNo": 18, "Terminal": 0, "DistrictId": 1, "Latitude": 22.6555, "Longitude": 120.3599, "IVRNo": 11912, "EXTVoiceNo": 11912, "traveltime": 0, "holidayTraveltime": 0}, {"Id": "7705", "pgp": 0, "GoBack": 1, "SID": 2536, "NameZh": "\u5fe0\u8aa0\u8def\u53e3", "RouteId": 9701, "SeqNo": 19, "Terminal": 0, "DistrictId": 1, "Latitude": 22.6582, "Longitude": 120.361, "IVRNo": 864, "EXTVoiceNo": 7705, "traveltime": 0, "holidayTraveltime": 0}, {"Id": "4332", "pgp": 0, "GoBack": 1, "SID": 5995, "NameZh": "\u9ce5\u677e\u5340\u516c\u6240(\u795e\u8fb2\u8def)", "RouteId": 9701, "SeqNo": 20, "Terminal": 0, "DistrictId": 1, "Latitude": 22.659086, "Longitude": 120.36487, "IVRNo": 9367, "EXTVoiceNo": 14332, "traveltime": 0, "holidayTraveltime": 0}, {"Id": "0243", "pgp": 0, "GoBack": 1, "SID": 12113, "NameZh": "\u6c34\u7ba1\u8def\u53e3(\u795e\u8fb2\u8def)", "RouteId": 9701, "SeqNo": 21, "Terminal": 0, "DistrictId": 1, "Latitude": 22.659406, "Longitude": 120.37306, "IVRNo": 1238, "EXTVoiceNo": 20243, "traveltime": 0, "holidayTraveltime": 0}, {"Id": "2632", "pgp": 0, "GoBack": 1, "SID": 10725, "NameZh": "\u677e\u57d4\u8def\u53e3(\u5713\u7167\u5bfa)", "RouteId": 9701, "SeqNo": 22, "Terminal": 0, "DistrictId": 1, "Latitude": 22.659156, "Longitude": 120.380266, "IVRNo": 5690, "EXTVoiceNo": 2632, "traveltime": 0, "holidayTraveltime": 0}, {"Id": "8942", "pgp": 0, "GoBack": 1, "SID": 5996, "NameZh": "\u5754\u57d4", "RouteId": 9701, "SeqNo": 23, "Terminal": 0, "DistrictId": 1, "Latitude": 22.657968, "Longitude": 120.384756, "IVRNo": 9368, "EXTVoiceNo": 8942, "traveltime": 0, "holidayTraveltime": 0}, {"Id": "9020", "pgp": 0, "GoBack": 1, "SID": 10726, "NameZh": "\u9ad8\u78bc", "RouteId": 9701, "SeqNo": 24, "Terminal": 0, "DistrictId": 1, "Latitude": 22.658146, "Longitude": 120.389149, "IVRNo": 9538, "EXTVoiceNo": 9020, "traveltime": 0, "holidayTraveltime": 0}, {"Id": "8943", "pgp": 0, "GoBack": 1, "SID": 5997, "NameZh": "\u4ec1\u7f8e\u570b\u5c0f", "RouteId": 9701, "SeqNo": 25, "Terminal": 0, "DistrictId": 1, "Latitude": 22.65827, "Longitude": 120.393076, "IVRNo": 9369, "EXTVoiceNo": 8943, "traveltime": 0, "holidayTraveltime": 0}, {"Id": "8944", "pgp": 0, "GoBack": 1, "SID": 5998, "NameZh": "\u6c34\u7f8e\u52a0\u6cb9\u7ad9", "RouteId": 9701, "SeqNo": 26, "Terminal": 0, "DistrictId": 1, "Latitude": 22.658265, "Longitude": 120.399513, "IVRNo": 9370, "EXTVoiceNo": 8944, "traveltime": 0, "holidayTraveltime": 0}, {"Id": "9209", "pgp": 0, "GoBack": 1, "SID": 6410, "NameZh": "\u6c34\u5bee\u4e2d\u83ef\u8def", "RouteId": 9701, "SeqNo": 27, "Terminal": 0, "DistrictId": 1, "Latitude": 22.663363, "Longitude": 120.40444, "IVRNo": 9760, "EXTVoiceNo": 9209, "traveltime": 0, "holidayTraveltime": 0}, {"Id": "8945", "pgp": 0, "GoBack": 1, "SID": 5999, "NameZh": "\u6c34\u5bee\u570b\u5c0f", "RouteId": 9701, "SeqNo": 28, "Terminal": 0, "DistrictId": 1, "Latitude": 22.666957, "Longitude": 120.407689, "IVRNo": 9371, "EXTVoiceNo": 8945, "traveltime": 0, "holidayTraveltime": 0}, {"Id": "8946", "pgp": 0, "GoBack": 1, "SID": 11493, "NameZh": "\u6c34\u5bee\u4e2d\u5c71\u8def", "RouteId": 9701, "SeqNo": 29, "Terminal": 0, "DistrictId": 1, "Latitude": 22.667083, "Longitude": 120.409118, "IVRNo": 9372, "EXTVoiceNo": 8946, "traveltime": 0, "holidayTraveltime": 0}, {"Id": "8947", "pgp": 0, "GoBack": 1, "SID": 11494, "NameZh": "\u6c34\u5bee", "RouteId": 9701, "SeqNo": 30, "Terminal": 0, "DistrictId": 1, "Latitude": 22.665571, "Longitude": 120.409523, "IVRNo": 9373, "EXTVoiceNo": 8947, "traveltime": 0, "holidayTraveltime": 0}, {"Id": "8948", "pgp": 0, "GoBack": 1, "SID": 11495, "NameZh": "\u6c34\u5b89\u91cc", "RouteId": 9701, "SeqNo": 31, "Terminal": 0, "DistrictId": 1, "Latitude": 22.662636, "Longitude": 120.410972, "IVRNo": 9374, "EXTVoiceNo": 8948, "traveltime": 0, "holidayTraveltime": 0}, {"Id": "8949", "pgp": 0, "GoBack": 1, "SID": 11496, "NameZh": "\u6e56\u5e95\u6a4b(\u5927\u6a39)", "RouteId": 9701, "SeqNo": 32, "Terminal": 0, "DistrictId": 1, "Latitude": 22.658185, "Longitude": 120.415714, "IVRNo": 9375, "EXTVoiceNo": 8949, "traveltime": 0, "holidayTraveltime": 0}, {"Id": "9404", "pgp": 0, "GoBack": 1, "SID": 11497, "NameZh": "\u5927\u6a39\u5716\u66f8\u9928", "RouteId": 9701, "SeqNo": 33, "Terminal": 0, "DistrictId": 1, "Latitude": 22.658413, "Longitude": 120.419072, "IVRNo": 464, "EXTVoiceNo": 9404, "traveltime": 0, "holidayTraveltime": 0}, {"Id": "9405", "pgp": 0, "GoBack": 1, "SID": 11498, "NameZh": "\u4e45\u5802\u91cc(\u6c38\u8c50\u9918\u9020\u7d19)", "RouteId": 9701, "SeqNo": 34, "Terminal": 0, "DistrictId": 1, "Latitude": 22.659185, "Longitude": 120.420595, "IVRNo": 465, "EXTVoiceNo": 9405, "traveltime": 0, "holidayTraveltime": 0}, {"Id": "9210", "pgp": 0, "GoBack": 1, "SID": 11499, "NameZh": "\u5927\u6a39\u570b\u4e2d", "RouteId": 9701, "SeqNo": 35, "Terminal": 0, "DistrictId": 1, "Latitude": 22.656322, "Longitude": 120.422765, "IVRNo": 8913, "EXTVoiceNo": 9210, "traveltime": 0, "holidayTraveltime": 0}, {"Id": "9405", "pgp": 0, "GoBack": 1, "SID": 11501, "NameZh": "\u4e45\u5802\u91cc(\u6c38\u8c50\u9918\u9020\u7d19)", "RouteId": 9701, "SeqNo": 36, "Terminal": 0, "DistrictId": 1, "Latitude": 22.659245, "Longitude": 120.420552, "IVRNo": 465, "EXTVoiceNo": 9405, "traveltime": 0, "holidayTraveltime": 0}, {"Id": "9404", "pgp": 0, "GoBack": 1, "SID": 11502, "NameZh": "\u5927\u6a39\u5716\u66f8\u9928", "RouteId": 9701, "SeqNo": 37, "Terminal": 0, "DistrictId": 1, "Latitude": 22.658482, "Longitude": 120.419072, "IVRNo": 464, "EXTVoiceNo": 9404, "traveltime": 0, "holidayTraveltime": 0}, {"Id": "8949", "pgp": 0, "GoBack": 1, "SID": 11503, "NameZh": "\u6e56\u5e95\u6a4b(\u5927\u6a39)", "RouteId": 9701, "SeqNo": 38, "Terminal": 0, "DistrictId": 1, "Latitude": 22.658166, "Longitude": 120.415692, "IVRNo": 9375, "EXTVoiceNo": 8949, "traveltime": 0, "holidayTraveltime": 0}, {"Id": "8948", "pgp": 0, "GoBack": 1, "SID": 11504, "NameZh": "\u6c34\u5b89\u91cc", "RouteId": 9701, "SeqNo": 39, "Terminal": 0, "DistrictId": 1, "Latitude": 22.662571, "Longitude": 120.410961, "IVRNo": 9374, "EXTVoiceNo": 8948, "traveltime": 0, "holidayTraveltime": 0}, {"Id": "8947", "pgp": 0, "GoBack": 1, "SID": 11505, "NameZh": "\u6c34\u5bee", "RouteId": 9701, "SeqNo": 40, "Terminal": 0, "DistrictId": 1, "Latitude": 22.665551, "Longitude": 120.409502, "IVRNo": 9373, "EXTVoiceNo": 8947, "traveltime": 0, "holidayTraveltime": 0}, {"Id": "8946", "pgp": 0, "GoBack": 1, "SID": 11506, "NameZh": "\u6c34\u5bee\u4e2d\u5c71\u8def", "RouteId": 9701, "SeqNo": 41, "Terminal": 0, "DistrictId": 1, "Latitude": 22.667076, "Longitude": 120.409105, "IVRNo": 9372, "EXTVoiceNo": 8946, "traveltime": 0, "holidayTraveltime": 0}, {"Id": "9312", "pgp": 0, "GoBack": 1, "SID": 10728, "NameZh": "\u4e95\u4ed4\u8173", "RouteId": 9701, "SeqNo": 42, "Terminal": 0, "DistrictId": 1, "Latitude": 22.669197, "Longitude": 120.409694, "IVRNo": 9969, "EXTVoiceNo": 9312, "traveltime": 0, "holidayTraveltime": 0}, {"Id": "9313", "pgp": 0, "GoBack": 1, "SID": 10729, "NameZh": "\u4e95\u8173\u91cc", "RouteId": 9701, "SeqNo": 43, "Terminal": 0, "DistrictId": 1, "Latitude": 22.67209, "Longitude": 120.408538, "IVRNo": 9970, "EXTVoiceNo": 9313, "traveltime": 0, "holidayTraveltime": 0}, {"Id": "9314", "pgp": 0, "GoBack": 1, "SID": 10730, "NameZh": "\u5d07\u8056\u6bbf", "RouteId": 9701, "SeqNo": 44, "Terminal": 0, "DistrictId": 1, "Latitude": 22.674046, "Longitude": 120.40781, "IVRNo": 9971, "EXTVoiceNo": 9314, "traveltime": 0, "holidayTraveltime": 0}, {"Id": "9315", "pgp": 0, "GoBack": 1, "SID": 10731, "NameZh": "\u5c0f\u576a\u9802", "RouteId": 9701, "SeqNo": 45, "Terminal": 0, "DistrictId": 1, "Latitude": 22.680114, "Longitude": 120.408697, "IVRNo": 9972, "EXTVoiceNo": 9315, "traveltime": 0, "holidayTraveltime": 0}, {"Id": "9316", "pgp": 0, "GoBack": 1, "SID": 10732, "NameZh": "\u5c0f\u576a\u570b\u5c0f", "RouteId": 9701, "SeqNo": 46, "Terminal": 0, "DistrictId": 1, "Latitude": 22.681815, "Longitude": 120.411152, "IVRNo": 9973, "EXTVoiceNo": 9316, "traveltime": 0, "holidayTraveltime": 0}, {"Id": "9317", "pgp": 0, "GoBack": 1, "SID": 10733, "NameZh": "\u9f8d\u76ee", "RouteId": 9701, "SeqNo": 47, "Terminal": 0, "DistrictId": 1, "Latitude": 22.685558, "Longitude": 120.416508, "IVRNo": 9974, "EXTVoiceNo": 9317, "traveltime": 0, "holidayTraveltime": 0}, {"Id": "9318", "pgp": 0, "GoBack": 1, "SID": 10734, "NameZh": "\u5927\u6a39\u91cc", "RouteId": 9701, "SeqNo": 48, "Terminal": 0, "DistrictId": 1, "Latitude": 22.686588, "Longitude": 120.418568, "IVRNo": 9975, "EXTVoiceNo": 9318, "traveltime": 0, "holidayTraveltime": 0}, {"Id": "9319", "pgp": 0, "GoBack": 1, "SID": 10735, "NameZh": "\u4fdd\u5b89\u5bae(\u5927\u6a39)", "RouteId": 9701, "SeqNo": 49, "Terminal": 0, "DistrictId": 1, "Latitude": 22.687095, "Longitude": 120.429782, "IVRNo": 9465, "EXTVoiceNo": 9319, "traveltime": 0, "holidayTraveltime": 0}, {"Id": "9216", "pgp": 0, "GoBack": 1, "SID": 10736, "NameZh": "\u5be6\u8e10\u8857", "RouteId": 9701, "SeqNo": 50, "Terminal": 0, "DistrictId": 1, "Latitude": 22.688898, "Longitude": 120.431048, "IVRNo": 9769, "EXTVoiceNo": 9216, "traveltime": 0, "holidayTraveltime": 0}, {"Id": "0298", "pgp": 0, "GoBack": 1, "SID": 13061, "NameZh": "\u5e02\u7acb\u5716\u66f8\u9928(\u5927\u6a39\u5206\u9928)", "RouteId": 9701, "SeqNo": 51, "Terminal": 0, "DistrictId": 1, "Latitude": 22.691069, "Longitude": 120.430948, "IVRNo": 496, "EXTVoiceNo": 20298, "traveltime": 0, "holidayTraveltime": 0}, {"Id": "1231", "pgp": 0, "GoBack": 1, "SID": 13062, "NameZh": "\u5317\u6975\u6bbf(\u5927\u6a39)", "RouteId": 9701, "SeqNo": 52, "Terminal": 0, "DistrictId": 1, "Latitude": 22.69374, "Longitude": 120.42613, "IVRNo": 1231, "EXTVoiceNo": 1231, "traveltime": 0, "holidayTraveltime": 0}, {"Id": "4641", "pgp": 0, "GoBack": 1, "SID": 11267, "NameZh": "\u548c\u5c71\u5bfa", "RouteId": 9701, "SeqNo": 53, "Terminal": 0, "DistrictId": 1, "Latitude": 22.70569, "Longitude": 120.41701, "IVRNo": 4641, "EXTVoiceNo": 4641, "traveltime": 0, "holidayTraveltime": 0}, {"Id": "4642", "pgp": 0, "GoBack": 1, "SID": 11268, "NameZh": "\u5927\u6a39\u570b\u5c0f(\u548c\u5c71\u5206\u6821)", "RouteId": 9701, "SeqNo": 54, "Terminal": 0, "DistrictId": 1, "Latitude": 22.70379, "Longitude": 120.41702, "IVRNo": 4642, "EXTVoiceNo": 4642, "traveltime": 0, "holidayTraveltime": 0}, {"Id": "4643", "pgp": 0, "GoBack": 1, "SID": 11269, "NameZh": "\u548c\u5c71\u8def", "RouteId": 9701, "SeqNo": 55, "Terminal": 0, "DistrictId": 1, "Latitude": 22.70154, "Longitude": 120.41732, "IVRNo": 4643, "EXTVoiceNo": 4643, "traveltime": 0, "holidayTraveltime": 0}, {"Id": "0456", "pgp": 0, "GoBack": 1, "SID": 13063, "NameZh": "\u548c\u5c71\u793e\u5340", "RouteId": 9701, "SeqNo": 56, "Terminal": 0, "DistrictId": 1, "Latitude": 22.69733, "Longitude": 120.41962, "IVRNo": 498, "EXTVoiceNo": 20456, "traveltime": 0, "holidayTraveltime": 0}, {"Id": "1231", "pgp": 0, "GoBack": 1, "SID": 13064, "NameZh": "\u5317\u6975\u6bbf(\u5927\u6a39)", "RouteId": 9701, "SeqNo": 57, "Terminal": 0, "DistrictId": 1, "Latitude": 22.6936, "Longitude": 120.42616, "IVRNo": 1231, "EXTVoiceNo": 1231, "traveltime": 0, "holidayTraveltime": 0}, {"Id": "0298", "pgp": 0, "GoBack": 1, "SID": 13065, "NameZh": "\u5e02\u7acb\u5716\u66f8\u9928(\u5927\u6a39\u5206\u9928)", "RouteId": 9701, "SeqNo": 58, "Terminal": 0, "DistrictId": 1, "Latitude": 22.691138, "Longitude": 120.430682, "IVRNo": 496, "EXTVoiceNo": 20298, "traveltime": 0, "holidayTraveltime": 0}, {"Id": "9217", "pgp": 0, "GoBack": 1, "SID": 10737, "NameZh": "\u5927\u6a39\u8fb2\u6703", "RouteId": 9701, "SeqNo": 59, "Terminal": 0, "DistrictId": 1, "Latitude": 22.690973, "Longitude": 120.432719, "IVRNo": 9770, "EXTVoiceNo": 9217, "traveltime": 0, "holidayTraveltime": 0}, {"Id": "9218", "pgp": 0, "GoBack": 1, "SID": 10738, "NameZh": "\u5927\u6a39\u5340\u516c\u6240", "RouteId": 9701, "SeqNo": 60, "Terminal": 0, "DistrictId": 1, "Latitude": 22.69317, "Longitude": 120.432944, "IVRNo": 9774, "EXTVoiceNo": 9218, "traveltime": 0, "holidayTraveltime": 0}, {"Id": "9219", "pgp": 0, "GoBack": 1, "SID": 15880, "NameZh": "\u4e2d\u8208\u5317\u8def", "RouteId": 9701, "SeqNo": 61, "Terminal": 0, "DistrictId": 1, "Latitude": 22.695473, "Longitude": 120.433083, "IVRNo": 9773, "EXTVoiceNo": 9219, "traveltime": 0, "holidayTraveltime": 0}, {"Id": "1368", "pgp": 0, "GoBack": 1, "SID": 6779, "NameZh": "\u5d11\u660e\u5bfa", "RouteId": 9701, "SeqNo": 62, "Terminal": 0, "DistrictId": 1, "Latitude": 22.69995, "Longitude": 120.43349, "IVRNo": 11368, "EXTVoiceNo": 11368, "traveltime": 0, "holidayTraveltime": 0}, {"Id": "0896", "pgp": 0, "GoBack": 1, "SID": 6780, "NameZh": "\u59d1\u5a46\u5bee", "RouteId": 9701, "SeqNo": 63, "Terminal": 0, "DistrictId": 1, "Latitude": 22.70501, "Longitude": 120.43433, "IVRNo": 10896, "EXTVoiceNo": 10896, "traveltime": 0, "holidayTraveltime": 0}, {"Id": "0894", "pgp": 0, "GoBack": 1, "SID": 6781, "NameZh": "\u59d1\u5c71\u570b\u5c0f", "RouteId": 9701, "SeqNo": 64, "Terminal": 0, "DistrictId": 1, "Latitude": 22.70834, "Longitude": 120.43815, "IVRNo": 10894, "EXTVoiceNo": 10894, "traveltime": 0, "holidayTraveltime": 0}, {"Id": "1236", "pgp": 0, "GoBack": 1, "SID": 19259, "NameZh": "\u59d1\u5c71\u5009\u5eab(\u5927\u5751\u8def)", "RouteId": 9701, "SeqNo": 65, "Terminal": 0, "DistrictId": 1, "Latitude": 22.710133, "Longitude": 120.439414, "IVRNo": 1236, "EXTVoiceNo": 1236, "traveltime": 0, "holidayTraveltime": 0}, {"Id": "1160", "pgp": 0, "GoBack": 1, "SID": 6782, "NameZh": "\u6d32\u4ed4", "RouteId": 9701, "SeqNo": 66, "Terminal": 0, "DistrictId": 1, "Latitude": 22.71374, "Longitude": 120.44133, "IVRNo": 11160, "EXTVoiceNo": 11160, "traveltime": 0, "holidayTraveltime": 0}, {"Id": "0077", "pgp": 0, "GoBack": 1, "SID": 6783, "NameZh": "\u5927\u5751", "RouteId": 9701, "SeqNo": 67, "Terminal": 0, "DistrictId": 1, "Latitude": 22.71778, "Longitude": 120.44321, "IVRNo": 10159, "EXTVoiceNo": 20077, "traveltime": 0, "holidayTraveltime": 0}, {"Id": "0334", "pgp": 0, "GoBack": 1, "SID": 6784, "NameZh": "\u6eaa\u57d4\u570b\u5c0f", "RouteId": 9701, "SeqNo": 68, "Terminal": 0, "DistrictId": 1, "Latitude": 22.72246, "Longitude": 120.44344, "IVRNo": 334, "EXTVoiceNo": 334, "traveltime": 0, "holidayTraveltime": 0}, {"Id": "0134", "pgp": 0, "GoBack": 1, "SID": 6785, "NameZh": "\u6eaa\u57d4\u6d3e\u51fa\u6240", "RouteId": 9701, "SeqNo": 69, "Terminal": 0, "DistrictId": 1, "Latitude": 22.72764, "Longitude": 120.44455, "IVRNo": 134, "EXTVoiceNo": 134, "traveltime": 0, "holidayTraveltime": 0}, {"Id": "2299", "pgp": 0, "GoBack": 1, "SID": 6786, "NameZh": "\u6eaa\u57d4", "RouteId": 9701, "SeqNo": 70, "Terminal": 0, "DistrictId": 1, "Latitude": 22.732023, "Longitude": 120.447211, "IVRNo": 133, "EXTVoiceNo": 32299, "traveltime": 0, "holidayTraveltime": 0}, {"Id": "3396", "pgp": 0, "GoBack": 1, "SID": 6787, "NameZh": "\u65b0\u8208(\u5927\u6a39)", "RouteId": 9701, "SeqNo": 71, "Terminal": 0, "DistrictId": 1, "Latitude": 22.73734, "Longitude": 120.44775, "IVRNo": 11668, "EXTVoiceNo": 13396, "traveltime": 0, "holidayTraveltime": 0}, {"Id": "1981", "pgp": 0, "GoBack": 1, "SID": 6788, "NameZh": "\u8208\u7530", "RouteId": 9701, "SeqNo": 72, "Terminal": 0, "DistrictId": 1, "Latitude": 22.742011, "Longitude": 120.448161, "IVRNo": 11981, "EXTVoiceNo": 11981, "traveltime": 0, "holidayTraveltime": 0}, {"Id": "2298", "pgp": 0, "GoBack": 1, "SID": 12580, "NameZh": "\u9ebb\u7af9\u5712", "RouteId": 9701, "SeqNo": 73, "Terminal": 0, "DistrictId": 1, "Latitude": 22.74623, "Longitude": 120.44717, "IVRNo": 3263, "EXTVoiceNo": 32298, "traveltime": 0, "holidayTraveltime": 0}, {"Id": "0395", "pgp": 0, "GoBack": 1, "SID": 6790, "NameZh": "\u4f5b\u5149\u5c71", "RouteId": 9701, "SeqNo": 74, "Terminal": 0, "DistrictId": 1, "Latitude": 22.749753, "Longitude": 120.447395, "IVRNo": 395, "EXTVoiceNo": 395, "traveltime": 0, "holidayTraveltime": 0}, {"Id": "0396", "pgp": 0, "GoBack": 1, "SID": 12722, "NameZh": "\u4f5b\u9640\u7d00\u5ff5\u9928", "RouteId": 9701, "SeqNo": 75, "Terminal": 1, "DistrictId": 1, "Latitude": 22.75497, "Longitude": 120.44615, "IVRNo": 396, "EXTVoiceNo": 396, "traveltime": 0, "holidayTraveltime": 0}, {"Id": "0396", "pgp": 0, "GoBack": 2, "SID": 12362, "NameZh": "\u4f5b\u9640\u7d00\u5ff5\u9928", "RouteId": 9701, "SeqNo": 1, "Terminal": 0, "DistrictId": 1, "Latitude": 22.754891, "Longitude": 120.447555, "IVRNo": 396, "EXTVoiceNo": 396, "traveltime": 0, "holidayTraveltime": 0}, {"Id": "0395", "pgp": 0, "GoBack": 2, "SID": 6648, "NameZh": "\u4f5b\u5149\u5c71", "RouteId": 9701, "SeqNo": 2, "Terminal": 0, "DistrictId": 1, "Latitude": 22.749377, "Longitude": 120.447207, "IVRNo": 395, "EXTVoiceNo": 395, "traveltime": 0, "holidayTraveltime": 0}, {"Id": "2298", "pgp": 0, "GoBack": 2, "SID": 12477, "NameZh": "\u9ebb\u7af9\u5712", "RouteId": 9701, "SeqNo": 3, "Terminal": 0, "DistrictId": 1, "Latitude": 22.74639, "Longitude": 120.447, "IVRNo": 3263, "EXTVoiceNo": 32298, "traveltime": 0, "holidayTraveltime": 0}, {"Id": "1981", "pgp": 0, "GoBack": 2, "SID": 6650, "NameZh": "\u8208\u7530", "RouteId": 9701, "SeqNo": 4, "Terminal": 0, "DistrictId": 1, "Latitude": 22.74199, "Longitude": 120.44826, "IVRNo": 11981, "EXTVoiceNo": 11981, "traveltime": 0, "holidayTraveltime": 0}, {"Id": "3396", "pgp": 0, "GoBack": 2, "SID": 6651, "NameZh": "\u65b0\u8208(\u5927\u6a39)", "RouteId": 9701, "SeqNo": 5, "Terminal": 0, "DistrictId": 1, "Latitude": 22.73735, "Longitude": 120.44769, "IVRNo": 11668, "EXTVoiceNo": 13396, "traveltime": 0, "holidayTraveltime": 0}, {"Id": "2299", "pgp": 0, "GoBack": 2, "SID": 6652, "NameZh": "\u6eaa\u57d4", "RouteId": 9701, "SeqNo": 6, "Terminal": 0, "DistrictId": 1, "Latitude": 22.73201, "Longitude": 120.44736, "IVRNo": 133, "EXTVoiceNo": 32299, "traveltime": 0, "holidayTraveltime": 0}, {"Id": "0134", "pgp": 0, "GoBack": 2, "SID": 6653, "NameZh": "\u6eaa\u57d4\u6d3e\u51fa\u6240", "RouteId": 9701, "SeqNo": 7, "Terminal": 0, "DistrictId": 1, "Latitude": 22.72768, "Longitude": 120.4445, "IVRNo": 134, "EXTVoiceNo": 134, "traveltime": 0, "holidayTraveltime": 0}, {"Id": "0334", "pgp": 0, "GoBack": 2, "SID": 6654, "NameZh": "\u6eaa\u57d4\u570b\u5c0f", "RouteId": 9701, "SeqNo": 8, "Terminal": 0, "DistrictId": 1, "Latitude": 22.72261, "Longitude": 120.44332, "IVRNo": 334, "EXTVoiceNo": 334, "traveltime": 0, "holidayTraveltime": 0}, {"Id": "0077", "pgp": 0, "GoBack": 2, "SID": 6655, "NameZh": "\u5927\u5751", "RouteId": 9701, "SeqNo": 9, "Terminal": 0, "DistrictId": 1, "Latitude": 22.71764, "Longitude": 120.44308, "IVRNo": 10159, "EXTVoiceNo": 20077, "traveltime": 0, "holidayTraveltime": 0}, {"Id": "1160", "pgp": 0, "GoBack": 2, "SID": 6656, "NameZh": "\u6d32\u4ed4", "RouteId": 9701, "SeqNo": 10, "Terminal": 0, "DistrictId": 1, "Latitude": 22.71363, "Longitude": 120.44115, "IVRNo": 11160, "EXTVoiceNo": 11160, "traveltime": 0, "holidayTraveltime": 0}, {"Id": "1236", "pgp": 0, "GoBack": 2, "SID": 19260, "NameZh": "\u59d1\u5c71\u5009\u5eab(\u5927\u5751\u8def)", "RouteId": 9701, "SeqNo": 11, "Terminal": 0, "DistrictId": 1, "Latitude": 22.709841, "Longitude": 120.439158, "IVRNo": 1236, "EXTVoiceNo": 1236, "traveltime": 0, "holidayTraveltime": 0}, {"Id": "0894", "pgp": 0, "GoBack": 2, "SID": 6657, "NameZh": "\u59d1\u5c71\u570b\u5c0f", "RouteId": 9701, "SeqNo": 12, "Terminal": 0, "DistrictId": 1, "Latitude": 22.708283, "Longitude": 120.43823, "IVRNo": 10894, "EXTVoiceNo": 10894, "traveltime": 0, "holidayTraveltime": 0}, {"Id": "0896", "pgp": 0, "GoBack": 2, "SID": 6658, "NameZh": "\u59d1\u5a46\u5bee", "RouteId": 9701, "SeqNo": 13, "Terminal": 0, "DistrictId": 1, "Latitude": 22.705085, "Longitude": 120.434216, "IVRNo": 10896, "EXTVoiceNo": 10896, "traveltime": 0, "holidayTraveltime": 0}, {"Id": "1368", "pgp": 0, "GoBack": 2, "SID": 6659, "NameZh": "\u5d11\u660e\u5bfa", "RouteId": 9701, "SeqNo": 14, "Terminal": 0, "DistrictId": 1, "Latitude": 22.7, "Longitude": 120.43332, "IVRNo": 11368, "EXTVoiceNo": 11368, "traveltime": 0, "holidayTraveltime": 0}, {"Id": "9220", "pgp": 0, "GoBack": 2, "SID": 10740, "NameZh": "\u4e2d\u6b63\u4e00\u8def", "RouteId": 9701, "SeqNo": 15, "Terminal": 0, "DistrictId": 1, "Latitude": 22.693447, "Longitude": 120.434607, "IVRNo": 9772, "EXTVoiceNo": 9220, "traveltime": 0, "holidayTraveltime": 0}, {"Id": "7138", "pgp": 0, "GoBack": 2, "SID": 10741, "NameZh": "\u4e2d\u8208\u6771\u8def", "RouteId": 9701, "SeqNo": 16, "Terminal": 0, "DistrictId": 1, "Latitude": 22.691537, "Longitude": 120.434371, "IVRNo": 9771, "EXTVoiceNo": 17138, "traveltime": 0, "holidayTraveltime": 0}, {"Id": "9217", "pgp": 0, "GoBack": 2, "SID": 10742, "NameZh": "\u5927\u6a39\u8fb2\u6703", "RouteId": 9701, "SeqNo": 17, "Terminal": 0, "DistrictId": 1, "Latitude": 22.690884, "Longitude": 120.432193, "IVRNo": 9770, "EXTVoiceNo": 9217, "traveltime": 0, "holidayTraveltime": 0}, {"Id": "9216", "pgp": 0, "GoBack": 2, "SID": 10696, "NameZh": "\u5be6\u8e10\u8857", "RouteId": 9701, "SeqNo": 18, "Terminal": 0, "DistrictId": 1, "Latitude": 22.688963, "Longitude": 120.431217, "IVRNo": 9769, "EXTVoiceNo": 9216, "traveltime": 0, "holidayTraveltime": 0}, {"Id": "9319", "pgp": 0, "GoBack": 2, "SID": 10744, "NameZh": "\u4fdd\u5b89\u5bae(\u5927\u6a39)", "RouteId": 9701, "SeqNo": 19, "Terminal": 0, "DistrictId": 1, "Latitude": 22.687139, "Longitude": 120.430013, "IVRNo": 9465, "EXTVoiceNo": 9319, "traveltime": 0, "holidayTraveltime": 0}, {"Id": "9318", "pgp": 0, "GoBack": 2, "SID": 10745, "NameZh": "\u5927\u6a39\u91cc", "RouteId": 9701, "SeqNo": 20, "Terminal": 0, "DistrictId": 1, "Latitude": 22.686568, "Longitude": 120.418675, "IVRNo": 9975, "EXTVoiceNo": 9318, "traveltime": 0, "holidayTraveltime": 0}, {"Id": "9317", "pgp": 0, "GoBack": 2, "SID": 10746, "NameZh": "\u9f8d\u76ee", "RouteId": 9701, "SeqNo": 21, "Terminal": 0, "DistrictId": 1, "Latitude": 22.685242, "Longitude": 120.416079, "IVRNo": 9974, "EXTVoiceNo": 9317, "traveltime": 0, "holidayTraveltime": 0}, {"Id": "9316", "pgp": 0, "GoBack": 2, "SID": 10747, "NameZh": "\u5c0f\u576a\u570b\u5c0f", "RouteId": 9701, "SeqNo": 22, "Terminal": 0, "DistrictId": 1, "Latitude": 22.682174, "Longitude": 120.411391, "IVRNo": 9973, "EXTVoiceNo": 9316, "traveltime": 0, "holidayTraveltime": 0}, {"Id": "9315", "pgp": 0, "GoBack": 2, "SID": 10748, "NameZh": "\u5c0f\u576a\u9802", "RouteId": 9701, "SeqNo": 23, "Terminal": 0, "DistrictId": 1, "Latitude": 22.679936, "Longitude": 120.40859, "IVRNo": 9972, "EXTVoiceNo": 9315, "traveltime": 0, "holidayTraveltime": 0}, {"Id": "9314", "pgp": 0, "GoBack": 2, "SID": 10749, "NameZh": "\u5d07\u8056\u6bbf", "RouteId": 9701, "SeqNo": 24, "Terminal": 0, "DistrictId": 1, "Latitude": 22.673538, "Longitude": 120.407908, "IVRNo": 9971, "EXTVoiceNo": 9314, "traveltime": 0, "holidayTraveltime": 0}, {"Id": "9313", "pgp": 0, "GoBack": 2, "SID": 10750, "NameZh": "\u4e95\u8173\u91cc", "RouteId": 9701, "SeqNo": 25, "Terminal": 0, "DistrictId": 1, "Latitude": 22.672118, "Longitude": 120.408438, "IVRNo": 9970, "EXTVoiceNo": 9313, "traveltime": 0, "holidayTraveltime": 0}, {"Id": "9312", "pgp": 0, "GoBack": 2, "SID": 10751, "NameZh": "\u4e95\u4ed4\u8173", "RouteId": 9701, "SeqNo": 26, "Terminal": 0, "DistrictId": 1, "Latitude": 22.669088, "Longitude": 120.4096, "IVRNo": 9969, "EXTVoiceNo": 9312, "traveltime": 0, "holidayTraveltime": 0}, {"Id": "8946", "pgp": 0, "GoBack": 2, "SID": 11508, "NameZh": "\u6c34\u5bee\u4e2d\u5c71\u8def", "RouteId": 9701, "SeqNo": 27, "Terminal": 0, "DistrictId": 1, "Latitude": 22.667066, "Longitude": 120.409148, "IVRNo": 9372, "EXTVoiceNo": 8946, "traveltime": 0, "holidayTraveltime": 0}, {"Id": "8947", "pgp": 0, "GoBack": 2, "SID": 11509, "NameZh": "\u6c34\u5bee", "RouteId": 9701, "SeqNo": 28, "Terminal": 0, "DistrictId": 1, "Latitude": 22.665513, "Longitude": 120.409538, "IVRNo": 9373, "EXTVoiceNo": 8947, "traveltime": 0, "holidayTraveltime": 0}, {"Id": "8948", "pgp": 0, "GoBack": 2, "SID": 11510, "NameZh": "\u6c34\u5b89\u91cc", "RouteId": 9701, "SeqNo": 29, "Terminal": 0, "DistrictId": 1, "Latitude": 22.662662, "Longitude": 120.410893, "IVRNo": 9374, "EXTVoiceNo": 8948, "traveltime": 0, "holidayTraveltime": 0}, {"Id": "8949", "pgp": 0, "GoBack": 2, "SID": 11511, "NameZh": "\u6e56\u5e95\u6a4b(\u5927\u6a39)", "RouteId": 9701, "SeqNo": 30, "Terminal": 0, "DistrictId": 1, "Latitude": 22.658228, "Longitude": 120.415491, "IVRNo": 9375, "EXTVoiceNo": 8949, "traveltime": 0, "holidayTraveltime": 0}, {"Id": "9404", "pgp": 0, "GoBack": 2, "SID": 11512, "NameZh": "\u5927\u6a39\u5716\u66f8\u9928", "RouteId": 9701, "SeqNo": 31, "Terminal": 0, "DistrictId": 1, "Latitude": 22.65814, "Longitude": 120.41825, "IVRNo": 464, "EXTVoiceNo": 9404, "traveltime": 0, "holidayTraveltime": 0}, {"Id": "9405", "pgp": 0, "GoBack": 2, "SID": 11513, "NameZh": "\u4e45\u5802\u91cc(\u6c38\u8c50\u9918\u9020\u7d19)", "RouteId": 9701, "SeqNo": 32, "Terminal": 0, "DistrictId": 1, "Latitude": 22.658953, "Longitude": 120.419941, "IVRNo": 465, "EXTVoiceNo": 9405, "traveltime": 0, "holidayTraveltime": 0}, {"Id": "9210", "pgp": 0, "GoBack": 2, "SID": 6190, "NameZh": "\u5927\u6a39\u570b\u4e2d", "RouteId": 9701, "SeqNo": 33, "Terminal": 0, "DistrictId": 1, "Latitude": 22.656322, "Longitude": 120.422765, "IVRNo": 8913, "EXTVoiceNo": 9210, "traveltime": 0, "holidayTraveltime": 0}, {"Id": "9210", "pgp": 0, "GoBack": 2, "SID": 14045, "NameZh": "\u5927\u6a39\u570b\u4e2d", "RouteId": 9701, "SeqNo": 34, "Terminal": 0, "DistrictId": 1, "Latitude": 22.656334, "Longitude": 120.42273, "IVRNo": 8913, "EXTVoiceNo": 9210, "traveltime": 0, "holidayTraveltime": 0}, {"Id": "9405", "pgp": 0, "GoBack": 2, "SID": 14046, "NameZh": "\u4e45\u5802\u91cc(\u6c38\u8c50\u9918\u9020\u7d19)", "RouteId": 9701, "SeqNo": 35, "Terminal": 0, "DistrictId": 1, "Latitude": 22.65896, "Longitude": 120.41992, "IVRNo": 465, "EXTVoiceNo": 9405, "traveltime": 0, "holidayTraveltime": 0}, {"Id": "9404", "pgp": 0, "GoBack": 2, "SID": 14128, "NameZh": "\u5927\u6a39\u5716\u66f8\u9928", "RouteId": 9701, "SeqNo": 36, "Terminal": 0, "DistrictId": 1, "Latitude": 22.65815, "Longitude": 120.41827, "IVRNo": 464, "EXTVoiceNo": 9404, "traveltime": 0, "holidayTraveltime": 0}, {"Id": "8949", "pgp": 0, "GoBack": 2, "SID": 14129, "NameZh": "\u6e56\u5e95\u6a4b(\u5927\u6a39)", "RouteId": 9701, "SeqNo": 37, "Terminal": 0, "DistrictId": 1, "Latitude": 22.658327, "Longitude": 120.415521, "IVRNo": 9375, "EXTVoiceNo": 8949, "traveltime": 0, "holidayTraveltime": 0}, {"Id": "8948", "pgp": 0, "GoBack": 2, "SID": 16074, "NameZh": "\u6c34\u5b89\u91cc", "RouteId": 9701, "SeqNo": 38, "Terminal": 0, "DistrictId": 1, "Latitude": 22.662689, "Longitude": 120.410939, "IVRNo": 9374, "EXTVoiceNo": 8948, "traveltime": 0, "holidayTraveltime": 0}, {"Id": "8947", "pgp": 0, "GoBack": 2, "SID": 16075, "NameZh": "\u6c34\u5bee", "RouteId": 9701, "SeqNo": 39, "Terminal": 0, "DistrictId": 1, "Latitude": 22.665538, "Longitude": 120.409569, "IVRNo": 9373, "EXTVoiceNo": 8947, "traveltime": 0, "holidayTraveltime": 0}, {"Id": "8946", "pgp": 0, "GoBack": 2, "SID": 16138, "NameZh": "\u6c34\u5bee\u4e2d\u5c71\u8def", "RouteId": 9701, "SeqNo": 40, "Terminal": 0, "DistrictId": 1, "Latitude": 22.667081, "Longitude": 120.409094, "IVRNo": 9372, "EXTVoiceNo": 8946, "traveltime": 0, "holidayTraveltime": 0}, {"Id": "8945", "pgp": 0, "GoBack": 2, "SID": 6020, "NameZh": "\u6c34\u5bee\u570b\u5c0f", "RouteId": 9701, "SeqNo": 41, "Terminal": 0, "DistrictId": 1, "Latitude": 22.667121, "Longitude": 120.408102, "IVRNo": 9371, "EXTVoiceNo": 8945, "traveltime": 0, "holidayTraveltime": 0}, {"Id": "9209", "pgp": 0, "GoBack": 2, "SID": 6411, "NameZh": "\u6c34\u5bee\u4e2d\u83ef\u8def", "RouteId": 9701, "SeqNo": 42, "Terminal": 0, "DistrictId": 1, "Latitude": 22.663363, "Longitude": 120.40444, "IVRNo": 9760, "EXTVoiceNo": 9209, "traveltime": 0, "holidayTraveltime": 0}, {"Id": "8944", "pgp": 0, "GoBack": 2, "SID": 6021, "NameZh": "\u6c34\u7f8e\u52a0\u6cb9\u7ad9", "RouteId": 9701, "SeqNo": 43, "Terminal": 0, "DistrictId": 1, "Latitude": 22.6586, "Longitude": 120.3995, "IVRNo": 9370, "EXTVoiceNo": 8944, "traveltime": 0, "holidayTraveltime": 0}, {"Id": "8943", "pgp": 0, "GoBack": 2, "SID": 6022, "NameZh": "\u4ec1\u7f8e\u570b\u5c0f", "RouteId": 9701, "SeqNo": 44, "Terminal": 0, "DistrictId": 1, "Latitude": 22.657972, "Longitude": 120.394495, "IVRNo": 9369, "EXTVoiceNo": 8943, "traveltime": 0, "holidayTraveltime": 0}, {"Id": "9020", "pgp": 0, "GoBack": 2, "SID": 10753, "NameZh": "\u9ad8\u78bc", "RouteId": 9701, "SeqNo": 45, "Terminal": 0, "DistrictId": 1, "Latitude": 22.658185, "Longitude": 120.389321, "IVRNo": 9538, "EXTVoiceNo": 9020, "traveltime": 0, "holidayTraveltime": 0}, {"Id": "8942", "pgp": 0, "GoBack": 2, "SID": 6023, "NameZh": "\u5754\u57d4", "RouteId": 9701, "SeqNo": 46, "Terminal": 0, "DistrictId": 1, "Latitude": 22.658044, "Longitude": 120.384522, "IVRNo": 9368, "EXTVoiceNo": 8942, "traveltime": 0, "holidayTraveltime": 0}, {"Id": "2632", "pgp": 0, "GoBack": 2, "SID": 10754, "NameZh": "\u677e\u57d4\u8def\u53e3(\u5713\u7167\u5bfa)", "RouteId": 9701, "SeqNo": 47, "Terminal": 0, "DistrictId": 1, "Latitude": 22.6591, "Longitude": 120.3802, "IVRNo": 5690, "EXTVoiceNo": 2632, "traveltime": 0, "holidayTraveltime": 0}, {"Id": "0243", "pgp": 0, "GoBack": 2, "SID": 9064, "NameZh": "\u6c34\u7ba1\u8def\u53e3(\u795e\u8fb2\u8def)", "RouteId": 9701, "SeqNo": 48, "Terminal": 0, "DistrictId": 1, "Latitude": 22.659614, "Longitude": 120.373377, "IVRNo": 1238, "EXTVoiceNo": 20243, "traveltime": 0, "holidayTraveltime": 0}, {"Id": "4332", "pgp": 0, "GoBack": 2, "SID": 6024, "NameZh": "\u9ce5\u677e\u5340\u516c\u6240(\u795e\u8fb2\u8def)", "RouteId": 9701, "SeqNo": 49, "Terminal": 0, "DistrictId": 1, "Latitude": 22.6593, "Longitude": 120.3652, "IVRNo": 9367, "EXTVoiceNo": 14332, "traveltime": 0, "holidayTraveltime": 0}, {"Id": "7705", "pgp": 0, "GoBack": 2, "SID": 2592, "NameZh": "\u5fe0\u8aa0\u8def\u53e3", "RouteId": 9701, "SeqNo": 50, "Terminal": 0, "DistrictId": 1, "Latitude": 22.658, "Longitude": 120.3609, "IVRNo": 864, "EXTVoiceNo": 7705, "traveltime": 0, "holidayTraveltime": 0}, {"Id": "1912", "pgp": 0, "GoBack": 2, "SID": 2548, "NameZh": "\u6f84\u6e05\u6e56\u68d2\u7403\u5834", "RouteId": 9701, "SeqNo": 51, "Terminal": 0, "DistrictId": 1, "Latitude": 22.6553, "Longitude": 120.36, "IVRNo": 11912, "EXTVoiceNo": 11912, "traveltime": 0, "holidayTraveltime": 0}, {"Id": "8941", "pgp": 0, "GoBack": 2, "SID": 6040, "NameZh": "\u52de\u5de5\u80b2\u6a02\u4e2d\u5fc3", "RouteId": 9701, "SeqNo": 52, "Terminal": 0, "DistrictId": 1, "Latitude": 22.652809, "Longitude": 120.359709, "IVRNo": 9411, "EXTVoiceNo": 8941, "traveltime": 0, "holidayTraveltime": 0}, {"Id": "3534", "pgp": 0, "GoBack": 2, "SID": 2550, "NameZh": "\u9577\u5e9a\u91ab\u9662", "RouteId": 9701, "SeqNo": 53, "Terminal": 0, "DistrictId": 1, "Latitude": 22.650933, "Longitude": 120.356409, "IVRNo": 3534, "EXTVoiceNo": 3534, "traveltime": 0, "holidayTraveltime": 0}, {"Id": "0636", "pgp": 0, "GoBack": 2, "SID": 2563, "NameZh": "\u6b63\u4fee\u79d1\u5927(\u6f84\u6e05\u6e56)", "RouteId": 9701, "SeqNo": 54, "Terminal": 0, "DistrictId": 1, "Latitude": 22.651522, "Longitude": 120.348916, "IVRNo": 3533, "EXTVoiceNo": 10636, "traveltime": 0, "holidayTraveltime": 0}, {"Id": "8939", "pgp": 0, "GoBack": 2, "SID": 6032, "NameZh": "\u6f84\u5712", "RouteId": 9701, "SeqNo": 55, "Terminal": 0, "DistrictId": 1, "Latitude": 22.6471, "Longitude": 120.3475, "IVRNo": 9403, "EXTVoiceNo": 8939, "traveltime": 0, "holidayTraveltime": 0}, {"Id": "8938", "pgp": 0, "GoBack": 2, "SID": 6033, "NameZh": "\u6ff1\u5c71\u8857\u53e3", "RouteId": 9701, "SeqNo": 56, "Terminal": 0, "DistrictId": 1, "Latitude": 22.6451, "Longitude": 120.3501, "IVRNo": 9402, "EXTVoiceNo": 8938, "traveltime": 0, "holidayTraveltime": 0}, {"Id": "8937", "pgp": 0, "GoBack": 2, "SID": 6034, "NameZh": "\u6587\u8861\u8def\u53e3", "RouteId": 9701, "SeqNo": 57, "Terminal": 0, "DistrictId": 1, "Latitude": 22.641284, "Longitude": 120.351276, "IVRNo": 451, "EXTVoiceNo": 8937, "traveltime": 0, "holidayTraveltime": 0}, {"Id": "8956", "pgp": 0, "GoBack": 2, "SID": 6035, "NameZh": "\u6587\u5fb7\u570b\u5c0f", "RouteId": 9701, "SeqNo": 58, "Terminal": 0, "DistrictId": 1, "Latitude": 22.640353, "Longitude": 120.353508, "IVRNo": 9400, "EXTVoiceNo": 8956, "traveltime": 0, "holidayTraveltime": 0}, {"Id": "9010", "pgp": 0, "GoBack": 2, "SID": 10755, "NameZh": "\u6587\u5c71\u91cc", "RouteId": 9701, "SeqNo": 59, "Terminal": 0, "DistrictId": 1, "Latitude": 22.63968, "Longitude": 120.356405, "IVRNo": 9518, "EXTVoiceNo": 9010, "traveltime": 0, "holidayTraveltime": 0}, {"Id": "0051", "pgp": 0, "GoBack": 2, "SID": 18494, "NameZh": "\u6587\u82f1\u91cc", "RouteId": 9701, "SeqNo": 60, "Terminal": 0, "DistrictId": 1, "Latitude": 22.637662, "Longitude": 120.356498, "IVRNo": 992, "EXTVoiceNo": 51, "traveltime": 0, "holidayTraveltime": 0}, {"Id": "8936", "pgp": 0, "GoBack": 2, "SID": 6036, "NameZh": "\u9cf3\u5c71\u5546\u5de5", "RouteId": 9701, "SeqNo": 61, "Terminal": 0, "DistrictId": 1, "Latitude": 22.634392, "Longitude": 120.358239, "IVRNo": 148, "EXTVoiceNo": 8936, "traveltime": 0, "holidayTraveltime": 0}, {"Id": "9009", "pgp": 0, "GoBack": 2, "SID": 10758, "NameZh": "\u5927\u6f64\u767c", "RouteId": 9701, "SeqNo": 62, "Terminal": 0, "DistrictId": 1, "Latitude": 22.633775, "Longitude": 120.355614, "IVRNo": 9515, "EXTVoiceNo": 9009, "traveltime": 0, "holidayTraveltime": 0}, {"Id": "8935", "pgp": 0, "GoBack": 2, "SID": 6037, "NameZh": "\u6587\u83ef\u570b\u5c0f", "RouteId": 9701, "SeqNo": 63, "Terminal": 0, "DistrictId": 1, "Latitude": 22.634382, "Longitude": 120.352135, "IVRNo": 9398, "EXTVoiceNo": 8935, "traveltime": 0, "holidayTraveltime": 0}, {"Id": "2498", "pgp": 0, "GoBack": 2, "SID": 19018, "NameZh": "\u9cf3\u5c71\u884c\u653f\u4e2d\u5fc3(\u6f84\u6e05\u8def)", "RouteId": 9701, "SeqNo": 64, "Terminal": 0, "DistrictId": 1, "Latitude": 22.630033, "Longitude": 120.344378, "IVRNo": 2498, "EXTVoiceNo": 2498, "traveltime": 0, "holidayTraveltime": 0}, {"Id": "3528", "pgp": 0, "GoBack": 2, "SID": 3604, "NameZh": "\u9cf3\u5c71\u884c\u653f\u4e2d\u5fc3(\u4e2d\u5c71\u897f\u8def)", "RouteId": 9701, "SeqNo": 65, "Terminal": 0, "DistrictId": 1, "Latitude": 22.628133, "Longitude": 120.343836, "IVRNo": 502, "EXTVoiceNo": 13528, "traveltime": 0, "holidayTraveltime": 0}, {"Id": "0980", "pgp": 0, "GoBack": 2, "SID": 2063, "NameZh": "\u570b\u8ecd\u9ad8\u96c4\u7e3d\u91ab\u9662", "RouteId": 9701, "SeqNo": 66, "Terminal": 0, "DistrictId": 1, "Latitude": 22.626747, "Longitude": 120.342243, "IVRNo": 2, "EXTVoiceNo": 20980, "traveltime": 0, "holidayTraveltime": 0}, {"Id": "0002", "pgp": 0, "GoBack": 2, "SID": 6, "NameZh": "\u5efa\u8ecd\u7ad9(\u6377\u904b\u885b\u6b66\u71df\u7ad9)", "RouteId": 9701, "SeqNo": 67, "Terminal": 1, "DistrictId": 1, "Latitude": 22.624966, "Longitude": 120.343291, "IVRNo": 1, "EXTVoiceNo": 2, "traveltime": 0, "holidayTraveltime": 0}]}