{"en": [{"Id": "0002", "pgp": 0, "GoBack": 1, "SID": 6, "NameZh": "Jianjun Station (MRT Weiwuying Station)", "RouteId": 1221, "SeqNo": 1, "Terminal": 0, "DistrictId": 1, "Latitude": 22.624966, "Longitude": 120.343291, "IVRNo": 1, "EXTVoiceNo": 2, "traveltime": 0, "holidayTraveltime": 0}, {"Id": "0448", "pgp": 0, "GoBack": 1, "SID": 11357, "NameZh": "Singren Rd.", "RouteId": 1221, "SeqNo": 2, "Terminal": 0, "DistrictId": 1, "Latitude": 22.625983, "Longitude": 120.342919, "IVRNo": 122, "EXTVoiceNo": 448, "traveltime": 0, "holidayTraveltime": 0}, {"Id": "1085", "pgp": 0, "GoBack": 1, "SID": 14708, "NameZh": "Nanjing Rd. (Wei Wu Ying Center for the Arts)", "RouteId": 1221, "SeqNo": 3, "Terminal": 0, "DistrictId": 1, "Latitude": 22.617774, "Longitude": 120.345464, "IVRNo": 642, "EXTVoiceNo": 21085, "traveltime": 0, "holidayTraveltime": 0}, {"Id": "1086", "pgp": 0, "GoBack": 1, "SID": 14710, "NameZh": "Kaisyuan Rd.", "RouteId": 1221, "SeqNo": 4, "Terminal": 0, "DistrictId": 1, "Latitude": 22.615495, "Longitude": 120.346453, "IVRNo": 643, "EXTVoiceNo": 21086, "traveltime": 0, "holidayTraveltime": 0}, {"Id": "1338", "pgp": 0, "GoBack": 1, "SID": 276, "NameZh": "Sinfu Rd.", "RouteId": 1221, "SeqNo": 5, "Terminal": 0, "DistrictId": 1, "Latitude": 22.615392, "Longitude": 120.348447, "IVRNo": 1169, "EXTVoiceNo": 1338, "traveltime": 0, "holidayTraveltime": 0}, {"Id": "6046", "pgp": 0, "GoBack": 1, "SID": 277, "NameZh": "Jhongsiao Elementary School", "RouteId": 1221, "SeqNo": 6, "Terminal": 0, "DistrictId": 1, "Latitude": 22.617805, "Longitude": 120.34933, "IVRNo": 920, "EXTVoiceNo": 26046, "traveltime": 0, "holidayTraveltime": 0}, {"Id": "9021", "pgp": 0, "GoBack": 1, "SID": 11358, "NameZh": "Kaohsiung City Council (Jhongsiao Junior High School)", "RouteId": 1221, "SeqNo": 7, "Terminal": 0, "DistrictId": 1, "Latitude": 22.619978, "Longitude": 120.34722, "IVRNo": 9528, "EXTVoiceNo": 9021, "traveltime": 0, "holidayTraveltime": 0}, {"Id": "3527", "pgp": 0, "GoBack": 1, "SID": 2496, "NameZh": "Weiguang Community", "RouteId": 1221, "SeqNo": 8, "Terminal": 0, "DistrictId": 1, "Latitude": 22.626758, "Longitude": 120.344386, "IVRNo": 3527, "EXTVoiceNo": 3527, "traveltime": 0, "holidayTraveltime": 0}, {"Id": "3528", "pgp": 0, "GoBack": 1, "SID": 3601, "NameZh": "Fongshan Administration Center (Jhongshan W. Rd.)", "RouteId": 1221, "SeqNo": 9, "Terminal": 0, "DistrictId": 1, "Latitude": 22.628242, "Longitude": 120.343935, "IVRNo": 502, "EXTVoiceNo": 13528, "traveltime": 0, "holidayTraveltime": 0}, {"Id": "0202", "pgp": 0, "GoBack": 1, "SID": 1007, "NameZh": "Jianjun Rd. Intersection", "RouteId": 1221, "SeqNo": 10, "Terminal": 0, "DistrictId": 1, "Latitude": 22.628753, "Longitude": 120.341492, "IVRNo": 202, "EXTVoiceNo": 202, "traveltime": 0, "holidayTraveltime": 0}, {"Id": "0203", "pgp": 0, "GoBack": 1, "SID": 1048, "NameZh": "Jianguo 1st Rd.", "RouteId": 1221, "SeqNo": 11, "Terminal": 0, "DistrictId": 1, "Latitude": 22.629694, "Longitude": 120.339111, "IVRNo": 203, "EXTVoiceNo": 203, "traveltime": 0, "holidayTraveltime": 0}, {"Id": "0401", "pgp": 0, "GoBack": 1, "SID": 2668, "NameZh": "Jhongjheng Elementary School", "RouteId": 1221, "SeqNo": 12, "Terminal": 0, "DistrictId": 1, "Latitude": 22.631178, "Longitude": 120.334367, "IVRNo": 401, "EXTVoiceNo": 401, "traveltime": 0, "holidayTraveltime": 0}, {"Id": "2937", "pgp": 0, "GoBack": 1, "SID": 2937, "NameZh": "Furen Rd. Intersection (Jianguo Rd.)", "RouteId": 1221, "SeqNo": 13, "Terminal": 0, "DistrictId": 1, "Latitude": 22.631763, "Longitude": 120.332485, "IVRNo": 2937, "EXTVoiceNo": 2937, "traveltime": 0, "holidayTraveltime": 0}, {"Id": "0402", "pgp": 0, "GoBack": 1, "SID": 2692, "NameZh": "Taren Junior High School", "RouteId": 1221, "SeqNo": 14, "Terminal": 0, "DistrictId": 1, "Latitude": 22.632707, "Longitude": 120.329614, "IVRNo": 402, "EXTVoiceNo": 402, "traveltime": 0, "holidayTraveltime": 0}, {"Id": "0403", "pgp": 0, "GoBack": 1, "SID": 2709, "NameZh": "Fude Market", "RouteId": 1221, "SeqNo": 15, "Terminal": 0, "DistrictId": 1, "Latitude": 22.633042, "Longitude": 120.327228, "IVRNo": 403, "EXTVoiceNo": 403, "traveltime": 0, "holidayTraveltime": 0}, {"Id": "0404", "pgp": 0, "GoBack": 1, "SID": 2750, "NameZh": "St. Joseph Hospital", "RouteId": 1221, "SeqNo": 16, "Terminal": 0, "DistrictId": 1, "Latitude": 22.632869, "Longitude": 120.324722, "IVRNo": 404, "EXTVoiceNo": 404, "traveltime": 0, "holidayTraveltime": 0}, {"Id": "0405", "pgp": 0, "GoBack": 1, "SID": 2767, "NameZh": "Dominic High School", "RouteId": 1221, "SeqNo": 17, "Terminal": 0, "DistrictId": 1, "Latitude": 22.633374, "Longitude": 120.322333, "IVRNo": 405, "EXTVoiceNo": 405, "traveltime": 0, "holidayTraveltime": 0}, {"Id": "0406", "pgp": 0, "GoBack": 1, "SID": 2788, "NameZh": "Kaisyuan Rd. Intersection", "RouteId": 1221, "SeqNo": 18, "Terminal": 0, "DistrictId": 1, "Latitude": 22.633917, "Longitude": 120.318833, "IVRNo": 406, "EXTVoiceNo": 406, "traveltime": 0, "holidayTraveltime": 0}, {"Id": "0407", "pgp": 0, "GoBack": 1, "SID": 2816, "NameZh": "Kaiguo Rd. Intersection", "RouteId": 1221, "SeqNo": 19, "Terminal": 0, "DistrictId": 1, "Latitude": 22.635924, "Longitude": 120.315614, "IVRNo": 407, "EXTVoiceNo": 407, "traveltime": 0, "holidayTraveltime": 0}, {"Id": "0408", "pgp": 0, "GoBack": 1, "SID": 2822, "NameZh": "Jianguo 2nd Rd.", "RouteId": 1221, "SeqNo": 20, "Terminal": 0, "DistrictId": 1, "Latitude": 22.637511, "Longitude": 120.311808, "IVRNo": 408, "EXTVoiceNo": 408, "traveltime": 0, "holidayTraveltime": 0}, {"Id": "0409", "pgp": 0, "GoBack": 1, "SID": 2855, "NameZh": "Railroad New Village", "RouteId": 1221, "SeqNo": 21, "Terminal": 0, "DistrictId": 1, "Latitude": 22.637608, "Longitude": 120.308331, "IVRNo": 409, "EXTVoiceNo": 409, "traveltime": 0, "holidayTraveltime": 0}, {"Id": "0410", "pgp": 0, "GoBack": 1, "SID": 2876, "NameZh": "Jhongsiao Rd. Intersection (Jianguo 2nd Rd.)", "RouteId": 1221, "SeqNo": 22, "Terminal": 0, "DistrictId": 1, "Latitude": 22.637619, "Longitude": 120.306147, "IVRNo": 410, "EXTVoiceNo": 410, "traveltime": 0, "holidayTraveltime": 0}, {"Id": "0411", "pgp": 0, "GoBack": 1, "SID": 2877, "NameZh": "Linsen Rd. Intersection", "RouteId": 1221, "SeqNo": 23, "Terminal": 0, "DistrictId": 1, "Latitude": 22.637686, "Longitude": 120.304303, "IVRNo": 92, "EXTVoiceNo": 411, "traveltime": 0, "holidayTraveltime": 0}, {"Id": "0248", "pgp": 0, "GoBack": 1, "SID": 15394, "NameZh": "Kaohsiung Train Station (Tungai St. Intersection)", "RouteId": 1221, "SeqNo": 24, "Terminal": 0, "DistrictId": 1, "Latitude": 22.637845, "Longitude": 120.301119, "IVRNo": 241, "EXTVoiceNo": 20248, "traveltime": 0, "holidayTraveltime": 0}, {"Id": "0240", "pgp": 0, "GoBack": 1, "SID": 2898, "NameZh": "Kaohsiung Senior High School", "RouteId": 1221, "SeqNo": 25, "Terminal": 0, "DistrictId": 1, "Latitude": 22.637981, "Longitude": 120.297336, "IVRNo": 240, "EXTVoiceNo": 240, "traveltime": 0, "holidayTraveltime": 0}, {"Id": "0414", "pgp": 0, "GoBack": 1, "SID": 2909, "NameZh": "Sanfongjhong St.", "RouteId": 1221, "SeqNo": 26, "Terminal": 0, "DistrictId": 1, "Latitude": 22.637132, "Longitude": 120.2939, "IVRNo": 414, "EXTVoiceNo": 414, "traveltime": 0, "holidayTraveltime": 0}, {"Id": "0415", "pgp": 0, "GoBack": 1, "SID": 2911, "NameZh": "Sanmin Elementary School", "RouteId": 1221, "SeqNo": 27, "Terminal": 0, "DistrictId": 1, "Latitude": 22.636178, "Longitude": 120.290494, "IVRNo": 415, "EXTVoiceNo": 415, "traveltime": 0, "holidayTraveltime": 0}, {"Id": "0416", "pgp": 0, "GoBack": 1, "SID": 2916, "NameZh": "Jianguo 3rd Rd.", "RouteId": 1221, "SeqNo": 28, "Terminal": 0, "DistrictId": 1, "Latitude": 22.635514, "Longitude": 120.288511, "IVRNo": 416, "EXTVoiceNo": 416, "traveltime": 0, "holidayTraveltime": 0}, {"Id": "0417", "pgp": 0, "GoBack": 1, "SID": 2917, "NameZh": "Herbin Elementary School", "RouteId": 1221, "SeqNo": 29, "Terminal": 0, "DistrictId": 1, "Latitude": 22.634854, "Longitude": 120.2865, "IVRNo": 417, "EXTVoiceNo": 417, "traveltime": 0, "holidayTraveltime": 0}, {"Id": "0418", "pgp": 0, "GoBack": 1, "SID": 2923, "NameZh": "Beidou St. Intersection", "RouteId": 1221, "SeqNo": 30, "Terminal": 0, "DistrictId": 1, "Latitude": 22.631806, "Longitude": 120.283674, "IVRNo": 418, "EXTVoiceNo": 418, "traveltime": 0, "holidayTraveltime": 0}, {"Id": "0419", "pgp": 0, "GoBack": 1, "SID": 2924, "NameZh": "Yancheng Precinct", "RouteId": 1221, "SeqNo": 31, "Terminal": 0, "DistrictId": 1, "Latitude": 22.630792, "Longitude": 120.282981, "IVRNo": 419, "EXTVoiceNo": 419, "traveltime": 0, "holidayTraveltime": 0}, {"Id": "0420", "pgp": 0, "GoBack": 1, "SID": 2931, "NameZh": "Dagong Rd. Intersection(Jianguo 4th Rd.)", "RouteId": 1221, "SeqNo": 32, "Terminal": 0, "DistrictId": 1, "Latitude": 22.627733, "Longitude": 120.281333, "IVRNo": 420, "EXTVoiceNo": 420, "traveltime": 0, "holidayTraveltime": 0}, {"Id": "0031", "pgp": 0, "GoBack": 1, "SID": 2176, "NameZh": "Jianguo 4th Rd. Intersection", "RouteId": 1221, "SeqNo": 33, "Terminal": 0, "DistrictId": 1, "Latitude": 22.625086, "Longitude": 120.280364, "IVRNo": 31, "EXTVoiceNo": 31, "traveltime": 0, "holidayTraveltime": 0}, {"Id": "0021", "pgp": 0, "GoBack": 1, "SID": 2222, "NameZh": "Wufu Lainan St. Intersection", "RouteId": 1221, "SeqNo": 34, "Terminal": 0, "DistrictId": 1, "Latitude": 22.624025, "Longitude": 120.282547, "IVRNo": 21, "EXTVoiceNo": 21, "traveltime": 0, "holidayTraveltime": 0}, {"Id": "0423", "pgp": 0, "GoBack": 1, "SID": 2950, "NameZh": "MRT Yanchengpu Station (Wufu 4th Rd.)", "RouteId": 1221, "SeqNo": 35, "Terminal": 0, "DistrictId": 1, "Latitude": 22.623167, "Longitude": 120.284262, "IVRNo": 426, "EXTVoiceNo": 423, "traveltime": 0, "holidayTraveltime": 0}, {"Id": "0115", "pgp": 0, "GoBack": 1, "SID": 2963, "NameZh": "Dajhih Rd. (Guangrong Elementary School)", "RouteId": 1221, "SeqNo": 36, "Terminal": 0, "DistrictId": 1, "Latitude": 22.623575, "Longitude": 120.286522, "IVRNo": 115, "EXTVoiceNo": 115, "traveltime": 0, "holidayTraveltime": 0}, {"Id": "4000", "pgp": 0, "GoBack": 1, "SID": 19047, "NameZh": "MRT Yanchengpu Station (Daren Rd.)", "RouteId": 1221, "SeqNo": 37, "Terminal": 1, "DistrictId": 1, "Latitude": 22.625183, "Longitude": 120.285422, "IVRNo": 4000, "EXTVoiceNo": 4000, "traveltime": 0, "holidayTraveltime": 0}, {"Id": "4000", "pgp": 0, "GoBack": 2, "SID": 19048, "NameZh": "MRT Yanchengpu Station (Daren Rd.)", "RouteId": 1221, "SeqNo": 1, "Terminal": 0, "DistrictId": 1, "Latitude": 22.625402, "Longitude": 120.284998, "IVRNo": 4000, "EXTVoiceNo": 4000, "traveltime": 0, "holidayTraveltime": 0}, {"Id": "1140", "pgp": 0, "GoBack": 2, "SID": 240, "NameZh": "Sanshan King`s Temple", "RouteId": 1221, "SeqNo": 2, "Terminal": 0, "DistrictId": 1, "Latitude": 22.625911, "Longitude": 120.283767, "IVRNo": 1140, "EXTVoiceNo": 1140, "traveltime": 0, "holidayTraveltime": 0}, {"Id": "0542", "pgp": 0, "GoBack": 2, "SID": 3994, "NameZh": "International Market", "RouteId": 1221, "SeqNo": 3, "Terminal": 0, "DistrictId": 1, "Latitude": 22.625289, "Longitude": 120.281508, "IVRNo": 532, "EXTVoiceNo": 542, "traveltime": 0, "holidayTraveltime": 0}, {"Id": "0031", "pgp": 0, "GoBack": 2, "SID": 1376, "NameZh": "Jianguo 4th Rd. Intersection", "RouteId": 1221, "SeqNo": 4, "Terminal": 0, "DistrictId": 1, "Latitude": 22.625078, "Longitude": 120.280656, "IVRNo": 31, "EXTVoiceNo": 31, "traveltime": 0, "holidayTraveltime": 0}, {"Id": "0420", "pgp": 0, "GoBack": 2, "SID": 2968, "NameZh": "Dagong Rd. Intersection(Jianguo 4th Rd.)", "RouteId": 1221, "SeqNo": 5, "Terminal": 0, "DistrictId": 1, "Latitude": 22.627694, "Longitude": 120.281397, "IVRNo": 420, "EXTVoiceNo": 420, "traveltime": 0, "holidayTraveltime": 0}, {"Id": "0419", "pgp": 0, "GoBack": 2, "SID": 2969, "NameZh": "Yancheng Precinct", "RouteId": 1221, "SeqNo": 6, "Terminal": 0, "DistrictId": 1, "Latitude": 22.630564, "Longitude": 120.282944, "IVRNo": 419, "EXTVoiceNo": 419, "traveltime": 0, "holidayTraveltime": 0}, {"Id": "0418", "pgp": 0, "GoBack": 2, "SID": 2977, "NameZh": "Beidou St. Intersection", "RouteId": 1221, "SeqNo": 7, "Terminal": 0, "DistrictId": 1, "Latitude": 22.631796, "Longitude": 120.283695, "IVRNo": 418, "EXTVoiceNo": 418, "traveltime": 0, "holidayTraveltime": 0}, {"Id": "0417", "pgp": 0, "GoBack": 2, "SID": 2981, "NameZh": "Herbin Elementary School", "RouteId": 1221, "SeqNo": 8, "Terminal": 0, "DistrictId": 1, "Latitude": 22.634698, "Longitude": 120.286372, "IVRNo": 417, "EXTVoiceNo": 417, "traveltime": 0, "holidayTraveltime": 0}, {"Id": "0416", "pgp": 0, "GoBack": 2, "SID": 2989, "NameZh": "Jianguo 3rd Rd.", "RouteId": 1221, "SeqNo": 9, "Terminal": 0, "DistrictId": 1, "Latitude": 22.635328, "Longitude": 120.288253, "IVRNo": 416, "EXTVoiceNo": 416, "traveltime": 0, "holidayTraveltime": 0}, {"Id": "0415", "pgp": 0, "GoBack": 2, "SID": 2994, "NameZh": "Sanmin Elementary School", "RouteId": 1221, "SeqNo": 10, "Terminal": 0, "DistrictId": 1, "Latitude": 22.636034, "Longitude": 120.290381, "IVRNo": 415, "EXTVoiceNo": 415, "traveltime": 0, "holidayTraveltime": 0}, {"Id": "0414", "pgp": 0, "GoBack": 2, "SID": 3007, "NameZh": "Sanfongjhong St.", "RouteId": 1221, "SeqNo": 11, "Terminal": 0, "DistrictId": 1, "Latitude": 22.637478, "Longitude": 120.295029, "IVRNo": 414, "EXTVoiceNo": 414, "traveltime": 0, "holidayTraveltime": 0}, {"Id": "0240", "pgp": 0, "GoBack": 2, "SID": 1605, "NameZh": "Kaohsiung Senior High School", "RouteId": 1221, "SeqNo": 12, "Terminal": 0, "DistrictId": 1, "Latitude": 22.637819, "Longitude": 120.297644, "IVRNo": 240, "EXTVoiceNo": 240, "traveltime": 0, "holidayTraveltime": 0}, {"Id": "0248", "pgp": 0, "GoBack": 2, "SID": 15389, "NameZh": "Kaohsiung Train Station (Tungai St. Intersection)", "RouteId": 1221, "SeqNo": 13, "Terminal": 0, "DistrictId": 1, "Latitude": 22.637808, "Longitude": 120.300921, "IVRNo": 241, "EXTVoiceNo": 20248, "traveltime": 0, "holidayTraveltime": 0}, {"Id": "0411", "pgp": 0, "GoBack": 2, "SID": 3011, "NameZh": "Linsen Rd. Intersection", "RouteId": 1221, "SeqNo": 14, "Terminal": 0, "DistrictId": 1, "Latitude": 22.637547, "Longitude": 120.304303, "IVRNo": 92, "EXTVoiceNo": 411, "traveltime": 0, "holidayTraveltime": 0}, {"Id": "0410", "pgp": 0, "GoBack": 2, "SID": 3017, "NameZh": "Jhongsiao Rd. Intersection (Jianguo 2nd Rd.)", "RouteId": 1221, "SeqNo": 15, "Terminal": 0, "DistrictId": 1, "Latitude": 22.637514, "Longitude": 120.306117, "IVRNo": 410, "EXTVoiceNo": 410, "traveltime": 0, "holidayTraveltime": 0}, {"Id": "0409", "pgp": 0, "GoBack": 2, "SID": 3020, "NameZh": "Railroad New Village", "RouteId": 1221, "SeqNo": 16, "Terminal": 0, "DistrictId": 1, "Latitude": 22.637519, "Longitude": 120.308183, "IVRNo": 409, "EXTVoiceNo": 409, "traveltime": 0, "holidayTraveltime": 0}, {"Id": "0408", "pgp": 0, "GoBack": 2, "SID": 3026, "NameZh": "Jianguo 2nd Rd.", "RouteId": 1221, "SeqNo": 17, "Terminal": 0, "DistrictId": 1, "Latitude": 22.63735, "Longitude": 120.312286, "IVRNo": 408, "EXTVoiceNo": 408, "traveltime": 0, "holidayTraveltime": 0}, {"Id": "0407", "pgp": 0, "GoBack": 2, "SID": 3029, "NameZh": "Kaiguo Rd. Intersection", "RouteId": 1221, "SeqNo": 18, "Terminal": 0, "DistrictId": 1, "Latitude": 22.635704, "Longitude": 120.315576, "IVRNo": 407, "EXTVoiceNo": 407, "traveltime": 0, "holidayTraveltime": 0}, {"Id": "0406", "pgp": 0, "GoBack": 2, "SID": 3030, "NameZh": "Kaisyuan Rd. Intersection", "RouteId": 1221, "SeqNo": 19, "Terminal": 0, "DistrictId": 1, "Latitude": 22.633911, "Longitude": 120.319095, "IVRNo": 406, "EXTVoiceNo": 406, "traveltime": 0, "holidayTraveltime": 0}, {"Id": "0405", "pgp": 0, "GoBack": 2, "SID": 3039, "NameZh": "Dominic High School", "RouteId": 1221, "SeqNo": 20, "Terminal": 0, "DistrictId": 1, "Latitude": 22.633114, "Longitude": 120.322819, "IVRNo": 405, "EXTVoiceNo": 405, "traveltime": 0, "holidayTraveltime": 0}, {"Id": "0404", "pgp": 0, "GoBack": 2, "SID": 3046, "NameZh": "St. Joseph Hospital", "RouteId": 1221, "SeqNo": 21, "Terminal": 0, "DistrictId": 1, "Latitude": 22.632733, "Longitude": 120.324722, "IVRNo": 404, "EXTVoiceNo": 404, "traveltime": 0, "holidayTraveltime": 0}, {"Id": "0403", "pgp": 0, "GoBack": 2, "SID": 3063, "NameZh": "Fude Market", "RouteId": 1221, "SeqNo": 22, "Terminal": 0, "DistrictId": 1, "Latitude": 22.632892, "Longitude": 120.327368, "IVRNo": 403, "EXTVoiceNo": 403, "traveltime": 0, "holidayTraveltime": 0}, {"Id": "0402", "pgp": 0, "GoBack": 2, "SID": 3072, "NameZh": "Taren Junior High School", "RouteId": 1221, "SeqNo": 23, "Terminal": 0, "DistrictId": 1, "Latitude": 22.632683, "Longitude": 120.329274, "IVRNo": 402, "EXTVoiceNo": 402, "traveltime": 0, "holidayTraveltime": 0}, {"Id": "2937", "pgp": 0, "GoBack": 2, "SID": 2946, "NameZh": "Furen Rd. Intersection (Jianguo Rd.)", "RouteId": 1221, "SeqNo": 24, "Terminal": 0, "DistrictId": 1, "Latitude": 22.631944, "Longitude": 120.331889, "IVRNo": 2937, "EXTVoiceNo": 2937, "traveltime": 0, "holidayTraveltime": 0}, {"Id": "0401", "pgp": 0, "GoBack": 2, "SID": 3077, "NameZh": "Jhongjheng Elementary School", "RouteId": 1221, "SeqNo": 25, "Terminal": 0, "DistrictId": 1, "Latitude": 22.631183, "Longitude": 120.334086, "IVRNo": 401, "EXTVoiceNo": 401, "traveltime": 0, "holidayTraveltime": 0}, {"Id": "0203", "pgp": 0, "GoBack": 2, "SID": 2044, "NameZh": "Jianguo 1st Rd.", "RouteId": 1221, "SeqNo": 26, "Terminal": 0, "DistrictId": 1, "Latitude": 22.629583, "Longitude": 120.339, "IVRNo": 203, "EXTVoiceNo": 203, "traveltime": 0, "holidayTraveltime": 0}, {"Id": "0202", "pgp": 0, "GoBack": 2, "SID": 2054, "NameZh": "Jianjun Rd. Intersection", "RouteId": 1221, "SeqNo": 27, "Terminal": 0, "DistrictId": 1, "Latitude": 22.628658, "Longitude": 120.341533, "IVRNo": 202, "EXTVoiceNo": 202, "traveltime": 0, "holidayTraveltime": 0}, {"Id": "3528", "pgp": 0, "GoBack": 2, "SID": 5829, "NameZh": "Fongshan Administration Center (Jhongshan W. Rd.)", "RouteId": 1221, "SeqNo": 28, "Terminal": 0, "DistrictId": 1, "Latitude": 22.628115, "Longitude": 120.343755, "IVRNo": 502, "EXTVoiceNo": 13528, "traveltime": 0, "holidayTraveltime": 0}, {"Id": "3527", "pgp": 0, "GoBack": 2, "SID": 2591, "NameZh": "Weiguang Community", "RouteId": 1221, "SeqNo": 29, "Terminal": 0, "DistrictId": 1, "Latitude": 22.627065, "Longitude": 120.344279, "IVRNo": 3527, "EXTVoiceNo": 3527, "traveltime": 0, "holidayTraveltime": 0}, {"Id": "9021", "pgp": 0, "GoBack": 2, "SID": 11364, "NameZh": "Kaohsiung City Council (Jhongsiao Junior High School)", "RouteId": 1221, "SeqNo": 30, "Terminal": 0, "DistrictId": 1, "Latitude": 22.620007, "Longitude": 120.34768, "IVRNo": 9528, "EXTVoiceNo": 9021, "traveltime": 0, "holidayTraveltime": 0}, {"Id": "6046", "pgp": 0, "GoBack": 2, "SID": 5948, "NameZh": "Jhongsiao Elementary School", "RouteId": 1221, "SeqNo": 31, "Terminal": 0, "DistrictId": 1, "Latitude": 22.618028, "Longitude": 120.34932, "IVRNo": 920, "EXTVoiceNo": 26046, "traveltime": 0, "holidayTraveltime": 0}, {"Id": "1338", "pgp": 0, "GoBack": 2, "SID": 5949, "NameZh": "Sinfu Rd.", "RouteId": 1221, "SeqNo": 32, "Terminal": 0, "DistrictId": 1, "Latitude": 22.615718, "Longitude": 120.348527, "IVRNo": 1169, "EXTVoiceNo": 1338, "traveltime": 0, "holidayTraveltime": 0}, {"Id": "1086", "pgp": 0, "GoBack": 2, "SID": 14711, "NameZh": "Kaisyuan Rd.", "RouteId": 1221, "SeqNo": 33, "Terminal": 0, "DistrictId": 1, "Latitude": 22.615361, "Longitude": 120.346551, "IVRNo": 643, "EXTVoiceNo": 21086, "traveltime": 0, "holidayTraveltime": 0}, {"Id": "1085", "pgp": 0, "GoBack": 2, "SID": 14709, "NameZh": "Nanjing Rd. (Wei Wu Ying Center for the Arts)", "RouteId": 1221, "SeqNo": 34, "Terminal": 0, "DistrictId": 1, "Latitude": 22.617913, "Longitude": 120.345499, "IVRNo": 642, "EXTVoiceNo": 21085, "traveltime": 0, "holidayTraveltime": 0}, {"Id": "0002", "pgp": 0, "GoBack": 2, "SID": 16, "NameZh": "Jianjun Station (MRT Weiwuying Station)", "RouteId": 1221, "SeqNo": 35, "Terminal": 1, "DistrictId": 1, "Latitude": 22.624975, "Longitude": 120.343796, "IVRNo": 1, "EXTVoiceNo": 2, "traveltime": 0, "holidayTraveltime": 0}], "zh": [{"Id": "0002", "pgp": 0, "GoBack": 1, "SID": 6, "NameZh": "\u5efa\u8ecd\u7ad9(\u6377\u904b\u885b\u6b66\u71df\u7ad9)", "RouteId": 1221, "SeqNo": 1, "Terminal": 0, "DistrictId": 1, "Latitude": 22.624966, "Longitude": 120.343291, "IVRNo": 1, "EXTVoiceNo": 2, "traveltime": 0, "holidayTraveltime": 0}, {"Id": "0448", "pgp": 0, "GoBack": 1, "SID": 11357, "NameZh": "\u884c\u4ec1\u8def", "RouteId": 1221, "SeqNo": 2, "Terminal": 0, "DistrictId": 1, "Latitude": 22.625983, "Longitude": 120.342919, "IVRNo": 122, "EXTVoiceNo": 448, "traveltime": 0, "holidayTraveltime": 0}, {"Id": "1085", "pgp": 0, "GoBack": 1, "SID": 14708, "NameZh": "\u5357\u4eac\u8def(\u885b\u6b66\u71df\u85dd\u8853\u6587\u5316\u4e2d\u5fc3)", "RouteId": 1221, "SeqNo": 3, "Terminal": 0, "DistrictId": 1, "Latitude": 22.617774, "Longitude": 120.345464, "IVRNo": 642, "EXTVoiceNo": 21085, "traveltime": 0, "holidayTraveltime": 0}, {"Id": "1086", "pgp": 0, "GoBack": 1, "SID": 14710, "NameZh": "\u51f1\u65cb\u8def", "RouteId": 1221, "SeqNo": 4, "Terminal": 0, "DistrictId": 1, "Latitude": 22.615495, "Longitude": 120.346453, "IVRNo": 643, "EXTVoiceNo": 21086, "traveltime": 0, "holidayTraveltime": 0}, {"Id": "1338", "pgp": 0, "GoBack": 1, "SID": 276, "NameZh": "\u65b0\u5bcc\u8def", "RouteId": 1221, "SeqNo": 5, "Terminal": 0, "DistrictId": 1, "Latitude": 22.615392, "Longitude": 120.348447, "IVRNo": 1169, "EXTVoiceNo": 1338, "traveltime": 0, "holidayTraveltime": 0}, {"Id": "6046", "pgp": 0, "GoBack": 1, "SID": 277, "NameZh": "\u5fe0\u5b5d\u570b\u5c0f", "RouteId": 1221, "SeqNo": 6, "Terminal": 0, "DistrictId": 1, "Latitude": 22.617805, "Longitude": 120.34933, "IVRNo": 920, "EXTVoiceNo": 26046, "traveltime": 0, "holidayTraveltime": 0}, {"Id": "9021", "pgp": 0, "GoBack": 1, "SID": 11358, "NameZh": "\u9ad8\u96c4\u5e02\u8b70\u6703(\u5fe0\u5b5d\u570b\u4e2d)", "RouteId": 1221, "SeqNo": 7, "Terminal": 0, "DistrictId": 1, "Latitude": 22.619978, "Longitude": 120.34722, "IVRNo": 9528, "EXTVoiceNo": 9021, "traveltime": 0, "holidayTraveltime": 0}, {"Id": "3527", "pgp": 0, "GoBack": 1, "SID": 2496, "NameZh": "\u885b\u6b66\u793e\u5340", "RouteId": 1221, "SeqNo": 8, "Terminal": 0, "DistrictId": 1, "Latitude": 22.626758, "Longitude": 120.344386, "IVRNo": 3527, "EXTVoiceNo": 3527, "traveltime": 0, "holidayTraveltime": 0}, {"Id": "3528", "pgp": 0, "GoBack": 1, "SID": 3601, "NameZh": "\u9cf3\u5c71\u884c\u653f\u4e2d\u5fc3(\u4e2d\u5c71\u897f\u8def)", "RouteId": 1221, "SeqNo": 9, "Terminal": 0, "DistrictId": 1, "Latitude": 22.628242, "Longitude": 120.343935, "IVRNo": 502, "EXTVoiceNo": 13528, "traveltime": 0, "holidayTraveltime": 0}, {"Id": "0202", "pgp": 0, "GoBack": 1, "SID": 1007, "NameZh": "\u5efa\u8ecd\u8def\u53e3", "RouteId": 1221, "SeqNo": 10, "Terminal": 0, "DistrictId": 1, "Latitude": 22.628753, "Longitude": 120.341492, "IVRNo": 202, "EXTVoiceNo": 202, "traveltime": 0, "holidayTraveltime": 0}, {"Id": "0203", "pgp": 0, "GoBack": 1, "SID": 1048, "NameZh": "\u5efa\u570b\u4e00\u8def", "RouteId": 1221, "SeqNo": 11, "Terminal": 0, "DistrictId": 1, "Latitude": 22.629694, "Longitude": 120.339111, "IVRNo": 203, "EXTVoiceNo": 203, "traveltime": 0, "holidayTraveltime": 0}, {"Id": "0401", "pgp": 0, "GoBack": 1, "SID": 2668, "NameZh": "\u4e2d\u6b63\u570b\u5c0f", "RouteId": 1221, "SeqNo": 12, "Terminal": 0, "DistrictId": 1, "Latitude": 22.631178, "Longitude": 120.334367, "IVRNo": 401, "EXTVoiceNo": 401, "traveltime": 0, "holidayTraveltime": 0}, {"Id": "2937", "pgp": 0, "GoBack": 1, "SID": 2937, "NameZh": "\u8f14\u4ec1\u8def\u53e3(\u5efa\u570b\u4e00\u8def)", "RouteId": 1221, "SeqNo": 13, "Terminal": 0, "DistrictId": 1, "Latitude": 22.631763, "Longitude": 120.332485, "IVRNo": 2937, "EXTVoiceNo": 2937, "traveltime": 0, "holidayTraveltime": 0}, {"Id": "0402", "pgp": 0, "GoBack": 1, "SID": 2692, "NameZh": "\u5927\u4ec1\u570b\u4e2d", "RouteId": 1221, "SeqNo": 14, "Terminal": 0, "DistrictId": 1, "Latitude": 22.632707, "Longitude": 120.329614, "IVRNo": 402, "EXTVoiceNo": 402, "traveltime": 0, "holidayTraveltime": 0}, {"Id": "0403", "pgp": 0, "GoBack": 1, "SID": 2709, "NameZh": "\u798f\u5fb7\u5e02\u5834", "RouteId": 1221, "SeqNo": 15, "Terminal": 0, "DistrictId": 1, "Latitude": 22.633042, "Longitude": 120.327228, "IVRNo": 403, "EXTVoiceNo": 403, "traveltime": 0, "holidayTraveltime": 0}, {"Id": "0404", "pgp": 0, "GoBack": 1, "SID": 2750, "NameZh": "\u8056\u529f\u91ab\u9662", "RouteId": 1221, "SeqNo": 16, "Terminal": 0, "DistrictId": 1, "Latitude": 22.632869, "Longitude": 120.324722, "IVRNo": 404, "EXTVoiceNo": 404, "traveltime": 0, "holidayTraveltime": 0}, {"Id": "0405", "pgp": 0, "GoBack": 1, "SID": 2767, "NameZh": "\u9053\u660e\u4e2d\u5b78", "RouteId": 1221, "SeqNo": 17, "Terminal": 0, "DistrictId": 1, "Latitude": 22.633374, "Longitude": 120.322333, "IVRNo": 405, "EXTVoiceNo": 405, "traveltime": 0, "holidayTraveltime": 0}, {"Id": "0406", "pgp": 0, "GoBack": 1, "SID": 2788, "NameZh": "\u51f1\u65cb\u8def\u53e3", "RouteId": 1221, "SeqNo": 18, "Terminal": 0, "DistrictId": 1, "Latitude": 22.633917, "Longitude": 120.318833, "IVRNo": 406, "EXTVoiceNo": 406, "traveltime": 0, "holidayTraveltime": 0}, {"Id": "0407", "pgp": 0, "GoBack": 1, "SID": 2816, "NameZh": "\u51f1\u570b\u8def\u53e3", "RouteId": 1221, "SeqNo": 19, "Terminal": 0, "DistrictId": 1, "Latitude": 22.635924, "Longitude": 120.315614, "IVRNo": 407, "EXTVoiceNo": 407, "traveltime": 0, "holidayTraveltime": 0}, {"Id": "0408", "pgp": 0, "GoBack": 1, "SID": 2822, "NameZh": "\u5efa\u570b\u4e8c\u8def", "RouteId": 1221, "SeqNo": 20, "Terminal": 0, "DistrictId": 1, "Latitude": 22.637511, "Longitude": 120.311808, "IVRNo": 408, "EXTVoiceNo": 408, "traveltime": 0, "holidayTraveltime": 0}, {"Id": "0409", "pgp": 0, "GoBack": 1, "SID": 2855, "NameZh": "\u9435\u8def\u65b0\u6751", "RouteId": 1221, "SeqNo": 21, "Terminal": 0, "DistrictId": 1, "Latitude": 22.637608, "Longitude": 120.308331, "IVRNo": 409, "EXTVoiceNo": 409, "traveltime": 0, "holidayTraveltime": 0}, {"Id": "0410", "pgp": 0, "GoBack": 1, "SID": 2876, "NameZh": "\u5fe0\u5b5d\u8def\u53e3(\u5efa\u570b\u4e8c\u8def)", "RouteId": 1221, "SeqNo": 22, "Terminal": 0, "DistrictId": 1, "Latitude": 22.637619, "Longitude": 120.306147, "IVRNo": 410, "EXTVoiceNo": 410, "traveltime": 0, "holidayTraveltime": 0}, {"Id": "0411", "pgp": 0, "GoBack": 1, "SID": 2877, "NameZh": "\u6797\u68ee\u8def\u53e3", "RouteId": 1221, "SeqNo": 23, "Terminal": 0, "DistrictId": 1, "Latitude": 22.637686, "Longitude": 120.304303, "IVRNo": 92, "EXTVoiceNo": 411, "traveltime": 0, "holidayTraveltime": 0}, {"Id": "0248", "pgp": 0, "GoBack": 1, "SID": 15394, "NameZh": "\u9ad8\u96c4\u706b\u8eca\u7ad9(\u540c\u611b\u8857\u53e3)", "RouteId": 1221, "SeqNo": 24, "Terminal": 0, "DistrictId": 1, "Latitude": 22.637845, "Longitude": 120.301119, "IVRNo": 241, "EXTVoiceNo": 20248, "traveltime": 0, "holidayTraveltime": 0}, {"Id": "0240", "pgp": 0, "GoBack": 1, "SID": 2898, "NameZh": "\u9ad8\u96c4\u4e2d\u5b78", "RouteId": 1221, "SeqNo": 25, "Terminal": 0, "DistrictId": 1, "Latitude": 22.637981, "Longitude": 120.297336, "IVRNo": 240, "EXTVoiceNo": 240, "traveltime": 0, "holidayTraveltime": 0}, {"Id": "0414", "pgp": 0, "GoBack": 1, "SID": 2909, "NameZh": "\u4e09\u9cf3\u4e2d\u8857", "RouteId": 1221, "SeqNo": 26, "Terminal": 0, "DistrictId": 1, "Latitude": 22.637132, "Longitude": 120.2939, "IVRNo": 414, "EXTVoiceNo": 414, "traveltime": 0, "holidayTraveltime": 0}, {"Id": "0415", "pgp": 0, "GoBack": 1, "SID": 2911, "NameZh": "\u4e09\u6c11\u570b\u5c0f", "RouteId": 1221, "SeqNo": 27, "Terminal": 0, "DistrictId": 1, "Latitude": 22.636178, "Longitude": 120.290494, "IVRNo": 415, "EXTVoiceNo": 415, "traveltime": 0, "holidayTraveltime": 0}, {"Id": "0416", "pgp": 0, "GoBack": 1, "SID": 2916, "NameZh": "\u5efa\u570b\u4e09\u8def", "RouteId": 1221, "SeqNo": 28, "Terminal": 0, "DistrictId": 1, "Latitude": 22.635514, "Longitude": 120.288511, "IVRNo": 416, "EXTVoiceNo": 416, "traveltime": 0, "holidayTraveltime": 0}, {"Id": "0417", "pgp": 0, "GoBack": 1, "SID": 2917, "NameZh": "\u6cb3\u6ff1\u570b\u5c0f", "RouteId": 1221, "SeqNo": 29, "Terminal": 0, "DistrictId": 1, "Latitude": 22.634854, "Longitude": 120.2865, "IVRNo": 417, "EXTVoiceNo": 417, "traveltime": 0, "holidayTraveltime": 0}, {"Id": "0418", "pgp": 0, "GoBack": 1, "SID": 2923, "NameZh": "\u5317\u6597\u8857\u53e3", "RouteId": 1221, "SeqNo": 30, "Terminal": 0, "DistrictId": 1, "Latitude": 22.631806, "Longitude": 120.283674, "IVRNo": 418, "EXTVoiceNo": 418, "traveltime": 0, "holidayTraveltime": 0}, {"Id": "0419", "pgp": 0, "GoBack": 1, "SID": 2924, "NameZh": "\u9e7d\u57d5\u5206\u5c40", "RouteId": 1221, "SeqNo": 31, "Terminal": 0, "DistrictId": 1, "Latitude": 22.630792, "Longitude": 120.282981, "IVRNo": 419, "EXTVoiceNo": 419, "traveltime": 0, "holidayTraveltime": 0}, {"Id": "0420", "pgp": 0, "GoBack": 1, "SID": 2931, "NameZh": "\u5927\u516c\u8def\u53e3(\u5efa\u570b\u56db\u8def)", "RouteId": 1221, "SeqNo": 32, "Terminal": 0, "DistrictId": 1, "Latitude": 22.627733, "Longitude": 120.281333, "IVRNo": 420, "EXTVoiceNo": 420, "traveltime": 0, "holidayTraveltime": 0}, {"Id": "0031", "pgp": 0, "GoBack": 1, "SID": 2176, "NameZh": "\u5efa\u570b\u56db\u8def\u53e3", "RouteId": 1221, "SeqNo": 33, "Terminal": 0, "DistrictId": 1, "Latitude": 22.625086, "Longitude": 120.280364, "IVRNo": 31, "EXTVoiceNo": 31, "traveltime": 0, "holidayTraveltime": 0}, {"Id": "0021", "pgp": 0, "GoBack": 1, "SID": 2222, "NameZh": "\u4e94\u798f\u7028\u5357\u8857\u53e3", "RouteId": 1221, "SeqNo": 34, "Terminal": 0, "DistrictId": 1, "Latitude": 22.624025, "Longitude": 120.282547, "IVRNo": 21, "EXTVoiceNo": 21, "traveltime": 0, "holidayTraveltime": 0}, {"Id": "0423", "pgp": 0, "GoBack": 1, "SID": 2950, "NameZh": "\u6377\u904b\u9e7d\u57d5\u57d4\u7ad9(\u4e94\u798f\u56db\u8def)", "RouteId": 1221, "SeqNo": 35, "Terminal": 0, "DistrictId": 1, "Latitude": 22.623167, "Longitude": 120.284262, "IVRNo": 426, "EXTVoiceNo": 423, "traveltime": 0, "holidayTraveltime": 0}, {"Id": "0115", "pgp": 0, "GoBack": 1, "SID": 2963, "NameZh": "\u5927\u667a\u8def(\u5149\u69ae\u570b\u5c0f)", "RouteId": 1221, "SeqNo": 36, "Terminal": 0, "DistrictId": 1, "Latitude": 22.623575, "Longitude": 120.286522, "IVRNo": 115, "EXTVoiceNo": 115, "traveltime": 0, "holidayTraveltime": 0}, {"Id": "4000", "pgp": 0, "GoBack": 1, "SID": 19047, "NameZh": "\u6377\u904b\u9e7d\u57d5\u57d4\u7ad9(\u5927\u4ec1\u8def)", "RouteId": 1221, "SeqNo": 37, "Terminal": 1, "DistrictId": 1, "Latitude": 22.625183, "Longitude": 120.285422, "IVRNo": 4000, "EXTVoiceNo": 4000, "traveltime": 0, "holidayTraveltime": 0}, {"Id": "4000", "pgp": 0, "GoBack": 2, "SID": 19048, "NameZh": "\u6377\u904b\u9e7d\u57d5\u57d4\u7ad9(\u5927\u4ec1\u8def)", "RouteId": 1221, "SeqNo": 1, "Terminal": 0, "DistrictId": 1, "Latitude": 22.625402, "Longitude": 120.284998, "IVRNo": 4000, "EXTVoiceNo": 4000, "traveltime": 0, "holidayTraveltime": 0}, {"Id": "1140", "pgp": 0, "GoBack": 2, "SID": 240, "NameZh": "\u4e09\u5c71\u570b\u738b\u5edf", "RouteId": 1221, "SeqNo": 2, "Terminal": 0, "DistrictId": 1, "Latitude": 22.625911, "Longitude": 120.283767, "IVRNo": 1140, "EXTVoiceNo": 1140, "traveltime": 0, "holidayTraveltime": 0}, {"Id": "0542", "pgp": 0, "GoBack": 2, "SID": 3994, "NameZh": "\u570b\u969b\u5546\u5834", "RouteId": 1221, "SeqNo": 3, "Terminal": 0, "DistrictId": 1, "Latitude": 22.625289, "Longitude": 120.281508, "IVRNo": 532, "EXTVoiceNo": 542, "traveltime": 0, "holidayTraveltime": 0}, {"Id": "0031", "pgp": 0, "GoBack": 2, "SID": 1376, "NameZh": "\u5efa\u570b\u56db\u8def\u53e3", "RouteId": 1221, "SeqNo": 4, "Terminal": 0, "DistrictId": 1, "Latitude": 22.625078, "Longitude": 120.280656, "IVRNo": 31, "EXTVoiceNo": 31, "traveltime": 0, "holidayTraveltime": 0}, {"Id": "0420", "pgp": 0, "GoBack": 2, "SID": 2968, "NameZh": "\u5927\u516c\u8def\u53e3(\u5efa\u570b\u56db\u8def)", "RouteId": 1221, "SeqNo": 5, "Terminal": 0, "DistrictId": 1, "Latitude": 22.627694, "Longitude": 120.281397, "IVRNo": 420, "EXTVoiceNo": 420, "traveltime": 0, "holidayTraveltime": 0}, {"Id": "0419", "pgp": 0, "GoBack": 2, "SID": 2969, "NameZh": "\u9e7d\u57d5\u5206\u5c40", "RouteId": 1221, "SeqNo": 6, "Terminal": 0, "DistrictId": 1, "Latitude": 22.630564, "Longitude": 120.282944, "IVRNo": 419, "EXTVoiceNo": 419, "traveltime": 0, "holidayTraveltime": 0}, {"Id": "0418", "pgp": 0, "GoBack": 2, "SID": 2977, "NameZh": "\u5317\u6597\u8857\u53e3", "RouteId": 1221, "SeqNo": 7, "Terminal": 0, "DistrictId": 1, "Latitude": 22.631796, "Longitude": 120.283695, "IVRNo": 418, "EXTVoiceNo": 418, "traveltime": 0, "holidayTraveltime": 0}, {"Id": "0417", "pgp": 0, "GoBack": 2, "SID": 2981, "NameZh": "\u6cb3\u6ff1\u570b\u5c0f", "RouteId": 1221, "SeqNo": 8, "Terminal": 0, "DistrictId": 1, "Latitude": 22.634698, "Longitude": 120.286372, "IVRNo": 417, "EXTVoiceNo": 417, "traveltime": 0, "holidayTraveltime": 0}, {"Id": "0416", "pgp": 0, "GoBack": 2, "SID": 2989, "NameZh": "\u5efa\u570b\u4e09\u8def", "RouteId": 1221, "SeqNo": 9, "Terminal": 0, "DistrictId": 1, "Latitude": 22.635328, "Longitude": 120.288253, "IVRNo": 416, "EXTVoiceNo": 416, "traveltime": 0, "holidayTraveltime": 0}, {"Id": "0415", "pgp": 0, "GoBack": 2, "SID": 2994, "NameZh": "\u4e09\u6c11\u570b\u5c0f", "RouteId": 1221, "SeqNo": 10, "Terminal": 0, "DistrictId": 1, "Latitude": 22.636034, "Longitude": 120.290381, "IVRNo": 415, "EXTVoiceNo": 415, "traveltime": 0, "holidayTraveltime": 0}, {"Id": "0414", "pgp": 0, "GoBack": 2, "SID": 3007, "NameZh": "\u4e09\u9cf3\u4e2d\u8857", "RouteId": 1221, "SeqNo": 11, "Terminal": 0, "DistrictId": 1, "Latitude": 22.637478, "Longitude": 120.295029, "IVRNo": 414, "EXTVoiceNo": 414, "traveltime": 0, "holidayTraveltime": 0}, {"Id": "0240", "pgp": 0, "GoBack": 2, "SID": 1605, "NameZh": "\u9ad8\u96c4\u4e2d\u5b78", "RouteId": 1221, "SeqNo": 12, "Terminal": 0, "DistrictId": 1, "Latitude": 22.637819, "Longitude": 120.297644, "IVRNo": 240, "EXTVoiceNo": 240, "traveltime": 0, "holidayTraveltime": 0}, {"Id": "0248", "pgp": 0, "GoBack": 2, "SID": 15389, "NameZh": "\u9ad8\u96c4\u706b\u8eca\u7ad9(\u540c\u611b\u8857\u53e3)", "RouteId": 1221, "SeqNo": 13, "Terminal": 0, "DistrictId": 1, "Latitude": 22.637808, "Longitude": 120.300921, "IVRNo": 241, "EXTVoiceNo": 20248, "traveltime": 0, "holidayTraveltime": 0}, {"Id": "0411", "pgp": 0, "GoBack": 2, "SID": 3011, "NameZh": "\u6797\u68ee\u8def\u53e3", "RouteId": 1221, "SeqNo": 14, "Terminal": 0, "DistrictId": 1, "Latitude": 22.637547, "Longitude": 120.304303, "IVRNo": 92, "EXTVoiceNo": 411, "traveltime": 0, "holidayTraveltime": 0}, {"Id": "0410", "pgp": 0, "GoBack": 2, "SID": 3017, "NameZh": "\u5fe0\u5b5d\u8def\u53e3(\u5efa\u570b\u4e8c\u8def)", "RouteId": 1221, "SeqNo": 15, "Terminal": 0, "DistrictId": 1, "Latitude": 22.637514, "Longitude": 120.306117, "IVRNo": 410, "EXTVoiceNo": 410, "traveltime": 0, "holidayTraveltime": 0}, {"Id": "0409", "pgp": 0, "GoBack": 2, "SID": 3020, "NameZh": "\u9435\u8def\u65b0\u6751", "RouteId": 1221, "SeqNo": 16, "Terminal": 0, "DistrictId": 1, "Latitude": 22.637519, "Longitude": 120.308183, "IVRNo": 409, "EXTVoiceNo": 409, "traveltime": 0, "holidayTraveltime": 0}, {"Id": "0408", "pgp": 0, "GoBack": 2, "SID": 3026, "NameZh": "\u5efa\u570b\u4e8c\u8def", "RouteId": 1221, "SeqNo": 17, "Terminal": 0, "DistrictId": 1, "Latitude": 22.63735, "Longitude": 120.312286, "IVRNo": 408, "EXTVoiceNo": 408, "traveltime": 0, "holidayTraveltime": 0}, {"Id": "0407", "pgp": 0, "GoBack": 2, "SID": 3029, "NameZh": "\u51f1\u570b\u8def\u53e3", "RouteId": 1221, "SeqNo": 18, "Terminal": 0, "DistrictId": 1, "Latitude": 22.635704, "Longitude": 120.315576, "IVRNo": 407, "EXTVoiceNo": 407, "traveltime": 0, "holidayTraveltime": 0}, {"Id": "0406", "pgp": 0, "GoBack": 2, "SID": 3030, "NameZh": "\u51f1\u65cb\u8def\u53e3", "RouteId": 1221, "SeqNo": 19, "Terminal": 0, "DistrictId": 1, "Latitude": 22.633911, "Longitude": 120.319095, "IVRNo": 406, "EXTVoiceNo": 406, "traveltime": 0, "holidayTraveltime": 0}, {"Id": "0405", "pgp": 0, "GoBack": 2, "SID": 3039, "NameZh": "\u9053\u660e\u4e2d\u5b78", "RouteId": 1221, "SeqNo": 20, "Terminal": 0, "DistrictId": 1, "Latitude": 22.633114, "Longitude": 120.322819, "IVRNo": 405, "EXTVoiceNo": 405, "traveltime": 0, "holidayTraveltime": 0}, {"Id": "0404", "pgp": 0, "GoBack": 2, "SID": 3046, "NameZh": "\u8056\u529f\u91ab\u9662", "RouteId": 1221, "SeqNo": 21, "Terminal": 0, "DistrictId": 1, "Latitude": 22.632733, "Longitude": 120.324722, "IVRNo": 404, "EXTVoiceNo": 404, "traveltime": 0, "holidayTraveltime": 0}, {"Id": "0403", "pgp": 0, "GoBack": 2, "SID": 3063, "NameZh": "\u798f\u5fb7\u5e02\u5834", "RouteId": 1221, "SeqNo": 22, "Terminal": 0, "DistrictId": 1, "Latitude": 22.632892, "Longitude": 120.327368, "IVRNo": 403, "EXTVoiceNo": 403, "traveltime": 0, "holidayTraveltime": 0}, {"Id": "0402", "pgp": 0, "GoBack": 2, "SID": 3072, "NameZh": "\u5927\u4ec1\u570b\u4e2d", "RouteId": 1221, "SeqNo": 23, "Terminal": 0, "DistrictId": 1, "Latitude": 22.632683, "Longitude": 120.329274, "IVRNo": 402, "EXTVoiceNo": 402, "traveltime": 0, "holidayTraveltime": 0}, {"Id": "2937", "pgp": 0, "GoBack": 2, "SID": 2946, "NameZh": "\u8f14\u4ec1\u8def\u53e3(\u5efa\u570b\u4e00\u8def)", "RouteId": 1221, "SeqNo": 24, "Terminal": 0, "DistrictId": 1, "Latitude": 22.631944, "Longitude": 120.331889, "IVRNo": 2937, "EXTVoiceNo": 2937, "traveltime": 0, "holidayTraveltime": 0}, {"Id": "0401", "pgp": 0, "GoBack": 2, "SID": 3077, "NameZh": "\u4e2d\u6b63\u570b\u5c0f", "RouteId": 1221, "SeqNo": 25, "Terminal": 0, "DistrictId": 1, "Latitude": 22.631183, "Longitude": 120.334086, "IVRNo": 401, "EXTVoiceNo": 401, "traveltime": 0, "holidayTraveltime": 0}, {"Id": "0203", "pgp": 0, "GoBack": 2, "SID": 2044, "NameZh": "\u5efa\u570b\u4e00\u8def", "RouteId": 1221, "SeqNo": 26, "Terminal": 0, "DistrictId": 1, "Latitude": 22.629583, "Longitude": 120.339, "IVRNo": 203, "EXTVoiceNo": 203, "traveltime": 0, "holidayTraveltime": 0}, {"Id": "0202", "pgp": 0, "GoBack": 2, "SID": 2054, "NameZh": "\u5efa\u8ecd\u8def\u53e3", "RouteId": 1221, "SeqNo": 27, "Terminal": 0, "DistrictId": 1, "Latitude": 22.628658, "Longitude": 120.341533, "IVRNo": 202, "EXTVoiceNo": 202, "traveltime": 0, "holidayTraveltime": 0}, {"Id": "3528", "pgp": 0, "GoBack": 2, "SID": 5829, "NameZh": "\u9cf3\u5c71\u884c\u653f\u4e2d\u5fc3(\u4e2d\u5c71\u897f\u8def)", "RouteId": 1221, "SeqNo": 28, "Terminal": 0, "DistrictId": 1, "Latitude": 22.628115, "Longitude": 120.343755, "IVRNo": 502, "EXTVoiceNo": 13528, "traveltime": 0, "holidayTraveltime": 0}, {"Id": "3527", "pgp": 0, "GoBack": 2, "SID": 2591, "NameZh": "\u885b\u6b66\u793e\u5340", "RouteId": 1221, "SeqNo": 29, "Terminal": 0, "DistrictId": 1, "Latitude": 22.627065, "Longitude": 120.344279, "IVRNo": 3527, "EXTVoiceNo": 3527, "traveltime": 0, "holidayTraveltime": 0}, {"Id": "9021", "pgp": 0, "GoBack": 2, "SID": 11364, "NameZh": "\u9ad8\u96c4\u5e02\u8b70\u6703(\u5fe0\u5b5d\u570b\u4e2d)", "RouteId": 1221, "SeqNo": 30, "Terminal": 0, "DistrictId": 1, "Latitude": 22.620007, "Longitude": 120.34768, "IVRNo": 9528, "EXTVoiceNo": 9021, "traveltime": 0, "holidayTraveltime": 0}, {"Id": "6046", "pgp": 0, "GoBack": 2, "SID": 5948, "NameZh": "\u5fe0\u5b5d\u570b\u5c0f", "RouteId": 1221, "SeqNo": 31, "Terminal": 0, "DistrictId": 1, "Latitude": 22.618028, "Longitude": 120.34932, "IVRNo": 920, "EXTVoiceNo": 26046, "traveltime": 0, "holidayTraveltime": 0}, {"Id": "1338", "pgp": 0, "GoBack": 2, "SID": 5949, "NameZh": "\u65b0\u5bcc\u8def", "RouteId": 1221, "SeqNo": 32, "Terminal": 0, "DistrictId": 1, "Latitude": 22.615718, "Longitude": 120.348527, "IVRNo": 1169, "EXTVoiceNo": 1338, "traveltime": 0, "holidayTraveltime": 0}, {"Id": "1086", "pgp": 0, "GoBack": 2, "SID": 14711, "NameZh": "\u51f1\u65cb\u8def", "RouteId": 1221, "SeqNo": 33, "Terminal": 0, "DistrictId": 1, "Latitude": 22.615361, "Longitude": 120.346551, "IVRNo": 643, "EXTVoiceNo": 21086, "traveltime": 0, "holidayTraveltime": 0}, {"Id": "1085", "pgp": 0, "GoBack": 2, "SID": 14709, "NameZh": "\u5357\u4eac\u8def(\u885b\u6b66\u71df\u85dd\u8853\u6587\u5316\u4e2d\u5fc3)", "RouteId": 1221, "SeqNo": 34, "Terminal": 0, "DistrictId": 1, "Latitude": 22.617913, "Longitude": 120.345499, "IVRNo": 642, "EXTVoiceNo": 21085, "traveltime": 0, "holidayTraveltime": 0}, {"Id": "0002", "pgp": 0, "GoBack": 2, "SID": 16, "NameZh": "\u5efa\u8ecd\u7ad9(\u6377\u904b\u885b\u6b66\u71df\u7ad9)", "RouteId": 1221, "SeqNo": 35, "Terminal": 1, "DistrictId": 1, "Latitude": 22.624975, "Longitude": 120.343796, "IVRNo": 1, "EXTVoiceNo": 2, "traveltime": 0, "holidayTraveltime": 0}]}