{"en": [{"Id": "3001", "pgp": 0, "GoBack": 1, "SID": 2133, "NameZh": "Cianjhen Station", "RouteId": 70, "SeqNo": 1, "Terminal": 0, "DistrictId": 1, "Latitude": 22.591336, "Longitude": 120.305658, "IVRNo": 3001, "EXTVoiceNo": 3001, "traveltime": 0, "holidayTraveltime": 0}, {"Id": "8554", "pgp": 0, "GoBack": 1, "SID": 4530, "NameZh": "LRT Dream Mall Station (Uni-Ustyle Department Store)", "RouteId": 70, "SeqNo": 2, "Terminal": 0, "DistrictId": 1, "Latitude": 22.595155, "Longitude": 120.305072, "IVRNo": 3008, "EXTVoiceNo": 8554, "traveltime": 0, "holidayTraveltime": 0}, {"Id": "2126", "pgp": 0, "GoBack": 1, "SID": 1244, "NameZh": "Taiwan Sugar Logistics Park", "RouteId": 70, "SeqNo": 3, "Terminal": 0, "DistrictId": 1, "Latitude": 22.598177, "Longitude": 120.3039, "IVRNo": 2126, "EXTVoiceNo": 2126, "traveltime": 0, "holidayTraveltime": 0}, {"Id": "8555", "pgp": 0, "GoBack": 1, "SID": 1247, "NameZh": "LRT Commerce and Trade Park Station", "RouteId": 70, "SeqNo": 4, "Terminal": 0, "DistrictId": 1, "Latitude": 22.601036, "Longitude": 120.30293, "IVRNo": 2158, "EXTVoiceNo": 8555, "traveltime": 0, "holidayTraveltime": 0}, {"Id": "2128", "pgp": 0, "GoBack": 1, "SID": 1257, "NameZh": "Jhengcin Rd.", "RouteId": 70, "SeqNo": 5, "Terminal": 0, "DistrictId": 1, "Latitude": 22.602114, "Longitude": 120.303466, "IVRNo": 2128, "EXTVoiceNo": 2128, "traveltime": 0, "holidayTraveltime": 0}, {"Id": "2156", "pgp": 0, "GoBack": 1, "SID": 1262, "NameZh": "Jhengcin Community", "RouteId": 70, "SeqNo": 6, "Terminal": 0, "DistrictId": 1, "Latitude": 22.602744, "Longitude": 120.30535, "IVRNo": 2129, "EXTVoiceNo": 2156, "traveltime": 0, "holidayTraveltime": 0}, {"Id": "2158", "pgp": 0, "GoBack": 1, "SID": 1273, "NameZh": "Jhonghua Fusing Rd. Intersection", "RouteId": 70, "SeqNo": 7, "Terminal": 0, "DistrictId": 1, "Latitude": 22.606019, "Longitude": 120.3049, "IVRNo": 1424, "EXTVoiceNo": 2158, "traveltime": 0, "holidayTraveltime": 0}, {"Id": "2154", "pgp": 0, "GoBack": 1, "SID": 1276, "NameZh": "Jhonghua 5th Rd.", "RouteId": 70, "SeqNo": 8, "Terminal": 0, "DistrictId": 1, "Latitude": 22.607781, "Longitude": 120.30434, "IVRNo": 2131, "EXTVoiceNo": 2154, "traveltime": 0, "holidayTraveltime": 0}, {"Id": "2153", "pgp": 0, "GoBack": 1, "SID": 1281, "NameZh": "Singuang Rd. Intersection (Public Library)", "RouteId": 70, "SeqNo": 9, "Terminal": 0, "DistrictId": 1, "Latitude": 22.609969, "Longitude": 120.303377, "IVRNo": 2132, "EXTVoiceNo": 2153, "traveltime": 0, "holidayTraveltime": 0}, {"Id": "2152", "pgp": 0, "GoBack": 1, "SID": 1282, "NameZh": "Sanduo 4th Rd. Intersection", "RouteId": 70, "SeqNo": 10, "Terminal": 0, "DistrictId": 1, "Latitude": 22.612894, "Longitude": 120.302238, "IVRNo": 2133, "EXTVoiceNo": 2152, "traveltime": 0, "holidayTraveltime": 0}, {"Id": "1516", "pgp": 0, "GoBack": 1, "SID": 797, "NameZh": "Far Eastern Department Store (MRT Sandou Shopping District Station)", "RouteId": 70, "SeqNo": 11, "Terminal": 0, "DistrictId": 1, "Latitude": 22.613516, "Longitude": 120.303415, "IVRNo": 1516, "EXTVoiceNo": 1516, "traveltime": 0, "holidayTraveltime": 0}, {"Id": "2371", "pgp": 0, "GoBack": 1, "SID": 801, "NameZh": "Shin Kong Mitsukoshi Department Store (MRT Sandou Shopping District Station)", "RouteId": 70, "SeqNo": 12, "Terminal": 0, "DistrictId": 1, "Latitude": 22.614427, "Longitude": 120.306238, "IVRNo": 2046, "EXTVoiceNo": 32371, "traveltime": 0, "holidayTraveltime": 0}, {"Id": "1645", "pgp": 0, "GoBack": 1, "SID": 884, "NameZh": "Sanduo 3rd Rd.", "RouteId": 70, "SeqNo": 13, "Terminal": 0, "DistrictId": 1, "Latitude": 22.615378, "Longitude": 120.308683, "IVRNo": 1619, "EXTVoiceNo": 1645, "traveltime": 0, "holidayTraveltime": 0}, {"Id": "1646", "pgp": 0, "GoBack": 1, "SID": 887, "NameZh": "Renai 3rd St. Intersection", "RouteId": 70, "SeqNo": 14, "Terminal": 0, "DistrictId": 1, "Latitude": 22.615916, "Longitude": 120.310394, "IVRNo": 1618, "EXTVoiceNo": 1646, "traveltime": 0, "holidayTraveltime": 0}, {"Id": "2157", "pgp": 0, "GoBack": 1, "SID": 891, "NameZh": "Sanduo Fusing Rd. Intersection", "RouteId": 70, "SeqNo": 15, "Terminal": 0, "DistrictId": 1, "Latitude": 22.616507, "Longitude": 120.31238, "IVRNo": 1425, "EXTVoiceNo": 2157, "traveltime": 0, "holidayTraveltime": 0}, {"Id": "1648", "pgp": 0, "GoBack": 1, "SID": 895, "NameZh": "Sanduo Market (Sanduo 3rd Rd.)", "RouteId": 70, "SeqNo": 16, "Terminal": 0, "DistrictId": 1, "Latitude": 22.617359, "Longitude": 120.314883, "IVRNo": 1120, "EXTVoiceNo": 1648, "traveltime": 0, "holidayTraveltime": 0}, {"Id": "1049", "pgp": 0, "GoBack": 1, "SID": 115, "NameZh": "Guanghua Rd. Intersection (Guanghua Night Market)", "RouteId": 70, "SeqNo": 17, "Terminal": 0, "DistrictId": 1, "Latitude": 22.618345, "Longitude": 120.318128, "IVRNo": 1049, "EXTVoiceNo": 1049, "traveltime": 0, "holidayTraveltime": 0}, {"Id": "1050", "pgp": 0, "GoBack": 1, "SID": 122, "NameZh": "Lindeguan (Sanhe Market)", "RouteId": 70, "SeqNo": 18, "Terminal": 0, "DistrictId": 1, "Latitude": 22.618919, "Longitude": 120.320113, "IVRNo": 1014, "EXTVoiceNo": 1050, "traveltime": 0, "holidayTraveltime": 0}, {"Id": "1051", "pgp": 0, "GoBack": 1, "SID": 129, "NameZh": "Heping Rd. Intersection", "RouteId": 70, "SeqNo": 19, "Terminal": 0, "DistrictId": 1, "Latitude": 22.619373, "Longitude": 120.321463, "IVRNo": 1013, "EXTVoiceNo": 1051, "traveltime": 0, "holidayTraveltime": 0}, {"Id": "1052", "pgp": 0, "GoBack": 1, "SID": 130, "NameZh": "Wucyuan Elementry School (Sanduo  2nd Rd.  )", "RouteId": 70, "SeqNo": 20, "Terminal": 0, "DistrictId": 1, "Latitude": 22.620289, "Longitude": 120.324123, "IVRNo": 108, "EXTVoiceNo": 1052, "traveltime": 0, "holidayTraveltime": 0}, {"Id": "0055", "pgp": 0, "GoBack": 1, "SID": 17870, "NameZh": "Kaisyuan 2nd Rd. Intersection", "RouteId": 70, "SeqNo": 21, "Terminal": 0, "DistrictId": 1, "Latitude": 22.620485, "Longitude": 120.325112, "IVRNo": 939, "EXTVoiceNo": 55, "traveltime": 0, "holidayTraveltime": 0}, {"Id": "0139", "pgp": 0, "GoBack": 1, "SID": 554, "NameZh": "Kuochi Senior Vocational High School of Commerce and Technology", "RouteId": 70, "SeqNo": 22, "Terminal": 0, "DistrictId": 1, "Latitude": 22.621041, "Longitude": 120.326438, "IVRNo": 107, "EXTVoiceNo": 139, "traveltime": 0, "holidayTraveltime": 0}, {"Id": "0140", "pgp": 0, "GoBack": 1, "SID": 567, "NameZh": "San Sin High School of Commerce and Home Economics", "RouteId": 70, "SeqNo": 23, "Terminal": 0, "DistrictId": 1, "Latitude": 22.621963, "Longitude": 120.329183, "IVRNo": 106, "EXTVoiceNo": 140, "traveltime": 0, "holidayTraveltime": 0}, {"Id": "0141", "pgp": 0, "GoBack": 1, "SID": 580, "NameZh": "Wukuaicuo  (Sanduo 1st Rd. )", "RouteId": 70, "SeqNo": 24, "Terminal": 0, "DistrictId": 1, "Latitude": 22.622827, "Longitude": 120.331719, "IVRNo": 105, "EXTVoiceNo": 141, "traveltime": 0, "holidayTraveltime": 0}, {"Id": "0142", "pgp": 0, "GoBack": 1, "SID": 606, "NameZh": "Furen Rd. Intersection (Sanduo 1st Rd.)", "RouteId": 70, "SeqNo": 25, "Terminal": 0, "DistrictId": 1, "Latitude": 22.623575, "Longitude": 120.33386, "IVRNo": 609, "EXTVoiceNo": 142, "traveltime": 0, "holidayTraveltime": 0}, {"Id": "0143", "pgp": 0, "GoBack": 1, "SID": 629, "NameZh": "Chungcheng Stadium", "RouteId": 70, "SeqNo": 26, "Terminal": 0, "DistrictId": 1, "Latitude": 22.623814, "Longitude": 120.335222, "IVRNo": 103, "EXTVoiceNo": 143, "traveltime": 0, "holidayTraveltime": 0}, {"Id": "0144", "pgp": 0, "GoBack": 1, "SID": 640, "NameZh": "Wei Wu Ying Center for the Arts", "RouteId": 70, "SeqNo": 27, "Terminal": 0, "DistrictId": 1, "Latitude": 22.623966, "Longitude": 120.337383, "IVRNo": 102, "EXTVoiceNo": 144, "traveltime": 0, "holidayTraveltime": 0}, {"Id": "0263", "pgp": 0, "GoBack": 1, "SID": 694, "NameZh": "National Kaohsiung Center for the Arts(Weiwuying)", "RouteId": 70, "SeqNo": 28, "Terminal": 0, "DistrictId": 1, "Latitude": 22.624552, "Longitude": 120.341788, "IVRNo": 263, "EXTVoiceNo": 263, "traveltime": 0, "holidayTraveltime": 0}, {"Id": "3527", "pgp": 0, "GoBack": 1, "SID": 2495, "NameZh": "Weiguang Community", "RouteId": 70, "SeqNo": 29, "Terminal": 0, "DistrictId": 1, "Latitude": 22.626758, "Longitude": 120.344386, "IVRNo": 3527, "EXTVoiceNo": 3527, "traveltime": 0, "holidayTraveltime": 0}, {"Id": "3528", "pgp": 0, "GoBack": 1, "SID": 2498, "NameZh": "Fongshan Administration Center (Chengcing Rd.)", "RouteId": 70, "SeqNo": 30, "Terminal": 0, "DistrictId": 1, "Latitude": 22.630192, "Longitude": 120.344578, "IVRNo": 2498, "EXTVoiceNo": 13528, "traveltime": 0, "holidayTraveltime": 0}, {"Id": "3529", "pgp": 0, "GoBack": 1, "SID": 2500, "NameZh": "Jyuemin Rd. Intersection (Chengcing Rd)", "RouteId": 70, "SeqNo": 31, "Terminal": 0, "DistrictId": 1, "Latitude": 22.637594, "Longitude": 120.344883, "IVRNo": 1015, "EXTVoiceNo": 3529, "traveltime": 0, "holidayTraveltime": 0}, {"Id": "3530", "pgp": 0, "GoBack": 1, "SID": 2501, "NameZh": "Baoyang St. Intersection", "RouteId": 70, "SeqNo": 32, "Terminal": 0, "DistrictId": 1, "Latitude": 22.639919, "Longitude": 120.345358, "IVRNo": 3503, "EXTVoiceNo": 3530, "traveltime": 0, "holidayTraveltime": 0}, {"Id": "3531", "pgp": 0, "GoBack": 1, "SID": 2506, "NameZh": "Chengcing Rd.", "RouteId": 70, "SeqNo": 33, "Terminal": 0, "DistrictId": 1, "Latitude": 22.642727, "Longitude": 120.34605, "IVRNo": 3531, "EXTVoiceNo": 3531, "traveltime": 0, "holidayTraveltime": 0}, {"Id": "3532", "pgp": 0, "GoBack": 1, "SID": 2513, "NameZh": "Dahua Village", "RouteId": 70, "SeqNo": 34, "Terminal": 0, "DistrictId": 1, "Latitude": 22.646794, "Longitude": 120.347027, "IVRNo": 3532, "EXTVoiceNo": 3532, "traveltime": 0, "holidayTraveltime": 0}, {"Id": "0636", "pgp": 0, "GoBack": 1, "SID": 2521, "NameZh": "Cheng Shiu University (Chengcing Lake)", "RouteId": 70, "SeqNo": 35, "Terminal": 0, "DistrictId": 1, "Latitude": 22.651571, "Longitude": 120.349102, "IVRNo": 3533, "EXTVoiceNo": 10636, "traveltime": 0, "holidayTraveltime": 0}, {"Id": "3546", "pgp": 0, "GoBack": 1, "SID": 2582, "NameZh": "Chang Gung Rehabilitation buil Ding", "RouteId": 70, "SeqNo": 36, "Terminal": 0, "DistrictId": 1, "Latitude": 22.650417, "Longitude": 120.352947, "IVRNo": 3546, "EXTVoiceNo": 3546, "traveltime": 0, "holidayTraveltime": 0}, {"Id": "3534", "pgp": 0, "GoBack": 1, "SID": 2525, "NameZh": "Chang Gung Memorial Hospital", "RouteId": 70, "SeqNo": 37, "Terminal": 0, "DistrictId": 1, "Latitude": 22.650924, "Longitude": 120.356848, "IVRNo": 3534, "EXTVoiceNo": 3534, "traveltime": 0, "holidayTraveltime": 0}, {"Id": "3535", "pgp": 0, "GoBack": 1, "SID": 2532, "NameZh": "Chengcing Lake Baseball Field", "RouteId": 70, "SeqNo": 38, "Terminal": 0, "DistrictId": 1, "Latitude": 22.655831, "Longitude": 120.359918, "IVRNo": 11912, "EXTVoiceNo": 3535, "traveltime": 0, "holidayTraveltime": 0}, {"Id": "3537", "pgp": 0, "GoBack": 2, "SID": 2539, "NameZh": "Jhongcheng Rd. Intersection", "RouteId": 70, "SeqNo": 1, "Terminal": 0, "DistrictId": 1, "Latitude": 22.658066, "Longitude": 120.361, "IVRNo": 864, "EXTVoiceNo": 3537, "traveltime": 0, "holidayTraveltime": 0}, {"Id": "3535", "pgp": 0, "GoBack": 2, "SID": 2544, "NameZh": "Chengcing Lake Baseball Field", "RouteId": 70, "SeqNo": 2, "Terminal": 0, "DistrictId": 1, "Latitude": 22.655697, "Longitude": 120.359808, "IVRNo": 11912, "EXTVoiceNo": 3535, "traveltime": 0, "holidayTraveltime": 0}, {"Id": "3534", "pgp": 0, "GoBack": 2, "SID": 2555, "NameZh": "Chang Gung Memorial Hospital", "RouteId": 70, "SeqNo": 3, "Terminal": 0, "DistrictId": 1, "Latitude": 22.650933, "Longitude": 120.356409, "IVRNo": 3534, "EXTVoiceNo": 3534, "traveltime": 0, "holidayTraveltime": 0}, {"Id": "0636", "pgp": 0, "GoBack": 2, "SID": 2558, "NameZh": "Cheng Shiu University (Chengcing Lake)", "RouteId": 70, "SeqNo": 4, "Terminal": 0, "DistrictId": 1, "Latitude": 22.651565, "Longitude": 120.348661, "IVRNo": 3533, "EXTVoiceNo": 10636, "traveltime": 0, "holidayTraveltime": 0}, {"Id": "3532", "pgp": 0, "GoBack": 2, "SID": 2567, "NameZh": "Dahua Village", "RouteId": 70, "SeqNo": 5, "Terminal": 0, "DistrictId": 1, "Latitude": 22.646825, "Longitude": 120.346869, "IVRNo": 3532, "EXTVoiceNo": 3532, "traveltime": 0, "holidayTraveltime": 0}, {"Id": "3531", "pgp": 0, "GoBack": 2, "SID": 2572, "NameZh": "Chengcing Rd.", "RouteId": 70, "SeqNo": 6, "Terminal": 0, "DistrictId": 1, "Latitude": 22.642308, "Longitude": 120.345761, "IVRNo": 3531, "EXTVoiceNo": 3531, "traveltime": 0, "holidayTraveltime": 0}, {"Id": "3530", "pgp": 0, "GoBack": 2, "SID": 2577, "NameZh": "Baoyang St. Intersection", "RouteId": 70, "SeqNo": 7, "Terminal": 0, "DistrictId": 1, "Latitude": 22.639927, "Longitude": 120.345186, "IVRNo": 3503, "EXTVoiceNo": 3530, "traveltime": 0, "holidayTraveltime": 0}, {"Id": "3529", "pgp": 0, "GoBack": 2, "SID": 2580, "NameZh": "Jyuemin Rd. Intersection (Chengcing Rd)", "RouteId": 70, "SeqNo": 8, "Terminal": 0, "DistrictId": 1, "Latitude": 22.637838, "Longitude": 120.344683, "IVRNo": 1015, "EXTVoiceNo": 3529, "traveltime": 0, "holidayTraveltime": 0}, {"Id": "3528", "pgp": 0, "GoBack": 2, "SID": 17225, "NameZh": "Fongshan Administration Center (Chengcing Rd.)", "RouteId": 70, "SeqNo": 9, "Terminal": 0, "DistrictId": 1, "Latitude": 22.63041, "Longitude": 120.34446, "IVRNo": 2498, "EXTVoiceNo": 13528, "traveltime": 0, "holidayTraveltime": 0}, {"Id": "3527", "pgp": 0, "GoBack": 2, "SID": 2589, "NameZh": "Weiguang Community", "RouteId": 70, "SeqNo": 10, "Terminal": 0, "DistrictId": 1, "Latitude": 22.627094, "Longitude": 120.344233, "IVRNo": 3527, "EXTVoiceNo": 3527, "traveltime": 0, "holidayTraveltime": 0}, {"Id": "0002", "pgp": 0, "GoBack": 2, "SID": 20, "NameZh": "Jianjun Station (MRT Weiwuying Station)", "RouteId": 70, "SeqNo": 11, "Terminal": 0, "DistrictId": 1, "Latitude": 22.624966, "Longitude": 120.343291, "IVRNo": 1, "EXTVoiceNo": 2, "traveltime": 0, "holidayTraveltime": 0}, {"Id": "0263", "pgp": 0, "GoBack": 2, "SID": 47, "NameZh": "National Kaohsiung Center for the Arts(Weiwuying)", "RouteId": 70, "SeqNo": 12, "Terminal": 0, "DistrictId": 1, "Latitude": 22.6245, "Longitude": 120.340833, "IVRNo": 263, "EXTVoiceNo": 263, "traveltime": 0, "holidayTraveltime": 0}, {"Id": "0144", "pgp": 0, "GoBack": 2, "SID": 69, "NameZh": "Wei Wu Ying Center for the Arts", "RouteId": 70, "SeqNo": 13, "Terminal": 0, "DistrictId": 1, "Latitude": 22.624097, "Longitude": 120.337466, "IVRNo": 102, "EXTVoiceNo": 144, "traveltime": 0, "holidayTraveltime": 0}, {"Id": "0143", "pgp": 0, "GoBack": 2, "SID": 87, "NameZh": "Chungcheng Stadium", "RouteId": 70, "SeqNo": 14, "Terminal": 0, "DistrictId": 1, "Latitude": 22.623975, "Longitude": 120.335202, "IVRNo": 103, "EXTVoiceNo": 143, "traveltime": 0, "holidayTraveltime": 0}, {"Id": "0142", "pgp": 0, "GoBack": 2, "SID": 101, "NameZh": "Furen Rd. Intersection (Sanduo 1st Rd.)", "RouteId": 70, "SeqNo": 15, "Terminal": 0, "DistrictId": 1, "Latitude": 22.623697, "Longitude": 120.333909, "IVRNo": 609, "EXTVoiceNo": 142, "traveltime": 0, "holidayTraveltime": 0}, {"Id": "0141", "pgp": 0, "GoBack": 2, "SID": 120, "NameZh": "Wukuaicuo  (Sanduo 1st Rd. )", "RouteId": 70, "SeqNo": 16, "Terminal": 0, "DistrictId": 1, "Latitude": 22.623011, "Longitude": 120.331962, "IVRNo": 105, "EXTVoiceNo": 141, "traveltime": 0, "holidayTraveltime": 0}, {"Id": "0140", "pgp": 0, "GoBack": 2, "SID": 567, "NameZh": "San Sin High School of Commerce and Home Economics", "RouteId": 70, "SeqNo": 17, "Terminal": 0, "DistrictId": 1, "Latitude": 22.621963, "Longitude": 120.329183, "IVRNo": 106, "EXTVoiceNo": 140, "traveltime": 0, "holidayTraveltime": 0}, {"Id": "0139", "pgp": 0, "GoBack": 2, "SID": 156, "NameZh": "Kuochi Senior Vocational High School of Commerce and Technology", "RouteId": 70, "SeqNo": 18, "Terminal": 0, "DistrictId": 1, "Latitude": 22.621211, "Longitude": 120.326536, "IVRNo": 107, "EXTVoiceNo": 139, "traveltime": 0, "holidayTraveltime": 0}, {"Id": "0055", "pgp": 0, "GoBack": 2, "SID": 17871, "NameZh": "Kaisyuan 2nd Rd. Intersection", "RouteId": 70, "SeqNo": 19, "Terminal": 0, "DistrictId": 1, "Latitude": 22.620677, "Longitude": 120.325125, "IVRNo": 939, "EXTVoiceNo": 55, "traveltime": 0, "holidayTraveltime": 0}, {"Id": "1052", "pgp": 0, "GoBack": 2, "SID": 49, "NameZh": "Wucyuan Elementry School (Sanduo  2nd Rd.  )", "RouteId": 70, "SeqNo": 20, "Terminal": 0, "DistrictId": 1, "Latitude": 22.620283, "Longitude": 120.323741, "IVRNo": 108, "EXTVoiceNo": 1052, "traveltime": 0, "holidayTraveltime": 0}, {"Id": "1051", "pgp": 0, "GoBack": 2, "SID": 56, "NameZh": "Heping Rd. Intersection", "RouteId": 70, "SeqNo": 21, "Terminal": 0, "DistrictId": 1, "Latitude": 22.619547, "Longitude": 120.321486, "IVRNo": 1013, "EXTVoiceNo": 1051, "traveltime": 0, "holidayTraveltime": 0}, {"Id": "1050", "pgp": 0, "GoBack": 2, "SID": 57, "NameZh": "Lindeguan (Sanhe Market)", "RouteId": 70, "SeqNo": 22, "Terminal": 0, "DistrictId": 1, "Latitude": 22.619017, "Longitude": 120.319886, "IVRNo": 1014, "EXTVoiceNo": 1050, "traveltime": 0, "holidayTraveltime": 0}, {"Id": "1049", "pgp": 0, "GoBack": 2, "SID": 844, "NameZh": "Guanghua Rd. Intersection (Guanghua Night Market)", "RouteId": 70, "SeqNo": 23, "Terminal": 0, "DistrictId": 1, "Latitude": 22.618286, "Longitude": 120.317339, "IVRNo": 1049, "EXTVoiceNo": 1049, "traveltime": 0, "holidayTraveltime": 0}, {"Id": "1648", "pgp": 0, "GoBack": 2, "SID": 847, "NameZh": "Sanduo Market (Sanduo 3rd Rd.)", "RouteId": 70, "SeqNo": 24, "Terminal": 0, "DistrictId": 1, "Latitude": 22.617118, "Longitude": 120.313783, "IVRNo": 1120, "EXTVoiceNo": 1648, "traveltime": 0, "holidayTraveltime": 0}, {"Id": "2157", "pgp": 0, "GoBack": 2, "SID": 850, "NameZh": "Sanduo Fusing Rd. Intersection", "RouteId": 70, "SeqNo": 25, "Terminal": 0, "DistrictId": 1, "Latitude": 22.616625, "Longitude": 120.31233, "IVRNo": 1425, "EXTVoiceNo": 2157, "traveltime": 0, "holidayTraveltime": 0}, {"Id": "1646", "pgp": 0, "GoBack": 2, "SID": 853, "NameZh": "Renai 3rd St. Intersection", "RouteId": 70, "SeqNo": 26, "Terminal": 0, "DistrictId": 1, "Latitude": 22.616006, "Longitude": 120.310494, "IVRNo": 1618, "EXTVoiceNo": 1646, "traveltime": 0, "holidayTraveltime": 0}, {"Id": "1645", "pgp": 0, "GoBack": 2, "SID": 856, "NameZh": "Sanduo 3rd Rd.", "RouteId": 70, "SeqNo": 27, "Terminal": 0, "DistrictId": 1, "Latitude": 22.615461, "Longitude": 120.308838, "IVRNo": 1619, "EXTVoiceNo": 1645, "traveltime": 0, "holidayTraveltime": 0}, {"Id": "2371", "pgp": 0, "GoBack": 2, "SID": 755, "NameZh": "Shin Kong Mitsukoshi Department Store (MRT Sandou Shopping District Station)", "RouteId": 70, "SeqNo": 28, "Terminal": 0, "DistrictId": 1, "Latitude": 22.61453, "Longitude": 120.306044, "IVRNo": 2046, "EXTVoiceNo": 32371, "traveltime": 0, "holidayTraveltime": 0}, {"Id": "1516", "pgp": 0, "GoBack": 2, "SID": 758, "NameZh": "Far Eastern Department Store (MRT Sandou Shopping District Station)", "RouteId": 70, "SeqNo": 29, "Terminal": 0, "DistrictId": 1, "Latitude": 22.613506, "Longitude": 120.303211, "IVRNo": 1516, "EXTVoiceNo": 1516, "traveltime": 0, "holidayTraveltime": 0}, {"Id": "2152", "pgp": 0, "GoBack": 2, "SID": 1304, "NameZh": "Sanduo 4th Rd. Intersection", "RouteId": 70, "SeqNo": 30, "Terminal": 0, "DistrictId": 1, "Latitude": 22.612036, "Longitude": 120.302404, "IVRNo": 2133, "EXTVoiceNo": 2152, "traveltime": 0, "holidayTraveltime": 0}, {"Id": "2153", "pgp": 0, "GoBack": 2, "SID": 1305, "NameZh": "Singuang Rd. Intersection (Public Library)", "RouteId": 70, "SeqNo": 31, "Terminal": 0, "DistrictId": 1, "Latitude": 22.610922, "Longitude": 120.302847, "IVRNo": 2132, "EXTVoiceNo": 2153, "traveltime": 0, "holidayTraveltime": 0}, {"Id": "2154", "pgp": 0, "GoBack": 2, "SID": 1310, "NameZh": "Jhonghua 5th Rd.", "RouteId": 70, "SeqNo": 32, "Terminal": 0, "DistrictId": 1, "Latitude": 22.607872, "Longitude": 120.304022, "IVRNo": 2131, "EXTVoiceNo": 2154, "traveltime": 0, "holidayTraveltime": 0}, {"Id": "2158", "pgp": 0, "GoBack": 2, "SID": 1311, "NameZh": "Jhonghua Fusing Rd. Intersection", "RouteId": 70, "SeqNo": 33, "Terminal": 0, "DistrictId": 1, "Latitude": 22.605988, "Longitude": 120.304769, "IVRNo": 1424, "EXTVoiceNo": 2158, "traveltime": 0, "holidayTraveltime": 0}, {"Id": "2156", "pgp": 0, "GoBack": 2, "SID": 1321, "NameZh": "Jhengcin Community", "RouteId": 70, "SeqNo": 34, "Terminal": 0, "DistrictId": 1, "Latitude": 22.602816, "Longitude": 120.305333, "IVRNo": 2129, "EXTVoiceNo": 2156, "traveltime": 0, "holidayTraveltime": 0}, {"Id": "2128", "pgp": 0, "GoBack": 2, "SID": 1322, "NameZh": "Jhengcin Rd.", "RouteId": 70, "SeqNo": 35, "Terminal": 0, "DistrictId": 1, "Latitude": 22.602194, "Longitude": 120.303419, "IVRNo": 2128, "EXTVoiceNo": 2128, "traveltime": 0, "holidayTraveltime": 0}, {"Id": "8555", "pgp": 0, "GoBack": 2, "SID": 1333, "NameZh": "LRT Commerce and Trade Park Station", "RouteId": 70, "SeqNo": 36, "Terminal": 0, "DistrictId": 1, "Latitude": 22.600885, "Longitude": 120.302689, "IVRNo": 2158, "EXTVoiceNo": 8555, "traveltime": 0, "holidayTraveltime": 0}, {"Id": "2126", "pgp": 0, "GoBack": 2, "SID": 1335, "NameZh": "Taiwan Sugar Logistics Park", "RouteId": 70, "SeqNo": 37, "Terminal": 0, "DistrictId": 1, "Latitude": 22.598108, "Longitude": 120.303716, "IVRNo": 2126, "EXTVoiceNo": 2126, "traveltime": 0, "holidayTraveltime": 0}, {"Id": "8554", "pgp": 0, "GoBack": 2, "SID": 2145, "NameZh": "LRT Dream Mall Station (Uni-Ustyle Department Store)", "RouteId": 70, "SeqNo": 38, "Terminal": 0, "DistrictId": 1, "Latitude": 22.595141, "Longitude": 120.304872, "IVRNo": 3008, "EXTVoiceNo": 8554, "traveltime": 0, "holidayTraveltime": 0}, {"Id": "3001", "pgp": 0, "GoBack": 2, "SID": 2124, "NameZh": "Cianjhen Station", "RouteId": 70, "SeqNo": 39, "Terminal": 1, "DistrictId": 1, "Latitude": 22.591336, "Longitude": 120.305658, "IVRNo": 3001, "EXTVoiceNo": 3001, "traveltime": 0, "holidayTraveltime": 0}], "zh": [{"Id": "3001", "pgp": 0, "GoBack": 1, "SID": 2133, "NameZh": "\u524d\u93ae\u7ad9", "RouteId": 70, "SeqNo": 1, "Terminal": 0, "DistrictId": 1, "Latitude": 22.591336, "Longitude": 120.305658, "IVRNo": 3001, "EXTVoiceNo": 3001, "traveltime": 0, "holidayTraveltime": 0}, {"Id": "8554", "pgp": 0, "GoBack": 1, "SID": 4530, "NameZh": "\u8f15\u8ecc\u5922\u6642\u4ee3\u7ad9(\u7d71\u4e00\u6642\u4ee3\u767e\u8ca8)", "RouteId": 70, "SeqNo": 2, "Terminal": 0, "DistrictId": 1, "Latitude": 22.595155, "Longitude": 120.305072, "IVRNo": 3008, "EXTVoiceNo": 8554, "traveltime": 0, "holidayTraveltime": 0}, {"Id": "2126", "pgp": 0, "GoBack": 1, "SID": 1244, "NameZh": "\u53f0\u7cd6\u7269\u6d41", "RouteId": 70, "SeqNo": 3, "Terminal": 0, "DistrictId": 1, "Latitude": 22.598177, "Longitude": 120.3039, "IVRNo": 2126, "EXTVoiceNo": 2126, "traveltime": 0, "holidayTraveltime": 0}, {"Id": "8555", "pgp": 0, "GoBack": 1, "SID": 1247, "NameZh": "\u8f15\u8ecc\u7d93\u8cbf\u5712\u5340\u7ad9", "RouteId": 70, "SeqNo": 4, "Terminal": 0, "DistrictId": 1, "Latitude": 22.601036, "Longitude": 120.30293, "IVRNo": 2158, "EXTVoiceNo": 8555, "traveltime": 0, "holidayTraveltime": 0}, {"Id": "2128", "pgp": 0, "GoBack": 1, "SID": 1257, "NameZh": "\u6b63\u52e4\u8def", "RouteId": 70, "SeqNo": 5, "Terminal": 0, "DistrictId": 1, "Latitude": 22.602114, "Longitude": 120.303466, "IVRNo": 2128, "EXTVoiceNo": 2128, "traveltime": 0, "holidayTraveltime": 0}, {"Id": "2156", "pgp": 0, "GoBack": 1, "SID": 1262, "NameZh": "\u6b63\u52e4\u793e\u5340", "RouteId": 70, "SeqNo": 6, "Terminal": 0, "DistrictId": 1, "Latitude": 22.602744, "Longitude": 120.30535, "IVRNo": 2129, "EXTVoiceNo": 2156, "traveltime": 0, "holidayTraveltime": 0}, {"Id": "2158", "pgp": 0, "GoBack": 1, "SID": 1273, "NameZh": "\u4e2d\u83ef\u5fa9\u8208\u8def\u53e3", "RouteId": 70, "SeqNo": 7, "Terminal": 0, "DistrictId": 1, "Latitude": 22.606019, "Longitude": 120.3049, "IVRNo": 1424, "EXTVoiceNo": 2158, "traveltime": 0, "holidayTraveltime": 0}, {"Id": "2154", "pgp": 0, "GoBack": 1, "SID": 1276, "NameZh": "\u4e2d\u83ef\u4e94\u8def", "RouteId": 70, "SeqNo": 8, "Terminal": 0, "DistrictId": 1, "Latitude": 22.607781, "Longitude": 120.30434, "IVRNo": 2131, "EXTVoiceNo": 2154, "traveltime": 0, "holidayTraveltime": 0}, {"Id": "2153", "pgp": 0, "GoBack": 1, "SID": 1281, "NameZh": "\u65b0\u5149\u8def\u53e3(\u5716\u66f8\u7e3d\u9928)", "RouteId": 70, "SeqNo": 9, "Terminal": 0, "DistrictId": 1, "Latitude": 22.609969, "Longitude": 120.303377, "IVRNo": 2132, "EXTVoiceNo": 2153, "traveltime": 0, "holidayTraveltime": 0}, {"Id": "2152", "pgp": 0, "GoBack": 1, "SID": 1282, "NameZh": "\u4e09\u591a\u56db\u8def\u53e3", "RouteId": 70, "SeqNo": 10, "Terminal": 0, "DistrictId": 1, "Latitude": 22.612894, "Longitude": 120.302238, "IVRNo": 2133, "EXTVoiceNo": 2152, "traveltime": 0, "holidayTraveltime": 0}, {"Id": "1516", "pgp": 0, "GoBack": 1, "SID": 797, "NameZh": "\u5927\u9060\u767e\u767e\u8ca8(\u6377\u904b\u4e09\u591a\u5546\u5708\u7ad9)", "RouteId": 70, "SeqNo": 11, "Terminal": 0, "DistrictId": 1, "Latitude": 22.613516, "Longitude": 120.303415, "IVRNo": 1516, "EXTVoiceNo": 1516, "traveltime": 0, "holidayTraveltime": 0}, {"Id": "2371", "pgp": 0, "GoBack": 1, "SID": 801, "NameZh": "\u65b0\u5149\u4e09\u8d8a(\u6377\u904b\u4e09\u591a\u5546\u5708\u7ad9)", "RouteId": 70, "SeqNo": 12, "Terminal": 0, "DistrictId": 1, "Latitude": 22.614427, "Longitude": 120.306238, "IVRNo": 2046, "EXTVoiceNo": 32371, "traveltime": 0, "holidayTraveltime": 0}, {"Id": "1645", "pgp": 0, "GoBack": 1, "SID": 884, "NameZh": "\u4e09\u591a\u4e09\u8def", "RouteId": 70, "SeqNo": 13, "Terminal": 0, "DistrictId": 1, "Latitude": 22.615378, "Longitude": 120.308683, "IVRNo": 1619, "EXTVoiceNo": 1645, "traveltime": 0, "holidayTraveltime": 0}, {"Id": "1646", "pgp": 0, "GoBack": 1, "SID": 887, "NameZh": "\u4ec1\u611b\u4e09\u8857\u53e3", "RouteId": 70, "SeqNo": 14, "Terminal": 0, "DistrictId": 1, "Latitude": 22.615916, "Longitude": 120.310394, "IVRNo": 1618, "EXTVoiceNo": 1646, "traveltime": 0, "holidayTraveltime": 0}, {"Id": "2157", "pgp": 0, "GoBack": 1, "SID": 891, "NameZh": "\u4e09\u591a\u5fa9\u8208\u8def\u53e3", "RouteId": 70, "SeqNo": 15, "Terminal": 0, "DistrictId": 1, "Latitude": 22.616507, "Longitude": 120.31238, "IVRNo": 1425, "EXTVoiceNo": 2157, "traveltime": 0, "holidayTraveltime": 0}, {"Id": "1648", "pgp": 0, "GoBack": 1, "SID": 895, "NameZh": "\u4e09\u591a\u5e02\u5834(\u4e09\u591a\u4e09\u8def)", "RouteId": 70, "SeqNo": 16, "Terminal": 0, "DistrictId": 1, "Latitude": 22.617359, "Longitude": 120.314883, "IVRNo": 1120, "EXTVoiceNo": 1648, "traveltime": 0, "holidayTraveltime": 0}, {"Id": "1049", "pgp": 0, "GoBack": 1, "SID": 115, "NameZh": "\u5149\u83ef\u8def\u53e3(\u5149\u83ef\u591c\u5e02)", "RouteId": 70, "SeqNo": 17, "Terminal": 0, "DistrictId": 1, "Latitude": 22.618345, "Longitude": 120.318128, "IVRNo": 1049, "EXTVoiceNo": 1049, "traveltime": 0, "holidayTraveltime": 0}, {"Id": "1050", "pgp": 0, "GoBack": 1, "SID": 122, "NameZh": "\u6797\u5fb7\u5b98(\u4e09\u548c\u5e02\u5834)", "RouteId": 70, "SeqNo": 18, "Terminal": 0, "DistrictId": 1, "Latitude": 22.618919, "Longitude": 120.320113, "IVRNo": 1014, "EXTVoiceNo": 1050, "traveltime": 0, "holidayTraveltime": 0}, {"Id": "1051", "pgp": 0, "GoBack": 1, "SID": 129, "NameZh": "\u548c\u5e73\u8def\u53e3", "RouteId": 70, "SeqNo": 19, "Terminal": 0, "DistrictId": 1, "Latitude": 22.619373, "Longitude": 120.321463, "IVRNo": 1013, "EXTVoiceNo": 1051, "traveltime": 0, "holidayTraveltime": 0}, {"Id": "1052", "pgp": 0, "GoBack": 1, "SID": 130, "NameZh": "\u4e94\u6b0a\u570b\u5c0f(\u4e09\u591a\u4e8c\u8def)", "RouteId": 70, "SeqNo": 20, "Terminal": 0, "DistrictId": 1, "Latitude": 22.620289, "Longitude": 120.324123, "IVRNo": 108, "EXTVoiceNo": 1052, "traveltime": 0, "holidayTraveltime": 0}, {"Id": "0055", "pgp": 0, "GoBack": 1, "SID": 17870, "NameZh": "\u51f1\u65cb\u4e8c\u8def\u53e3", "RouteId": 70, "SeqNo": 21, "Terminal": 0, "DistrictId": 1, "Latitude": 22.620485, "Longitude": 120.325112, "IVRNo": 939, "EXTVoiceNo": 55, "traveltime": 0, "holidayTraveltime": 0}, {"Id": "0139", "pgp": 0, "GoBack": 1, "SID": 554, "NameZh": "\u570b\u969b\u5546\u5de5", "RouteId": 70, "SeqNo": 22, "Terminal": 0, "DistrictId": 1, "Latitude": 22.621041, "Longitude": 120.326438, "IVRNo": 107, "EXTVoiceNo": 139, "traveltime": 0, "holidayTraveltime": 0}, {"Id": "0140", "pgp": 0, "GoBack": 1, "SID": 567, "NameZh": "\u4e09\u4fe1\u5bb6\u5546", "RouteId": 70, "SeqNo": 23, "Terminal": 0, "DistrictId": 1, "Latitude": 22.621963, "Longitude": 120.329183, "IVRNo": 106, "EXTVoiceNo": 140, "traveltime": 0, "holidayTraveltime": 0}, {"Id": "0141", "pgp": 0, "GoBack": 1, "SID": 580, "NameZh": "\u4e94\u584a\u539d(\u4e09\u591a\u4e00\u8def)", "RouteId": 70, "SeqNo": 24, "Terminal": 0, "DistrictId": 1, "Latitude": 22.622827, "Longitude": 120.331719, "IVRNo": 105, "EXTVoiceNo": 141, "traveltime": 0, "holidayTraveltime": 0}, {"Id": "0142", "pgp": 0, "GoBack": 1, "SID": 606, "NameZh": "\u8f14\u4ec1\u8def\u53e3(\u4e09\u591a\u4e00\u8def)", "RouteId": 70, "SeqNo": 25, "Terminal": 0, "DistrictId": 1, "Latitude": 22.623575, "Longitude": 120.33386, "IVRNo": 609, "EXTVoiceNo": 142, "traveltime": 0, "holidayTraveltime": 0}, {"Id": "0143", "pgp": 0, "GoBack": 1, "SID": 629, "NameZh": "\u4e2d\u6b63\u9ad4\u80b2\u5834", "RouteId": 70, "SeqNo": 26, "Terminal": 0, "DistrictId": 1, "Latitude": 22.623814, "Longitude": 120.335222, "IVRNo": 103, "EXTVoiceNo": 143, "traveltime": 0, "holidayTraveltime": 0}, {"Id": "0144", "pgp": 0, "GoBack": 1, "SID": 640, "NameZh": "\u885b\u6b66\u71df", "RouteId": 70, "SeqNo": 27, "Terminal": 0, "DistrictId": 1, "Latitude": 22.623966, "Longitude": 120.337383, "IVRNo": 102, "EXTVoiceNo": 144, "traveltime": 0, "holidayTraveltime": 0}, {"Id": "0263", "pgp": 0, "GoBack": 1, "SID": 694, "NameZh": "\u885b\u6b66\u71df\u570b\u5bb6\u85dd\u8853\u6587\u5316\u4e2d\u5fc3", "RouteId": 70, "SeqNo": 28, "Terminal": 0, "DistrictId": 1, "Latitude": 22.624552, "Longitude": 120.341788, "IVRNo": 263, "EXTVoiceNo": 263, "traveltime": 0, "holidayTraveltime": 0}, {"Id": "3527", "pgp": 0, "GoBack": 1, "SID": 2495, "NameZh": "\u885b\u6b66\u793e\u5340", "RouteId": 70, "SeqNo": 29, "Terminal": 0, "DistrictId": 1, "Latitude": 22.626758, "Longitude": 120.344386, "IVRNo": 3527, "EXTVoiceNo": 3527, "traveltime": 0, "holidayTraveltime": 0}, {"Id": "3528", "pgp": 0, "GoBack": 1, "SID": 2498, "NameZh": "\u9cf3\u5c71\u884c\u653f\u4e2d\u5fc3(\u6f84\u6e05\u8def)", "RouteId": 70, "SeqNo": 30, "Terminal": 0, "DistrictId": 1, "Latitude": 22.630192, "Longitude": 120.344578, "IVRNo": 2498, "EXTVoiceNo": 13528, "traveltime": 0, "holidayTraveltime": 0}, {"Id": "3529", "pgp": 0, "GoBack": 1, "SID": 2500, "NameZh": "\u89ba\u6c11\u8def\u53e3(\u6f84\u6e05\u8def)", "RouteId": 70, "SeqNo": 31, "Terminal": 0, "DistrictId": 1, "Latitude": 22.637594, "Longitude": 120.344883, "IVRNo": 1015, "EXTVoiceNo": 3529, "traveltime": 0, "holidayTraveltime": 0}, {"Id": "3530", "pgp": 0, "GoBack": 1, "SID": 2501, "NameZh": "\u8912\u63da\u8857\u53e3", "RouteId": 70, "SeqNo": 32, "Terminal": 0, "DistrictId": 1, "Latitude": 22.639919, "Longitude": 120.345358, "IVRNo": 3503, "EXTVoiceNo": 3530, "traveltime": 0, "holidayTraveltime": 0}, {"Id": "3531", "pgp": 0, "GoBack": 1, "SID": 2506, "NameZh": "\u6f84\u6e05\u8def", "RouteId": 70, "SeqNo": 33, "Terminal": 0, "DistrictId": 1, "Latitude": 22.642727, "Longitude": 120.34605, "IVRNo": 3531, "EXTVoiceNo": 3531, "traveltime": 0, "holidayTraveltime": 0}, {"Id": "3532", "pgp": 0, "GoBack": 1, "SID": 2513, "NameZh": "\u5927\u83ef\u6751", "RouteId": 70, "SeqNo": 34, "Terminal": 0, "DistrictId": 1, "Latitude": 22.646794, "Longitude": 120.347027, "IVRNo": 3532, "EXTVoiceNo": 3532, "traveltime": 0, "holidayTraveltime": 0}, {"Id": "0636", "pgp": 0, "GoBack": 1, "SID": 2521, "NameZh": "\u6b63\u4fee\u79d1\u5927(\u6f84\u6e05\u6e56)", "RouteId": 70, "SeqNo": 35, "Terminal": 0, "DistrictId": 1, "Latitude": 22.651571, "Longitude": 120.349102, "IVRNo": 3533, "EXTVoiceNo": 10636, "traveltime": 0, "holidayTraveltime": 0}, {"Id": "3546", "pgp": 0, "GoBack": 1, "SID": 2582, "NameZh": "\u9577\u5e9a\u5fa9\u5065\u5927\u6a13", "RouteId": 70, "SeqNo": 36, "Terminal": 0, "DistrictId": 1, "Latitude": 22.650417, "Longitude": 120.352947, "IVRNo": 3546, "EXTVoiceNo": 3546, "traveltime": 0, "holidayTraveltime": 0}, {"Id": "3534", "pgp": 0, "GoBack": 1, "SID": 2525, "NameZh": "\u9577\u5e9a\u91ab\u9662", "RouteId": 70, "SeqNo": 37, "Terminal": 0, "DistrictId": 1, "Latitude": 22.650924, "Longitude": 120.356848, "IVRNo": 3534, "EXTVoiceNo": 3534, "traveltime": 0, "holidayTraveltime": 0}, {"Id": "3535", "pgp": 0, "GoBack": 1, "SID": 2532, "NameZh": "\u6f84\u6e05\u6e56\u68d2\u7403\u5834", "RouteId": 70, "SeqNo": 38, "Terminal": 0, "DistrictId": 1, "Latitude": 22.655831, "Longitude": 120.359918, "IVRNo": 11912, "EXTVoiceNo": 3535, "traveltime": 0, "holidayTraveltime": 0}, {"Id": "3537", "pgp": 0, "GoBack": 2, "SID": 2539, "NameZh": "\u5fe0\u8aa0\u8def\u53e3", "RouteId": 70, "SeqNo": 1, "Terminal": 0, "DistrictId": 1, "Latitude": 22.658066, "Longitude": 120.361, "IVRNo": 864, "EXTVoiceNo": 3537, "traveltime": 0, "holidayTraveltime": 0}, {"Id": "3535", "pgp": 0, "GoBack": 2, "SID": 2544, "NameZh": "\u6f84\u6e05\u6e56\u68d2\u7403\u5834", "RouteId": 70, "SeqNo": 2, "Terminal": 0, "DistrictId": 1, "Latitude": 22.655697, "Longitude": 120.359808, "IVRNo": 11912, "EXTVoiceNo": 3535, "traveltime": 0, "holidayTraveltime": 0}, {"Id": "3534", "pgp": 0, "GoBack": 2, "SID": 2555, "NameZh": "\u9577\u5e9a\u91ab\u9662", "RouteId": 70, "SeqNo": 3, "Terminal": 0, "DistrictId": 1, "Latitude": 22.650933, "Longitude": 120.356409, "IVRNo": 3534, "EXTVoiceNo": 3534, "traveltime": 0, "holidayTraveltime": 0}, {"Id": "0636", "pgp": 0, "GoBack": 2, "SID": 2558, "NameZh": "\u6b63\u4fee\u79d1\u5927(\u6f84\u6e05\u6e56)", "RouteId": 70, "SeqNo": 4, "Terminal": 0, "DistrictId": 1, "Latitude": 22.651565, "Longitude": 120.348661, "IVRNo": 3533, "EXTVoiceNo": 10636, "traveltime": 0, "holidayTraveltime": 0}, {"Id": "3532", "pgp": 0, "GoBack": 2, "SID": 2567, "NameZh": "\u5927\u83ef\u6751", "RouteId": 70, "SeqNo": 5, "Terminal": 0, "DistrictId": 1, "Latitude": 22.646825, "Longitude": 120.346869, "IVRNo": 3532, "EXTVoiceNo": 3532, "traveltime": 0, "holidayTraveltime": 0}, {"Id": "3531", "pgp": 0, "GoBack": 2, "SID": 2572, "NameZh": "\u6f84\u6e05\u8def", "RouteId": 70, "SeqNo": 6, "Terminal": 0, "DistrictId": 1, "Latitude": 22.642308, "Longitude": 120.345761, "IVRNo": 3531, "EXTVoiceNo": 3531, "traveltime": 0, "holidayTraveltime": 0}, {"Id": "3530", "pgp": 0, "GoBack": 2, "SID": 2577, "NameZh": "\u8912\u63da\u8857\u53e3", "RouteId": 70, "SeqNo": 7, "Terminal": 0, "DistrictId": 1, "Latitude": 22.639927, "Longitude": 120.345186, "IVRNo": 3503, "EXTVoiceNo": 3530, "traveltime": 0, "holidayTraveltime": 0}, {"Id": "3529", "pgp": 0, "GoBack": 2, "SID": 2580, "NameZh": "\u89ba\u6c11\u8def\u53e3(\u6f84\u6e05\u8def)", "RouteId": 70, "SeqNo": 8, "Terminal": 0, "DistrictId": 1, "Latitude": 22.637838, "Longitude": 120.344683, "IVRNo": 1015, "EXTVoiceNo": 3529, "traveltime": 0, "holidayTraveltime": 0}, {"Id": "3528", "pgp": 0, "GoBack": 2, "SID": 17225, "NameZh": "\u9cf3\u5c71\u884c\u653f\u4e2d\u5fc3(\u6f84\u6e05\u8def)", "RouteId": 70, "SeqNo": 9, "Terminal": 0, "DistrictId": 1, "Latitude": 22.63041, "Longitude": 120.34446, "IVRNo": 2498, "EXTVoiceNo": 13528, "traveltime": 0, "holidayTraveltime": 0}, {"Id": "3527", "pgp": 0, "GoBack": 2, "SID": 2589, "NameZh": "\u885b\u6b66\u793e\u5340", "RouteId": 70, "SeqNo": 10, "Terminal": 0, "DistrictId": 1, "Latitude": 22.627094, "Longitude": 120.344233, "IVRNo": 3527, "EXTVoiceNo": 3527, "traveltime": 0, "holidayTraveltime": 0}, {"Id": "0002", "pgp": 0, "GoBack": 2, "SID": 20, "NameZh": "\u5efa\u8ecd\u7ad9(\u6377\u904b\u885b\u6b66\u71df\u7ad9)", "RouteId": 70, "SeqNo": 11, "Terminal": 0, "DistrictId": 1, "Latitude": 22.624966, "Longitude": 120.343291, "IVRNo": 1, "EXTVoiceNo": 2, "traveltime": 0, "holidayTraveltime": 0}, {"Id": "0263", "pgp": 0, "GoBack": 2, "SID": 47, "NameZh": "\u885b\u6b66\u71df\u570b\u5bb6\u85dd\u8853\u6587\u5316\u4e2d\u5fc3", "RouteId": 70, "SeqNo": 12, "Terminal": 0, "DistrictId": 1, "Latitude": 22.6245, "Longitude": 120.340833, "IVRNo": 263, "EXTVoiceNo": 263, "traveltime": 0, "holidayTraveltime": 0}, {"Id": "0144", "pgp": 0, "GoBack": 2, "SID": 69, "NameZh": "\u885b\u6b66\u71df", "RouteId": 70, "SeqNo": 13, "Terminal": 0, "DistrictId": 1, "Latitude": 22.624097, "Longitude": 120.337466, "IVRNo": 102, "EXTVoiceNo": 144, "traveltime": 0, "holidayTraveltime": 0}, {"Id": "0143", "pgp": 0, "GoBack": 2, "SID": 87, "NameZh": "\u4e2d\u6b63\u9ad4\u80b2\u5834", "RouteId": 70, "SeqNo": 14, "Terminal": 0, "DistrictId": 1, "Latitude": 22.623975, "Longitude": 120.335202, "IVRNo": 103, "EXTVoiceNo": 143, "traveltime": 0, "holidayTraveltime": 0}, {"Id": "0142", "pgp": 0, "GoBack": 2, "SID": 101, "NameZh": "\u8f14\u4ec1\u8def\u53e3(\u4e09\u591a\u4e00\u8def)", "RouteId": 70, "SeqNo": 15, "Terminal": 0, "DistrictId": 1, "Latitude": 22.623697, "Longitude": 120.333909, "IVRNo": 609, "EXTVoiceNo": 142, "traveltime": 0, "holidayTraveltime": 0}, {"Id": "0141", "pgp": 0, "GoBack": 2, "SID": 120, "NameZh": "\u4e94\u584a\u539d(\u4e09\u591a\u4e00\u8def)", "RouteId": 70, "SeqNo": 16, "Terminal": 0, "DistrictId": 1, "Latitude": 22.623011, "Longitude": 120.331962, "IVRNo": 105, "EXTVoiceNo": 141, "traveltime": 0, "holidayTraveltime": 0}, {"Id": "0140", "pgp": 0, "GoBack": 2, "SID": 567, "NameZh": "\u4e09\u4fe1\u5bb6\u5546", "RouteId": 70, "SeqNo": 17, "Terminal": 0, "DistrictId": 1, "Latitude": 22.621963, "Longitude": 120.329183, "IVRNo": 106, "EXTVoiceNo": 140, "traveltime": 0, "holidayTraveltime": 0}, {"Id": "0139", "pgp": 0, "GoBack": 2, "SID": 156, "NameZh": "\u570b\u969b\u5546\u5de5", "RouteId": 70, "SeqNo": 18, "Terminal": 0, "DistrictId": 1, "Latitude": 22.621211, "Longitude": 120.326536, "IVRNo": 107, "EXTVoiceNo": 139, "traveltime": 0, "holidayTraveltime": 0}, {"Id": "0055", "pgp": 0, "GoBack": 2, "SID": 17871, "NameZh": "\u51f1\u65cb\u4e8c\u8def\u53e3", "RouteId": 70, "SeqNo": 19, "Terminal": 0, "DistrictId": 1, "Latitude": 22.620677, "Longitude": 120.325125, "IVRNo": 939, "EXTVoiceNo": 55, "traveltime": 0, "holidayTraveltime": 0}, {"Id": "1052", "pgp": 0, "GoBack": 2, "SID": 49, "NameZh": "\u4e94\u6b0a\u570b\u5c0f(\u4e09\u591a\u4e8c\u8def)", "RouteId": 70, "SeqNo": 20, "Terminal": 0, "DistrictId": 1, "Latitude": 22.620283, "Longitude": 120.323741, "IVRNo": 108, "EXTVoiceNo": 1052, "traveltime": 0, "holidayTraveltime": 0}, {"Id": "1051", "pgp": 0, "GoBack": 2, "SID": 56, "NameZh": "\u548c\u5e73\u8def\u53e3", "RouteId": 70, "SeqNo": 21, "Terminal": 0, "DistrictId": 1, "Latitude": 22.619547, "Longitude": 120.321486, "IVRNo": 1013, "EXTVoiceNo": 1051, "traveltime": 0, "holidayTraveltime": 0}, {"Id": "1050", "pgp": 0, "GoBack": 2, "SID": 57, "NameZh": "\u6797\u5fb7\u5b98(\u4e09\u548c\u5e02\u5834)", "RouteId": 70, "SeqNo": 22, "Terminal": 0, "DistrictId": 1, "Latitude": 22.619017, "Longitude": 120.319886, "IVRNo": 1014, "EXTVoiceNo": 1050, "traveltime": 0, "holidayTraveltime": 0}, {"Id": "1049", "pgp": 0, "GoBack": 2, "SID": 844, "NameZh": "\u5149\u83ef\u8def\u53e3(\u5149\u83ef\u591c\u5e02)", "RouteId": 70, "SeqNo": 23, "Terminal": 0, "DistrictId": 1, "Latitude": 22.618286, "Longitude": 120.317339, "IVRNo": 1049, "EXTVoiceNo": 1049, "traveltime": 0, "holidayTraveltime": 0}, {"Id": "1648", "pgp": 0, "GoBack": 2, "SID": 847, "NameZh": "\u4e09\u591a\u5e02\u5834(\u4e09\u591a\u4e09\u8def)", "RouteId": 70, "SeqNo": 24, "Terminal": 0, "DistrictId": 1, "Latitude": 22.617118, "Longitude": 120.313783, "IVRNo": 1120, "EXTVoiceNo": 1648, "traveltime": 0, "holidayTraveltime": 0}, {"Id": "2157", "pgp": 0, "GoBack": 2, "SID": 850, "NameZh": "\u4e09\u591a\u5fa9\u8208\u8def\u53e3", "RouteId": 70, "SeqNo": 25, "Terminal": 0, "DistrictId": 1, "Latitude": 22.616625, "Longitude": 120.31233, "IVRNo": 1425, "EXTVoiceNo": 2157, "traveltime": 0, "holidayTraveltime": 0}, {"Id": "1646", "pgp": 0, "GoBack": 2, "SID": 853, "NameZh": "\u4ec1\u611b\u4e09\u8857\u53e3", "RouteId": 70, "SeqNo": 26, "Terminal": 0, "DistrictId": 1, "Latitude": 22.616006, "Longitude": 120.310494, "IVRNo": 1618, "EXTVoiceNo": 1646, "traveltime": 0, "holidayTraveltime": 0}, {"Id": "1645", "pgp": 0, "GoBack": 2, "SID": 856, "NameZh": "\u4e09\u591a\u4e09\u8def", "RouteId": 70, "SeqNo": 27, "Terminal": 0, "DistrictId": 1, "Latitude": 22.615461, "Longitude": 120.308838, "IVRNo": 1619, "EXTVoiceNo": 1645, "traveltime": 0, "holidayTraveltime": 0}, {"Id": "2371", "pgp": 0, "GoBack": 2, "SID": 755, "NameZh": "\u65b0\u5149\u4e09\u8d8a(\u6377\u904b\u4e09\u591a\u5546\u5708\u7ad9)", "RouteId": 70, "SeqNo": 28, "Terminal": 0, "DistrictId": 1, "Latitude": 22.61453, "Longitude": 120.306044, "IVRNo": 2046, "EXTVoiceNo": 32371, "traveltime": 0, "holidayTraveltime": 0}, {"Id": "1516", "pgp": 0, "GoBack": 2, "SID": 758, "NameZh": "\u5927\u9060\u767e\u767e\u8ca8(\u6377\u904b\u4e09\u591a\u5546\u5708\u7ad9)", "RouteId": 70, "SeqNo": 29, "Terminal": 0, "DistrictId": 1, "Latitude": 22.613506, "Longitude": 120.303211, "IVRNo": 1516, "EXTVoiceNo": 1516, "traveltime": 0, "holidayTraveltime": 0}, {"Id": "2152", "pgp": 0, "GoBack": 2, "SID": 1304, "NameZh": "\u4e09\u591a\u56db\u8def\u53e3", "RouteId": 70, "SeqNo": 30, "Terminal": 0, "DistrictId": 1, "Latitude": 22.612036, "Longitude": 120.302404, "IVRNo": 2133, "EXTVoiceNo": 2152, "traveltime": 0, "holidayTraveltime": 0}, {"Id": "2153", "pgp": 0, "GoBack": 2, "SID": 1305, "NameZh": "\u65b0\u5149\u8def\u53e3(\u5716\u66f8\u7e3d\u9928)", "RouteId": 70, "SeqNo": 31, "Terminal": 0, "DistrictId": 1, "Latitude": 22.610922, "Longitude": 120.302847, "IVRNo": 2132, "EXTVoiceNo": 2153, "traveltime": 0, "holidayTraveltime": 0}, {"Id": "2154", "pgp": 0, "GoBack": 2, "SID": 1310, "NameZh": "\u4e2d\u83ef\u4e94\u8def", "RouteId": 70, "SeqNo": 32, "Terminal": 0, "DistrictId": 1, "Latitude": 22.607872, "Longitude": 120.304022, "IVRNo": 2131, "EXTVoiceNo": 2154, "traveltime": 0, "holidayTraveltime": 0}, {"Id": "2158", "pgp": 0, "GoBack": 2, "SID": 1311, "NameZh": "\u4e2d\u83ef\u5fa9\u8208\u8def\u53e3", "RouteId": 70, "SeqNo": 33, "Terminal": 0, "DistrictId": 1, "Latitude": 22.605988, "Longitude": 120.304769, "IVRNo": 1424, "EXTVoiceNo": 2158, "traveltime": 0, "holidayTraveltime": 0}, {"Id": "2156", "pgp": 0, "GoBack": 2, "SID": 1321, "NameZh": "\u6b63\u52e4\u793e\u5340", "RouteId": 70, "SeqNo": 34, "Terminal": 0, "DistrictId": 1, "Latitude": 22.602816, "Longitude": 120.305333, "IVRNo": 2129, "EXTVoiceNo": 2156, "traveltime": 0, "holidayTraveltime": 0}, {"Id": "2128", "pgp": 0, "GoBack": 2, "SID": 1322, "NameZh": "\u6b63\u52e4\u8def", "RouteId": 70, "SeqNo": 35, "Terminal": 0, "DistrictId": 1, "Latitude": 22.602194, "Longitude": 120.303419, "IVRNo": 2128, "EXTVoiceNo": 2128, "traveltime": 0, "holidayTraveltime": 0}, {"Id": "8555", "pgp": 0, "GoBack": 2, "SID": 1333, "NameZh": "\u8f15\u8ecc\u7d93\u8cbf\u5712\u5340\u7ad9", "RouteId": 70, "SeqNo": 36, "Terminal": 0, "DistrictId": 1, "Latitude": 22.600885, "Longitude": 120.302689, "IVRNo": 2158, "EXTVoiceNo": 8555, "traveltime": 0, "holidayTraveltime": 0}, {"Id": "2126", "pgp": 0, "GoBack": 2, "SID": 1335, "NameZh": "\u53f0\u7cd6\u7269\u6d41", "RouteId": 70, "SeqNo": 37, "Terminal": 0, "DistrictId": 1, "Latitude": 22.598108, "Longitude": 120.303716, "IVRNo": 2126, "EXTVoiceNo": 2126, "traveltime": 0, "holidayTraveltime": 0}, {"Id": "8554", "pgp": 0, "GoBack": 2, "SID": 2145, "NameZh": "\u8f15\u8ecc\u5922\u6642\u4ee3\u7ad9(\u7d71\u4e00\u6642\u4ee3\u767e\u8ca8)", "RouteId": 70, "SeqNo": 38, "Terminal": 0, "DistrictId": 1, "Latitude": 22.595141, "Longitude": 120.304872, "IVRNo": 3008, "EXTVoiceNo": 8554, "traveltime": 0, "holidayTraveltime": 0}, {"Id": "3001", "pgp": 0, "GoBack": 2, "SID": 2124, "NameZh": "\u524d\u93ae\u7ad9", "RouteId": 70, "SeqNo": 39, "Terminal": 1, "DistrictId": 1, "Latitude": 22.591336, "Longitude": 120.305658, "IVRNo": 3001, "EXTVoiceNo": 3001, "traveltime": 0, "holidayTraveltime": 0}]}