{"en": [{"Id": "0828", "pgp": 0, "GoBack": 1, "SID": 11813, "NameZh": "MRT Gangshan South Station", "RouteId": 866, "SeqNo": 1, "Terminal": 0, "DistrictId": 1, "Latitude": 22.781124, "Longitude": 120.300244, "IVRNo": 828, "EXTVoiceNo": 828, "traveltime": 0, "holidayTraveltime": 0}, {"Id": "0832", "pgp": 0, "GoBack": 1, "SID": 13335, "NameZh": "Gangshan Transfer Station (Gangshan Train Station)", "RouteId": 866, "SeqNo": 2, "Terminal": 0, "DistrictId": 1, "Latitude": 22.79233, "Longitude": 120.299444, "IVRNo": 832, "EXTVoiceNo": 832, "traveltime": 0, "holidayTraveltime": 0}, {"Id": "1263", "pgp": 0, "GoBack": 1, "SID": 2140, "NameZh": "Gangshan Agricultural & Industrial Vocational Senior High School (Hehua Rd.)", "RouteId": 866, "SeqNo": 3, "Terminal": 0, "DistrictId": 1, "Latitude": 22.8013, "Longitude": 120.29091, "IVRNo": 1263, "EXTVoiceNo": 1263, "traveltime": 0, "holidayTraveltime": 0}, {"Id": "0994", "pgp": 0, "GoBack": 1, "SID": 15514, "NameZh": "Air Force Institute of Technology", "RouteId": 866, "SeqNo": 4, "Terminal": 0, "DistrictId": 1, "Latitude": 22.79919, "Longitude": 120.28465, "IVRNo": 994, "EXTVoiceNo": 994, "traveltime": 0, "holidayTraveltime": 0}, {"Id": "2177", "pgp": 0, "GoBack": 1, "SID": 8749, "NameZh": "Yucai Rd. Intersection", "RouteId": 866, "SeqNo": 5, "Terminal": 0, "DistrictId": 1, "Latitude": 22.805202, "Longitude": 120.277022, "IVRNo": 875, "EXTVoiceNo": 12177, "traveltime": 0, "holidayTraveltime": 0}, {"Id": "0052", "pgp": 0, "GoBack": 1, "SID": 13529, "NameZh": "Environmental Science & Technology Park", "RouteId": 866, "SeqNo": 6, "Terminal": 0, "DistrictId": 1, "Latitude": 22.8063, "Longitude": 120.2716, "IVRNo": 9283, "EXTVoiceNo": 52, "traveltime": 0, "holidayTraveltime": 0}, {"Id": "0118", "pgp": 0, "GoBack": 1, "SID": 14, "NameZh": "Bengong 5th Rd. Intersection", "RouteId": 866, "SeqNo": 7, "Terminal": 0, "DistrictId": 1, "Latitude": 22.809692, "Longitude": 120.270326, "IVRNo": 344, "EXTVoiceNo": 118, "traveltime": 0, "holidayTraveltime": 0}, {"Id": "0053", "pgp": 0, "GoBack": 1, "SID": 13338, "NameZh": "Benjhou Industrial Park", "RouteId": 866, "SeqNo": 8, "Terminal": 0, "DistrictId": 1, "Latitude": 22.812469, "Longitude": 120.272463, "IVRNo": 9987, "EXTVoiceNo": 53, "traveltime": 0, "holidayTraveltime": 0}, {"Id": "0132", "pgp": 0, "GoBack": 1, "SID": 15, "NameZh": "Soya-stewed Museum", "RouteId": 866, "SeqNo": 9, "Terminal": 0, "DistrictId": 1, "Latitude": 22.8172, "Longitude": 120.2669, "IVRNo": 393, "EXTVoiceNo": 132, "traveltime": 0, "holidayTraveltime": 0}, {"Id": "0122", "pgp": 0, "GoBack": 1, "SID": 155, "NameZh": "Bengong 6th Rd. Intersection", "RouteId": 866, "SeqNo": 10, "Terminal": 0, "DistrictId": 1, "Latitude": 22.81241, "Longitude": 120.26346, "IVRNo": 632, "EXTVoiceNo": 122, "traveltime": 0, "holidayTraveltime": 0}, {"Id": "0632", "pgp": 0, "GoBack": 1, "SID": 17777, "NameZh": "Benjhou", "RouteId": 866, "SeqNo": 11, "Terminal": 0, "DistrictId": 1, "Latitude": 22.8079, "Longitude": 120.26109, "IVRNo": 161, "EXTVoiceNo": 10632, "traveltime": 0, "holidayTraveltime": 0}, {"Id": "0816", "pgp": 0, "GoBack": 1, "SID": 17776, "NameZh": "Sibenjhou", "RouteId": 866, "SeqNo": 12, "Terminal": 1, "DistrictId": 1, "Latitude": 22.80804, "Longitude": 120.25849, "IVRNo": 300, "EXTVoiceNo": 10816, "traveltime": 0, "holidayTraveltime": 0}, {"Id": "0124", "pgp": 0, "GoBack": 2, "SID": 165, "NameZh": "Yongan Industrial Park", "RouteId": 866, "SeqNo": 1, "Terminal": 0, "DistrictId": 1, "Latitude": 22.808199, "Longitude": 120.252361, "IVRNo": 485, "EXTVoiceNo": 124, "traveltime": 0, "holidayTraveltime": 0}, {"Id": "0632", "pgp": 0, "GoBack": 2, "SID": 17792, "NameZh": "Benjhou", "RouteId": 866, "SeqNo": 2, "Terminal": 0, "DistrictId": 1, "Latitude": 22.80783, "Longitude": 120.26094, "IVRNo": 161, "EXTVoiceNo": 10632, "traveltime": 0, "holidayTraveltime": 0}, {"Id": "0132", "pgp": 0, "GoBack": 2, "SID": 197, "NameZh": "Soya-stewed Museum", "RouteId": 866, "SeqNo": 3, "Terminal": 0, "DistrictId": 1, "Latitude": 22.81711, "Longitude": 120.26696, "IVRNo": 393, "EXTVoiceNo": 132, "traveltime": 0, "holidayTraveltime": 0}, {"Id": "0053", "pgp": 0, "GoBack": 2, "SID": 13346, "NameZh": "Benjhou Industrial Park", "RouteId": 866, "SeqNo": 4, "Terminal": 0, "DistrictId": 1, "Latitude": 22.812502, "Longitude": 120.272346, "IVRNo": 9987, "EXTVoiceNo": 53, "traveltime": 0, "holidayTraveltime": 0}, {"Id": "0118", "pgp": 0, "GoBack": 2, "SID": 226, "NameZh": "Bengong 5th Rd. Intersection", "RouteId": 866, "SeqNo": 5, "Terminal": 0, "DistrictId": 1, "Latitude": 22.809692, "Longitude": 120.270326, "IVRNo": 344, "EXTVoiceNo": 118, "traveltime": 0, "holidayTraveltime": 0}, {"Id": "0052", "pgp": 0, "GoBack": 2, "SID": 13530, "NameZh": "Environmental Science & Technology Park", "RouteId": 866, "SeqNo": 6, "Terminal": 0, "DistrictId": 1, "Latitude": 22.8063, "Longitude": 120.2716, "IVRNo": 9283, "EXTVoiceNo": 52, "traveltime": 0, "holidayTraveltime": 0}, {"Id": "2177", "pgp": 0, "GoBack": 2, "SID": 13337, "NameZh": "Yucai Rd. Intersection", "RouteId": 866, "SeqNo": 7, "Terminal": 0, "DistrictId": 1, "Latitude": 22.805123, "Longitude": 120.277008, "IVRNo": 875, "EXTVoiceNo": 12177, "traveltime": 0, "holidayTraveltime": 0}, {"Id": "0994", "pgp": 0, "GoBack": 2, "SID": 15555, "NameZh": "Air Force Institute of Technology", "RouteId": 866, "SeqNo": 8, "Terminal": 0, "DistrictId": 1, "Latitude": 22.79904, "Longitude": 120.28486, "IVRNo": 994, "EXTVoiceNo": 994, "traveltime": 0, "holidayTraveltime": 0}, {"Id": "1263", "pgp": 0, "GoBack": 2, "SID": 2141, "NameZh": "Gangshan Agricultural & Industrial Vocational Senior High School (Hehua Rd.)", "RouteId": 866, "SeqNo": 9, "Terminal": 0, "DistrictId": 1, "Latitude": 22.8013, "Longitude": 120.29091, "IVRNo": 1263, "EXTVoiceNo": 1263, "traveltime": 0, "holidayTraveltime": 0}, {"Id": "0832", "pgp": 0, "GoBack": 2, "SID": 11013, "NameZh": "Gangshan Transfer Station (Gangshan Train Station)", "RouteId": 866, "SeqNo": 10, "Terminal": 0, "DistrictId": 1, "Latitude": 22.79233, "Longitude": 120.299444, "IVRNo": 832, "EXTVoiceNo": 832, "traveltime": 0, "holidayTraveltime": 0}, {"Id": "0828", "pgp": 0, "GoBack": 2, "SID": 11814, "NameZh": "MRT Gangshan South Station", "RouteId": 866, "SeqNo": 11, "Terminal": 1, "DistrictId": 1, "Latitude": 22.780347, "Longitude": 120.300666, "IVRNo": 828, "EXTVoiceNo": 828, "traveltime": 0, "holidayTraveltime": 0}], "zh": [{"Id": "0828", "pgp": 0, "GoBack": 1, "SID": 11813, "NameZh": "\u6377\u904b\u5357\u5ca1\u5c71\u7ad9", "RouteId": 866, "SeqNo": 1, "Terminal": 0, "DistrictId": 1, "Latitude": 22.781124, "Longitude": 120.300244, "IVRNo": 828, "EXTVoiceNo": 828, "traveltime": 0, "holidayTraveltime": 0}, {"Id": "0832", "pgp": 0, "GoBack": 1, "SID": 13335, "NameZh": "\u5ca1\u5c71\u8f49\u904b\u7ad9(\u5ca1\u5c71\u706b\u8eca\u7ad9)", "RouteId": 866, "SeqNo": 2, "Terminal": 0, "DistrictId": 1, "Latitude": 22.79233, "Longitude": 120.299444, "IVRNo": 832, "EXTVoiceNo": 832, "traveltime": 0, "holidayTraveltime": 0}, {"Id": "1263", "pgp": 0, "GoBack": 1, "SID": 2140, "NameZh": "\u5ca1\u5c71\u8fb2\u5de5(\u6cb3\u83ef\u8def)", "RouteId": 866, "SeqNo": 3, "Terminal": 0, "DistrictId": 1, "Latitude": 22.8013, "Longitude": 120.29091, "IVRNo": 1263, "EXTVoiceNo": 1263, "traveltime": 0, "holidayTraveltime": 0}, {"Id": "0994", "pgp": 0, "GoBack": 1, "SID": 15514, "NameZh": "\u7a7a\u8ecd\u6a5f\u6821", "RouteId": 866, "SeqNo": 4, "Terminal": 0, "DistrictId": 1, "Latitude": 22.79919, "Longitude": 120.28465, "IVRNo": 994, "EXTVoiceNo": 994, "traveltime": 0, "holidayTraveltime": 0}, {"Id": "2177", "pgp": 0, "GoBack": 1, "SID": 8749, "NameZh": "\u80b2\u624d\u8def\u53e3", "RouteId": 866, "SeqNo": 5, "Terminal": 0, "DistrictId": 1, "Latitude": 22.805202, "Longitude": 120.277022, "IVRNo": 875, "EXTVoiceNo": 12177, "traveltime": 0, "holidayTraveltime": 0}, {"Id": "0052", "pgp": 0, "GoBack": 1, "SID": 13529, "NameZh": "\u74b0\u4fdd\u79d1\u6280\u5712\u5340", "RouteId": 866, "SeqNo": 6, "Terminal": 0, "DistrictId": 1, "Latitude": 22.8063, "Longitude": 120.2716, "IVRNo": 9283, "EXTVoiceNo": 52, "traveltime": 0, "holidayTraveltime": 0}, {"Id": "0118", "pgp": 0, "GoBack": 1, "SID": 14, "NameZh": "\u672c\u5de5\u4e94\u8def\u53e3", "RouteId": 866, "SeqNo": 7, "Terminal": 0, "DistrictId": 1, "Latitude": 22.809692, "Longitude": 120.270326, "IVRNo": 344, "EXTVoiceNo": 118, "traveltime": 0, "holidayTraveltime": 0}, {"Id": "0053", "pgp": 0, "GoBack": 1, "SID": 13338, "NameZh": "\u672c\u6d32\u5de5\u696d\u5340", "RouteId": 866, "SeqNo": 8, "Terminal": 0, "DistrictId": 1, "Latitude": 22.812469, "Longitude": 120.272463, "IVRNo": 9987, "EXTVoiceNo": 53, "traveltime": 0, "holidayTraveltime": 0}, {"Id": "0132", "pgp": 0, "GoBack": 1, "SID": 15, "NameZh": "\u6ef7\u5473\u535a\u7269\u9928", "RouteId": 866, "SeqNo": 9, "Terminal": 0, "DistrictId": 1, "Latitude": 22.8172, "Longitude": 120.2669, "IVRNo": 393, "EXTVoiceNo": 132, "traveltime": 0, "holidayTraveltime": 0}, {"Id": "0122", "pgp": 0, "GoBack": 1, "SID": 155, "NameZh": "\u672c\u5de5\u516d\u8def\u53e3", "RouteId": 866, "SeqNo": 10, "Terminal": 0, "DistrictId": 1, "Latitude": 22.81241, "Longitude": 120.26346, "IVRNo": 632, "EXTVoiceNo": 122, "traveltime": 0, "holidayTraveltime": 0}, {"Id": "0632", "pgp": 0, "GoBack": 1, "SID": 17777, "NameZh": "\u672c\u6d32", "RouteId": 866, "SeqNo": 11, "Terminal": 0, "DistrictId": 1, "Latitude": 22.8079, "Longitude": 120.26109, "IVRNo": 161, "EXTVoiceNo": 10632, "traveltime": 0, "holidayTraveltime": 0}, {"Id": "0816", "pgp": 0, "GoBack": 1, "SID": 17776, "NameZh": "\u897f\u672c\u6d32", "RouteId": 866, "SeqNo": 12, "Terminal": 1, "DistrictId": 1, "Latitude": 22.80804, "Longitude": 120.25849, "IVRNo": 300, "EXTVoiceNo": 10816, "traveltime": 0, "holidayTraveltime": 0}, {"Id": "0124", "pgp": 0, "GoBack": 2, "SID": 165, "NameZh": "\u6c38\u5b89\u5de5\u696d\u5340", "RouteId": 866, "SeqNo": 1, "Terminal": 0, "DistrictId": 1, "Latitude": 22.808199, "Longitude": 120.252361, "IVRNo": 485, "EXTVoiceNo": 124, "traveltime": 0, "holidayTraveltime": 0}, {"Id": "0632", "pgp": 0, "GoBack": 2, "SID": 17792, "NameZh": "\u672c\u6d32", "RouteId": 866, "SeqNo": 2, "Terminal": 0, "DistrictId": 1, "Latitude": 22.80783, "Longitude": 120.26094, "IVRNo": 161, "EXTVoiceNo": 10632, "traveltime": 0, "holidayTraveltime": 0}, {"Id": "0132", "pgp": 0, "GoBack": 2, "SID": 197, "NameZh": "\u6ef7\u5473\u535a\u7269\u9928", "RouteId": 866, "SeqNo": 3, "Terminal": 0, "DistrictId": 1, "Latitude": 22.81711, "Longitude": 120.26696, "IVRNo": 393, "EXTVoiceNo": 132, "traveltime": 0, "holidayTraveltime": 0}, {"Id": "0053", "pgp": 0, "GoBack": 2, "SID": 13346, "NameZh": "\u672c\u6d32\u5de5\u696d\u5340", "RouteId": 866, "SeqNo": 4, "Terminal": 0, "DistrictId": 1, "Latitude": 22.812502, "Longitude": 120.272346, "IVRNo": 9987, "EXTVoiceNo": 53, "traveltime": 0, "holidayTraveltime": 0}, {"Id": "0118", "pgp": 0, "GoBack": 2, "SID": 226, "NameZh": "\u672c\u5de5\u4e94\u8def\u53e3", "RouteId": 866, "SeqNo": 5, "Terminal": 0, "DistrictId": 1, "Latitude": 22.809692, "Longitude": 120.270326, "IVRNo": 344, "EXTVoiceNo": 118, "traveltime": 0, "holidayTraveltime": 0}, {"Id": "0052", "pgp": 0, "GoBack": 2, "SID": 13530, "NameZh": "\u74b0\u4fdd\u79d1\u6280\u5712\u5340", "RouteId": 866, "SeqNo": 6, "Terminal": 0, "DistrictId": 1, "Latitude": 22.8063, "Longitude": 120.2716, "IVRNo": 9283, "EXTVoiceNo": 52, "traveltime": 0, "holidayTraveltime": 0}, {"Id": "2177", "pgp": 0, "GoBack": 2, "SID": 13337, "NameZh": "\u80b2\u624d\u8def\u53e3", "RouteId": 866, "SeqNo": 7, "Terminal": 0, "DistrictId": 1, "Latitude": 22.805123, "Longitude": 120.277008, "IVRNo": 875, "EXTVoiceNo": 12177, "traveltime": 0, "holidayTraveltime": 0}, {"Id": "0994", "pgp": 0, "GoBack": 2, "SID": 15555, "NameZh": "\u7a7a\u8ecd\u6a5f\u6821", "RouteId": 866, "SeqNo": 8, "Terminal": 0, "DistrictId": 1, "Latitude": 22.79904, "Longitude": 120.28486, "IVRNo": 994, "EXTVoiceNo": 994, "traveltime": 0, "holidayTraveltime": 0}, {"Id": "1263", "pgp": 0, "GoBack": 2, "SID": 2141, "NameZh": "\u5ca1\u5c71\u8fb2\u5de5(\u6cb3\u83ef\u8def)", "RouteId": 866, "SeqNo": 9, "Terminal": 0, "DistrictId": 1, "Latitude": 22.8013, "Longitude": 120.29091, "IVRNo": 1263, "EXTVoiceNo": 1263, "traveltime": 0, "holidayTraveltime": 0}, {"Id": "0832", "pgp": 0, "GoBack": 2, "SID": 11013, "NameZh": "\u5ca1\u5c71\u8f49\u904b\u7ad9(\u5ca1\u5c71\u706b\u8eca\u7ad9)", "RouteId": 866, "SeqNo": 10, "Terminal": 0, "DistrictId": 1, "Latitude": 22.79233, "Longitude": 120.299444, "IVRNo": 832, "EXTVoiceNo": 832, "traveltime": 0, "holidayTraveltime": 0}, {"Id": "0828", "pgp": 0, "GoBack": 2, "SID": 11814, "NameZh": "\u6377\u904b\u5357\u5ca1\u5c71\u7ad9", "RouteId": 866, "SeqNo": 11, "Terminal": 1, "DistrictId": 1, "Latitude": 22.780347, "Longitude": 120.300666, "IVRNo": 828, "EXTVoiceNo": 828, "traveltime": 0, "holidayTraveltime": 0}]}