{"en": [{"Id": "0117", "pgp": 0, "GoBack": 1, "SID": 8420, "NameZh": "Dasyue W. Rd. Intersection (The First General Building)", "RouteId": 98, "SeqNo": 1, "Terminal": 0, "DistrictId": 1, "Latitude": 22.72983, "Longitude": 120.27838, "IVRNo": 8805, "EXTVoiceNo": 20117, "traveltime": 0, "holidayTraveltime": 0}, {"Id": "1090", "pgp": 0, "GoBack": 1, "SID": 8421, "NameZh": "National University of Kaohsiung (Dasyue S. Rd.)", "RouteId": 98, "SeqNo": 2, "Terminal": 0, "DistrictId": 1, "Latitude": 22.73205, "Longitude": 120.28501, "IVRNo": 1090, "EXTVoiceNo": 1090, "traveltime": 0, "holidayTraveltime": 0}, {"Id": "9014", "pgp": 0, "GoBack": 1, "SID": 8822, "NameZh": "College of Management, National University of Kaohsiung", "RouteId": 98, "SeqNo": 3, "Terminal": 0, "DistrictId": 1, "Latitude": 22.732405, "Longitude": 120.288234, "IVRNo": 8745, "EXTVoiceNo": 9014, "traveltime": 0, "holidayTraveltime": 0}, {"Id": "0350", "pgp": 0, "GoBack": 1, "SID": 8823, "NameZh": "Jia-Wei Elementary School", "RouteId": 98, "SeqNo": 4, "Terminal": 0, "DistrictId": 1, "Latitude": 22.73561, "Longitude": 120.2932, "IVRNo": 8955, "EXTVoiceNo": 20350, "traveltime": 0, "holidayTraveltime": 0}, {"Id": "0348", "pgp": 0, "GoBack": 1, "SID": 9481, "NameZh": "Jiachang Rd.", "RouteId": 98, "SeqNo": 5, "Terminal": 0, "DistrictId": 1, "Latitude": 22.73875, "Longitude": 120.29446, "IVRNo": 8953, "EXTVoiceNo": 20348, "traveltime": 0, "holidayTraveltime": 0}, {"Id": "0007", "pgp": 0, "GoBack": 1, "SID": 9480, "NameZh": "Jioujiawei", "RouteId": 98, "SeqNo": 6, "Terminal": 0, "DistrictId": 1, "Latitude": 22.74225, "Longitude": 120.2943, "IVRNo": 4816, "EXTVoiceNo": 20007, "traveltime": 0, "holidayTraveltime": 0}, {"Id": "6088", "pgp": 0, "GoBack": 1, "SID": 14834, "NameZh": "Jiabei Village", "RouteId": 98, "SeqNo": 7, "Terminal": 0, "DistrictId": 1, "Latitude": 22.74301, "Longitude": 120.29751, "IVRNo": 8951, "EXTVoiceNo": 26088, "traveltime": 0, "holidayTraveltime": 0}, {"Id": "0587", "pgp": 0, "GoBack": 1, "SID": 15452, "NameZh": "Sinjhuang (Sinjhuang Rd.)", "RouteId": 98, "SeqNo": 8, "Terminal": 0, "DistrictId": 1, "Latitude": 22.745507, "Longitude": 120.30185, "IVRNo": 8121, "EXTVoiceNo": 587, "traveltime": 0, "holidayTraveltime": 0}, {"Id": "6086", "pgp": 0, "GoBack": 1, "SID": 14835, "NameZh": "Shihfong Rd.", "RouteId": 98, "SeqNo": 9, "Terminal": 0, "DistrictId": 1, "Latitude": 22.750826, "Longitude": 120.308035, "IVRNo": 8931, "EXTVoiceNo": 26086, "traveltime": 0, "holidayTraveltime": 0}, {"Id": "2400", "pgp": 0, "GoBack": 1, "SID": 19060, "NameZh": "Shilong Community Center", "RouteId": 98, "SeqNo": 10, "Terminal": 0, "DistrictId": 1, "Latitude": 22.752863, "Longitude": 120.310775, "IVRNo": 32400, "EXTVoiceNo": 32400, "traveltime": 0, "holidayTraveltime": 0}, {"Id": "2385", "pgp": 0, "GoBack": 1, "SID": 19058, "NameZh": "Nangou Rd.", "RouteId": 98, "SeqNo": 11, "Terminal": 0, "DistrictId": 1, "Latitude": 22.753306, "Longitude": 120.309139, "IVRNo": 32385, "EXTVoiceNo": 32385, "traveltime": 0, "holidayTraveltime": 0}, {"Id": "1089", "pgp": 0, "GoBack": 1, "SID": 13634, "NameZh": "Ciaotou District Farmers` Association", "RouteId": 98, "SeqNo": 12, "Terminal": 0, "DistrictId": 1, "Latitude": 22.752603, "Longitude": 120.308347, "IVRNo": 9275, "EXTVoiceNo": 21089, "traveltime": 0, "holidayTraveltime": 0}, {"Id": "0364", "pgp": 0, "GoBack": 1, "SID": 14841, "NameZh": "Ciaotou  District Office (Longfong Rd.)", "RouteId": 98, "SeqNo": 13, "Terminal": 0, "DistrictId": 1, "Latitude": 22.75758, "Longitude": 120.305142, "IVRNo": 7903, "EXTVoiceNo": 364, "traveltime": 0, "holidayTraveltime": 0}, {"Id": "0994", "pgp": 0, "GoBack": 1, "SID": 8866, "NameZh": "Ciaotou Elementary School", "RouteId": 98, "SeqNo": 14, "Terminal": 0, "DistrictId": 1, "Latitude": 22.762275, "Longitude": 120.305483, "IVRNo": 9277, "EXTVoiceNo": 20994, "traveltime": 0, "holidayTraveltime": 0}, {"Id": "9125", "pgp": 0, "GoBack": 1, "SID": 10852, "NameZh": "MRT Ciaotou Train Station", "RouteId": 98, "SeqNo": 15, "Terminal": 0, "DistrictId": 1, "Latitude": 22.760615, "Longitude": 120.309235, "IVRNo": 7900, "EXTVoiceNo": 9125, "traveltime": 0, "holidayTraveltime": 0}, {"Id": "2399", "pgp": 0, "GoBack": 1, "SID": 8870, "NameZh": "Ciaotou  Market", "RouteId": 98, "SeqNo": 16, "Terminal": 0, "DistrictId": 1, "Latitude": 22.75526, "Longitude": 120.31132, "IVRNo": 807, "EXTVoiceNo": 32399, "traveltime": 0, "holidayTraveltime": 0}, {"Id": "0377", "pgp": 0, "GoBack": 1, "SID": 8869, "NameZh": "Chenggong S. Rd.", "RouteId": 98, "SeqNo": 17, "Terminal": 0, "DistrictId": 1, "Latitude": 22.75063, "Longitude": 120.31396, "IVRNo": 8963, "EXTVoiceNo": 20377, "traveltime": 0, "holidayTraveltime": 0}, {"Id": "0710", "pgp": 0, "GoBack": 1, "SID": 8829, "NameZh": "MRT Cingpu Station", "RouteId": 98, "SeqNo": 18, "Terminal": 0, "DistrictId": 1, "Latitude": 22.74315, "Longitude": 120.31762, "IVRNo": 9041, "EXTVoiceNo": 20710, "traveltime": 0, "holidayTraveltime": 0}, {"Id": "1170", "pgp": 0, "GoBack": 1, "SID": 14832, "NameZh": "Cingfong Rd. Intersection (Nanzih Rd.)", "RouteId": 98, "SeqNo": 19, "Terminal": 0, "DistrictId": 1, "Latitude": 22.738136, "Longitude": 120.324092, "IVRNo": 1170, "EXTVoiceNo": 1170, "traveltime": 0, "holidayTraveltime": 0}, {"Id": "0167", "pgp": 0, "GoBack": 1, "SID": 14340, "NameZh": "Tuku 2nd Rd.", "RouteId": 98, "SeqNo": 20, "Terminal": 0, "DistrictId": 1, "Latitude": 22.73907, "Longitude": 120.325735, "IVRNo": 167, "EXTVoiceNo": 167, "traveltime": 0, "holidayTraveltime": 0}, {"Id": "0285", "pgp": 0, "GoBack": 1, "SID": 8830, "NameZh": "Taiwan Sugar Flowers and Plants Center", "RouteId": 98, "SeqNo": 21, "Terminal": 0, "DistrictId": 1, "Latitude": 22.7409, "Longitude": 120.32508, "IVRNo": 8937, "EXTVoiceNo": 20285, "traveltime": 0, "holidayTraveltime": 0}, {"Id": "0444", "pgp": 0, "GoBack": 1, "SID": 13609, "NameZh": "Cyonglin 6th St. Intersection", "RouteId": 98, "SeqNo": 22, "Terminal": 0, "DistrictId": 1, "Latitude": 22.74824, "Longitude": 120.3314, "IVRNo": 7183, "EXTVoiceNo": 20444, "traveltime": 0, "holidayTraveltime": 0}, {"Id": "7122", "pgp": 0, "GoBack": 1, "SID": 8831, "NameZh": "National Kaohsiung University of Science and Technology (Diyi W Campus)", "RouteId": 98, "SeqNo": 23, "Terminal": 0, "DistrictId": 1, "Latitude": 22.75125, "Longitude": 120.3316, "IVRNo": 7122, "EXTVoiceNo": 7122, "traveltime": 0, "holidayTraveltime": 0}, {"Id": "7123", "pgp": 0, "GoBack": 1, "SID": 8832, "NameZh": "National Kaohsiung University of Science and Technology (Diyi E Campus)", "RouteId": 98, "SeqNo": 24, "Terminal": 0, "DistrictId": 1, "Latitude": 22.75873, "Longitude": 120.3365, "IVRNo": 7123, "EXTVoiceNo": 7123, "traveltime": 0, "holidayTraveltime": 0}, {"Id": "0687", "pgp": 0, "GoBack": 1, "SID": 4750, "NameZh": "High Speed Rail Main Workshop", "RouteId": 98, "SeqNo": 25, "Terminal": 0, "DistrictId": 1, "Latitude": 22.759727, "Longitude": 120.345895, "IVRNo": 7124, "EXTVoiceNo": 20687, "traveltime": 0, "holidayTraveltime": 0}, {"Id": "7125", "pgp": 0, "GoBack": 1, "SID": 14833, "NameZh": "Yanchao Vegetable and Fruit Market", "RouteId": 98, "SeqNo": 26, "Terminal": 0, "DistrictId": 1, "Latitude": 22.760135, "Longitude": 120.359517, "IVRNo": 7125, "EXTVoiceNo": 7125, "traveltime": 0, "holidayTraveltime": 0}, {"Id": "7602", "pgp": 0, "GoBack": 1, "SID": 8835, "NameZh": "E-Da Hospital", "RouteId": 98, "SeqNo": 27, "Terminal": 1, "DistrictId": 1, "Latitude": 22.76473, "Longitude": 120.36405, "IVRNo": 7126, "EXTVoiceNo": 7602, "traveltime": 0, "holidayTraveltime": 0}, {"Id": "7602", "pgp": 0, "GoBack": 2, "SID": 8856, "NameZh": "E-Da Hospital", "RouteId": 98, "SeqNo": 1, "Terminal": 0, "DistrictId": 1, "Latitude": 22.76488, "Longitude": 120.36396, "IVRNo": 7126, "EXTVoiceNo": 7602, "traveltime": 0, "holidayTraveltime": 0}, {"Id": "7125", "pgp": 0, "GoBack": 2, "SID": 8834, "NameZh": "Yanchao Vegetable and Fruit Market", "RouteId": 98, "SeqNo": 2, "Terminal": 0, "DistrictId": 1, "Latitude": 22.760044, "Longitude": 120.359673, "IVRNo": 7125, "EXTVoiceNo": 7125, "traveltime": 0, "holidayTraveltime": 0}, {"Id": "0687", "pgp": 0, "GoBack": 2, "SID": 8833, "NameZh": "High Speed Rail Main Workshop", "RouteId": 98, "SeqNo": 3, "Terminal": 0, "DistrictId": 1, "Latitude": 22.75981, "Longitude": 120.34588, "IVRNo": 7124, "EXTVoiceNo": 20687, "traveltime": 0, "holidayTraveltime": 0}, {"Id": "7123", "pgp": 0, "GoBack": 2, "SID": 8857, "NameZh": "National Kaohsiung University of Science and Technology (Diyi E Campus)", "RouteId": 98, "SeqNo": 4, "Terminal": 0, "DistrictId": 1, "Latitude": 22.75895, "Longitude": 120.33668, "IVRNo": 7123, "EXTVoiceNo": 7123, "traveltime": 0, "holidayTraveltime": 0}, {"Id": "7122", "pgp": 0, "GoBack": 2, "SID": 8858, "NameZh": "National Kaohsiung University of Science and Technology (Diyi W Campus)", "RouteId": 98, "SeqNo": 5, "Terminal": 0, "DistrictId": 1, "Latitude": 22.75153, "Longitude": 120.33138, "IVRNo": 7122, "EXTVoiceNo": 7122, "traveltime": 0, "holidayTraveltime": 0}, {"Id": "0444", "pgp": 0, "GoBack": 2, "SID": 13588, "NameZh": "Cyonglin 6th St. Intersection", "RouteId": 98, "SeqNo": 6, "Terminal": 0, "DistrictId": 1, "Latitude": 22.74824, "Longitude": 120.3314, "IVRNo": 7183, "EXTVoiceNo": 20444, "traveltime": 0, "holidayTraveltime": 0}, {"Id": "0285", "pgp": 0, "GoBack": 2, "SID": 8859, "NameZh": "Taiwan Sugar Flowers and Plants Center", "RouteId": 98, "SeqNo": 7, "Terminal": 0, "DistrictId": 1, "Latitude": 22.7411, "Longitude": 120.32501, "IVRNo": 8937, "EXTVoiceNo": 20285, "traveltime": 0, "holidayTraveltime": 0}, {"Id": "0167", "pgp": 0, "GoBack": 2, "SID": 14110, "NameZh": "Tuku 2nd Rd.", "RouteId": 98, "SeqNo": 8, "Terminal": 0, "DistrictId": 1, "Latitude": 22.739055, "Longitude": 120.325706, "IVRNo": 167, "EXTVoiceNo": 167, "traveltime": 0, "holidayTraveltime": 0}, {"Id": "1170", "pgp": 0, "GoBack": 2, "SID": 14295, "NameZh": "Cingfong Rd. Intersection (Nanzih Rd.)", "RouteId": 98, "SeqNo": 9, "Terminal": 0, "DistrictId": 1, "Latitude": 22.738107, "Longitude": 120.324164, "IVRNo": 1170, "EXTVoiceNo": 1170, "traveltime": 0, "holidayTraveltime": 0}, {"Id": "0710", "pgp": 0, "GoBack": 2, "SID": 8860, "NameZh": "MRT Cingpu Station", "RouteId": 98, "SeqNo": 10, "Terminal": 0, "DistrictId": 1, "Latitude": 22.74343, "Longitude": 120.3177, "IVRNo": 9041, "EXTVoiceNo": 20710, "traveltime": 0, "holidayTraveltime": 0}, {"Id": "0377", "pgp": 0, "GoBack": 2, "SID": 13636, "NameZh": "Chenggong S. Rd.", "RouteId": 98, "SeqNo": 11, "Terminal": 0, "DistrictId": 1, "Latitude": 22.750252, "Longitude": 120.313978, "IVRNo": 8963, "EXTVoiceNo": 20377, "traveltime": 0, "holidayTraveltime": 0}, {"Id": "2399", "pgp": 0, "GoBack": 2, "SID": 8867, "NameZh": "Ciaotou  Market", "RouteId": 98, "SeqNo": 12, "Terminal": 0, "DistrictId": 1, "Latitude": 22.75593, "Longitude": 120.3111, "IVRNo": 807, "EXTVoiceNo": 32399, "traveltime": 0, "holidayTraveltime": 0}, {"Id": "9125", "pgp": 0, "GoBack": 2, "SID": 5339, "NameZh": "MRT Ciaotou Train Station", "RouteId": 98, "SeqNo": 13, "Terminal": 0, "DistrictId": 1, "Latitude": 22.760615, "Longitude": 120.309235, "IVRNo": 7900, "EXTVoiceNo": 9125, "traveltime": 0, "holidayTraveltime": 0}, {"Id": "0994", "pgp": 0, "GoBack": 2, "SID": 14836, "NameZh": "Ciaotou Elementary School", "RouteId": 98, "SeqNo": 14, "Terminal": 0, "DistrictId": 1, "Latitude": 22.762547, "Longitude": 120.305732, "IVRNo": 9277, "EXTVoiceNo": 20994, "traveltime": 0, "holidayTraveltime": 0}, {"Id": "0364", "pgp": 0, "GoBack": 2, "SID": 14842, "NameZh": "Ciaotou  District Office (Longfong Rd.)", "RouteId": 98, "SeqNo": 15, "Terminal": 0, "DistrictId": 1, "Latitude": 22.75758, "Longitude": 120.305142, "IVRNo": 7903, "EXTVoiceNo": 364, "traveltime": 0, "holidayTraveltime": 0}, {"Id": "1089", "pgp": 0, "GoBack": 2, "SID": 14839, "NameZh": "Ciaotou District Farmers` Association", "RouteId": 98, "SeqNo": 16, "Terminal": 0, "DistrictId": 1, "Latitude": 22.752507, "Longitude": 120.308272, "IVRNo": 9275, "EXTVoiceNo": 21089, "traveltime": 0, "holidayTraveltime": 0}, {"Id": "2385", "pgp": 0, "GoBack": 2, "SID": 19059, "NameZh": "Nangou Rd.", "RouteId": 98, "SeqNo": 17, "Terminal": 0, "DistrictId": 1, "Latitude": 22.753422, "Longitude": 120.3093, "IVRNo": 32385, "EXTVoiceNo": 32385, "traveltime": 0, "holidayTraveltime": 0}, {"Id": "2400", "pgp": 0, "GoBack": 2, "SID": 19061, "NameZh": "Shilong Community Center", "RouteId": 98, "SeqNo": 18, "Terminal": 0, "DistrictId": 1, "Latitude": 22.753047, "Longitude": 120.310764, "IVRNo": 32400, "EXTVoiceNo": 32400, "traveltime": 0, "holidayTraveltime": 0}, {"Id": "6086", "pgp": 0, "GoBack": 2, "SID": 14837, "NameZh": "Shihfong Rd.", "RouteId": 98, "SeqNo": 19, "Terminal": 0, "DistrictId": 1, "Latitude": 22.750826, "Longitude": 120.308035, "IVRNo": 8931, "EXTVoiceNo": 26086, "traveltime": 0, "holidayTraveltime": 0}, {"Id": "0587", "pgp": 0, "GoBack": 2, "SID": 15455, "NameZh": "Sinjhuang (Sinjhuang Rd.)", "RouteId": 98, "SeqNo": 20, "Terminal": 0, "DistrictId": 1, "Latitude": 22.745351, "Longitude": 120.301619, "IVRNo": 8121, "EXTVoiceNo": 587, "traveltime": 0, "holidayTraveltime": 0}, {"Id": "6088", "pgp": 0, "GoBack": 2, "SID": 14838, "NameZh": "Jiabei Village", "RouteId": 98, "SeqNo": 21, "Terminal": 0, "DistrictId": 1, "Latitude": 22.743165, "Longitude": 120.29748, "IVRNo": 8951, "EXTVoiceNo": 26088, "traveltime": 0, "holidayTraveltime": 0}, {"Id": "0007", "pgp": 0, "GoBack": 2, "SID": 9524, "NameZh": "Jioujiawei", "RouteId": 98, "SeqNo": 22, "Terminal": 0, "DistrictId": 1, "Latitude": 22.74223, "Longitude": 120.29435, "IVRNo": 4816, "EXTVoiceNo": 20007, "traveltime": 0, "holidayTraveltime": 0}, {"Id": "0348", "pgp": 0, "GoBack": 2, "SID": 9523, "NameZh": "Jiachang Rd.", "RouteId": 98, "SeqNo": 23, "Terminal": 0, "DistrictId": 1, "Latitude": 22.73873, "Longitude": 120.29454, "IVRNo": 8953, "EXTVoiceNo": 20348, "traveltime": 0, "holidayTraveltime": 0}, {"Id": "0350", "pgp": 0, "GoBack": 2, "SID": 13629, "NameZh": "Jia-Wei Elementary School", "RouteId": 98, "SeqNo": 24, "Terminal": 0, "DistrictId": 1, "Latitude": 22.73561, "Longitude": 120.2932, "IVRNo": 8955, "EXTVoiceNo": 20350, "traveltime": 0, "holidayTraveltime": 0}, {"Id": "9014", "pgp": 0, "GoBack": 2, "SID": 13630, "NameZh": "College of Management, National University of Kaohsiung", "RouteId": 98, "SeqNo": 25, "Terminal": 0, "DistrictId": 1, "Latitude": 22.73231, "Longitude": 120.287974, "IVRNo": 8745, "EXTVoiceNo": 9014, "traveltime": 0, "holidayTraveltime": 0}, {"Id": "1090", "pgp": 0, "GoBack": 2, "SID": 13631, "NameZh": "National University of Kaohsiung (Dasyue S. Rd.)", "RouteId": 98, "SeqNo": 26, "Terminal": 0, "DistrictId": 1, "Latitude": 22.73205, "Longitude": 120.28501, "IVRNo": 1090, "EXTVoiceNo": 1090, "traveltime": 0, "holidayTraveltime": 0}, {"Id": "0117", "pgp": 0, "GoBack": 2, "SID": 13632, "NameZh": "Dasyue W. Rd. Intersection (The First General Building)", "RouteId": 98, "SeqNo": 27, "Terminal": 0, "DistrictId": 1, "Latitude": 22.72983, "Longitude": 120.27838, "IVRNo": 8805, "EXTVoiceNo": 20117, "traveltime": 0, "holidayTraveltime": 0}], "zh": [{"Id": "0117", "pgp": 0, "GoBack": 1, "SID": 8420, "NameZh": "\u5927\u5b78\u897f\u8def\u53e3(\u7b2c\u4e00\u7d9c\u5408\u5927\u6a13)", "RouteId": 98, "SeqNo": 1, "Terminal": 0, "DistrictId": 1, "Latitude": 22.72983, "Longitude": 120.27838, "IVRNo": 8805, "EXTVoiceNo": 20117, "traveltime": 0, "holidayTraveltime": 0}, {"Id": "1090", "pgp": 0, "GoBack": 1, "SID": 8421, "NameZh": "\u9ad8\u96c4\u5927\u5b78(\u5927\u5b78\u5357\u8def)", "RouteId": 98, "SeqNo": 2, "Terminal": 0, "DistrictId": 1, "Latitude": 22.73205, "Longitude": 120.28501, "IVRNo": 1090, "EXTVoiceNo": 1090, "traveltime": 0, "holidayTraveltime": 0}, {"Id": "9014", "pgp": 0, "GoBack": 1, "SID": 8822, "NameZh": "\u9ad8\u5927\u7ba1\u7406\u5b78\u9662", "RouteId": 98, "SeqNo": 3, "Terminal": 0, "DistrictId": 1, "Latitude": 22.732405, "Longitude": 120.288234, "IVRNo": 8745, "EXTVoiceNo": 9014, "traveltime": 0, "holidayTraveltime": 0}, {"Id": "0350", "pgp": 0, "GoBack": 1, "SID": 8823, "NameZh": "\u7532\u570d\u570b\u5c0f", "RouteId": 98, "SeqNo": 4, "Terminal": 0, "DistrictId": 1, "Latitude": 22.73561, "Longitude": 120.2932, "IVRNo": 8955, "EXTVoiceNo": 20350, "traveltime": 0, "holidayTraveltime": 0}, {"Id": "0348", "pgp": 0, "GoBack": 1, "SID": 9481, "NameZh": "\u7532\u660c\u8def", "RouteId": 98, "SeqNo": 5, "Terminal": 0, "DistrictId": 1, "Latitude": 22.73875, "Longitude": 120.29446, "IVRNo": 8953, "EXTVoiceNo": 20348, "traveltime": 0, "holidayTraveltime": 0}, {"Id": "0007", "pgp": 0, "GoBack": 1, "SID": 9480, "NameZh": "\u4e5d\u7532\u570d", "RouteId": 98, "SeqNo": 6, "Terminal": 0, "DistrictId": 1, "Latitude": 22.74225, "Longitude": 120.2943, "IVRNo": 4816, "EXTVoiceNo": 20007, "traveltime": 0, "holidayTraveltime": 0}, {"Id": "6088", "pgp": 0, "GoBack": 1, "SID": 14834, "NameZh": "\u7532\u5317\u91cc", "RouteId": 98, "SeqNo": 7, "Terminal": 0, "DistrictId": 1, "Latitude": 22.74301, "Longitude": 120.29751, "IVRNo": 8951, "EXTVoiceNo": 26088, "traveltime": 0, "holidayTraveltime": 0}, {"Id": "0587", "pgp": 0, "GoBack": 1, "SID": 15452, "NameZh": "\u65b0\u5e84(\u65b0\u838a\u8def)", "RouteId": 98, "SeqNo": 8, "Terminal": 0, "DistrictId": 1, "Latitude": 22.745507, "Longitude": 120.30185, "IVRNo": 8121, "EXTVoiceNo": 587, "traveltime": 0, "holidayTraveltime": 0}, {"Id": "6086", "pgp": 0, "GoBack": 1, "SID": 14835, "NameZh": "\u4ed5\u8c50\u8def", "RouteId": 98, "SeqNo": 9, "Terminal": 0, "DistrictId": 1, "Latitude": 22.750826, "Longitude": 120.308035, "IVRNo": 8931, "EXTVoiceNo": 26086, "traveltime": 0, "holidayTraveltime": 0}, {"Id": "2400", "pgp": 0, "GoBack": 1, "SID": 19060, "NameZh": "\u4ed5\u9686\u6d3b\u52d5\u4e2d\u5fc3", "RouteId": 98, "SeqNo": 10, "Terminal": 0, "DistrictId": 1, "Latitude": 22.752863, "Longitude": 120.310775, "IVRNo": 32400, "EXTVoiceNo": 32400, "traveltime": 0, "holidayTraveltime": 0}, {"Id": "2385", "pgp": 0, "GoBack": 1, "SID": 19058, "NameZh": "\u5357\u6e9d\u8def", "RouteId": 98, "SeqNo": 11, "Terminal": 0, "DistrictId": 1, "Latitude": 22.753306, "Longitude": 120.309139, "IVRNo": 32385, "EXTVoiceNo": 32385, "traveltime": 0, "holidayTraveltime": 0}, {"Id": "1089", "pgp": 0, "GoBack": 1, "SID": 13634, "NameZh": "\u6a4b\u982d\u5340\u8fb2\u6703", "RouteId": 98, "SeqNo": 12, "Terminal": 0, "DistrictId": 1, "Latitude": 22.752603, "Longitude": 120.308347, "IVRNo": 9275, "EXTVoiceNo": 21089, "traveltime": 0, "holidayTraveltime": 0}, {"Id": "0364", "pgp": 0, "GoBack": 1, "SID": 14841, "NameZh": "\u6a4b\u982d\u5340\u516c\u6240(\u9686\u8c50\u8def)", "RouteId": 98, "SeqNo": 13, "Terminal": 0, "DistrictId": 1, "Latitude": 22.75758, "Longitude": 120.305142, "IVRNo": 7903, "EXTVoiceNo": 364, "traveltime": 0, "holidayTraveltime": 0}, {"Id": "0994", "pgp": 0, "GoBack": 1, "SID": 8866, "NameZh": "\u6a4b\u982d\u570b\u5c0f", "RouteId": 98, "SeqNo": 14, "Terminal": 0, "DistrictId": 1, "Latitude": 22.762275, "Longitude": 120.305483, "IVRNo": 9277, "EXTVoiceNo": 20994, "traveltime": 0, "holidayTraveltime": 0}, {"Id": "9125", "pgp": 0, "GoBack": 1, "SID": 10852, "NameZh": "\u6377\u904b\u6a4b\u982d\u706b\u8eca\u7ad9", "RouteId": 98, "SeqNo": 15, "Terminal": 0, "DistrictId": 1, "Latitude": 22.760615, "Longitude": 120.309235, "IVRNo": 7900, "EXTVoiceNo": 9125, "traveltime": 0, "holidayTraveltime": 0}, {"Id": "2399", "pgp": 0, "GoBack": 1, "SID": 8870, "NameZh": "\u6a4b\u982d\u5e02\u5834", "RouteId": 98, "SeqNo": 16, "Terminal": 0, "DistrictId": 1, "Latitude": 22.75526, "Longitude": 120.31132, "IVRNo": 807, "EXTVoiceNo": 32399, "traveltime": 0, "holidayTraveltime": 0}, {"Id": "0377", "pgp": 0, "GoBack": 1, "SID": 8869, "NameZh": "\u6210\u529f\u5357\u8def", "RouteId": 98, "SeqNo": 17, "Terminal": 0, "DistrictId": 1, "Latitude": 22.75063, "Longitude": 120.31396, "IVRNo": 8963, "EXTVoiceNo": 20377, "traveltime": 0, "holidayTraveltime": 0}, {"Id": "0710", "pgp": 0, "GoBack": 1, "SID": 8829, "NameZh": "\u6377\u904b\u9752\u57d4\u7ad9", "RouteId": 98, "SeqNo": 18, "Terminal": 0, "DistrictId": 1, "Latitude": 22.74315, "Longitude": 120.31762, "IVRNo": 9041, "EXTVoiceNo": 20710, "traveltime": 0, "holidayTraveltime": 0}, {"Id": "1170", "pgp": 0, "GoBack": 1, "SID": 14832, "NameZh": "\u6e05\u8c50\u8def\u53e3(\u6960\u6893\u8def)", "RouteId": 98, "SeqNo": 19, "Terminal": 0, "DistrictId": 1, "Latitude": 22.738136, "Longitude": 120.324092, "IVRNo": 1170, "EXTVoiceNo": 1170, "traveltime": 0, "holidayTraveltime": 0}, {"Id": "0167", "pgp": 0, "GoBack": 1, "SID": 14340, "NameZh": "\u571f\u5eab\u4e8c\u8def", "RouteId": 98, "SeqNo": 20, "Terminal": 0, "DistrictId": 1, "Latitude": 22.73907, "Longitude": 120.325735, "IVRNo": 167, "EXTVoiceNo": 167, "traveltime": 0, "holidayTraveltime": 0}, {"Id": "0285", "pgp": 0, "GoBack": 1, "SID": 8830, "NameZh": "\u53f0\u7cd6\u82b1\u5349\u4e2d\u5fc3", "RouteId": 98, "SeqNo": 21, "Terminal": 0, "DistrictId": 1, "Latitude": 22.7409, "Longitude": 120.32508, "IVRNo": 8937, "EXTVoiceNo": 20285, "traveltime": 0, "holidayTraveltime": 0}, {"Id": "0444", "pgp": 0, "GoBack": 1, "SID": 13609, "NameZh": "\u828e\u6797\u516d\u8857\u53e3", "RouteId": 98, "SeqNo": 22, "Terminal": 0, "DistrictId": 1, "Latitude": 22.74824, "Longitude": 120.3314, "IVRNo": 7183, "EXTVoiceNo": 20444, "traveltime": 0, "holidayTraveltime": 0}, {"Id": "7122", "pgp": 0, "GoBack": 1, "SID": 8831, "NameZh": "\u9ad8\u96c4\u79d1\u5927(\u7b2c\u4e00\u897f\u6821\u5340)", "RouteId": 98, "SeqNo": 23, "Terminal": 0, "DistrictId": 1, "Latitude": 22.75125, "Longitude": 120.3316, "IVRNo": 7122, "EXTVoiceNo": 7122, "traveltime": 0, "holidayTraveltime": 0}, {"Id": "7123", "pgp": 0, "GoBack": 1, "SID": 8832, "NameZh": "\u9ad8\u96c4\u79d1\u5927(\u7b2c\u4e00\u6771\u6821\u5340)", "RouteId": 98, "SeqNo": 24, "Terminal": 0, "DistrictId": 1, "Latitude": 22.75873, "Longitude": 120.3365, "IVRNo": 7123, "EXTVoiceNo": 7123, "traveltime": 0, "holidayTraveltime": 0}, {"Id": "0687", "pgp": 0, "GoBack": 1, "SID": 4750, "NameZh": "\u9ad8\u9435\u7e3d\u6a5f\u5ee0", "RouteId": 98, "SeqNo": 25, "Terminal": 0, "DistrictId": 1, "Latitude": 22.759727, "Longitude": 120.345895, "IVRNo": 7124, "EXTVoiceNo": 20687, "traveltime": 0, "holidayTraveltime": 0}, {"Id": "7125", "pgp": 0, "GoBack": 1, "SID": 14833, "NameZh": "\u71d5\u5de2\u679c\u83dc\u5e02\u5834", "RouteId": 98, "SeqNo": 26, "Terminal": 0, "DistrictId": 1, "Latitude": 22.760135, "Longitude": 120.359517, "IVRNo": 7125, "EXTVoiceNo": 7125, "traveltime": 0, "holidayTraveltime": 0}, {"Id": "7602", "pgp": 0, "GoBack": 1, "SID": 8835, "NameZh": "\u7fa9\u5927\u91ab\u9662", "RouteId": 98, "SeqNo": 27, "Terminal": 1, "DistrictId": 1, "Latitude": 22.76473, "Longitude": 120.36405, "IVRNo": 7126, "EXTVoiceNo": 7602, "traveltime": 0, "holidayTraveltime": 0}, {"Id": "7602", "pgp": 0, "GoBack": 2, "SID": 8856, "NameZh": "\u7fa9\u5927\u91ab\u9662", "RouteId": 98, "SeqNo": 1, "Terminal": 0, "DistrictId": 1, "Latitude": 22.76488, "Longitude": 120.36396, "IVRNo": 7126, "EXTVoiceNo": 7602, "traveltime": 0, "holidayTraveltime": 0}, {"Id": "7125", "pgp": 0, "GoBack": 2, "SID": 8834, "NameZh": "\u71d5\u5de2\u679c\u83dc\u5e02\u5834", "RouteId": 98, "SeqNo": 2, "Terminal": 0, "DistrictId": 1, "Latitude": 22.760044, "Longitude": 120.359673, "IVRNo": 7125, "EXTVoiceNo": 7125, "traveltime": 0, "holidayTraveltime": 0}, {"Id": "0687", "pgp": 0, "GoBack": 2, "SID": 8833, "NameZh": "\u9ad8\u9435\u7e3d\u6a5f\u5ee0", "RouteId": 98, "SeqNo": 3, "Terminal": 0, "DistrictId": 1, "Latitude": 22.75981, "Longitude": 120.34588, "IVRNo": 7124, "EXTVoiceNo": 20687, "traveltime": 0, "holidayTraveltime": 0}, {"Id": "7123", "pgp": 0, "GoBack": 2, "SID": 8857, "NameZh": "\u9ad8\u96c4\u79d1\u5927(\u7b2c\u4e00\u6771\u6821\u5340)", "RouteId": 98, "SeqNo": 4, "Terminal": 0, "DistrictId": 1, "Latitude": 22.75895, "Longitude": 120.33668, "IVRNo": 7123, "EXTVoiceNo": 7123, "traveltime": 0, "holidayTraveltime": 0}, {"Id": "7122", "pgp": 0, "GoBack": 2, "SID": 8858, "NameZh": "\u9ad8\u96c4\u79d1\u5927(\u7b2c\u4e00\u897f\u6821\u5340)", "RouteId": 98, "SeqNo": 5, "Terminal": 0, "DistrictId": 1, "Latitude": 22.75153, "Longitude": 120.33138, "IVRNo": 7122, "EXTVoiceNo": 7122, "traveltime": 0, "holidayTraveltime": 0}, {"Id": "0444", "pgp": 0, "GoBack": 2, "SID": 13588, "NameZh": "\u828e\u6797\u516d\u8857\u53e3", "RouteId": 98, "SeqNo": 6, "Terminal": 0, "DistrictId": 1, "Latitude": 22.74824, "Longitude": 120.3314, "IVRNo": 7183, "EXTVoiceNo": 20444, "traveltime": 0, "holidayTraveltime": 0}, {"Id": "0285", "pgp": 0, "GoBack": 2, "SID": 8859, "NameZh": "\u53f0\u7cd6\u82b1\u5349\u4e2d\u5fc3", "RouteId": 98, "SeqNo": 7, "Terminal": 0, "DistrictId": 1, "Latitude": 22.7411, "Longitude": 120.32501, "IVRNo": 8937, "EXTVoiceNo": 20285, "traveltime": 0, "holidayTraveltime": 0}, {"Id": "0167", "pgp": 0, "GoBack": 2, "SID": 14110, "NameZh": "\u571f\u5eab\u4e8c\u8def", "RouteId": 98, "SeqNo": 8, "Terminal": 0, "DistrictId": 1, "Latitude": 22.739055, "Longitude": 120.325706, "IVRNo": 167, "EXTVoiceNo": 167, "traveltime": 0, "holidayTraveltime": 0}, {"Id": "1170", "pgp": 0, "GoBack": 2, "SID": 14295, "NameZh": "\u6e05\u8c50\u8def\u53e3(\u6960\u6893\u8def)", "RouteId": 98, "SeqNo": 9, "Terminal": 0, "DistrictId": 1, "Latitude": 22.738107, "Longitude": 120.324164, "IVRNo": 1170, "EXTVoiceNo": 1170, "traveltime": 0, "holidayTraveltime": 0}, {"Id": "0710", "pgp": 0, "GoBack": 2, "SID": 8860, "NameZh": "\u6377\u904b\u9752\u57d4\u7ad9", "RouteId": 98, "SeqNo": 10, "Terminal": 0, "DistrictId": 1, "Latitude": 22.74343, "Longitude": 120.3177, "IVRNo": 9041, "EXTVoiceNo": 20710, "traveltime": 0, "holidayTraveltime": 0}, {"Id": "0377", "pgp": 0, "GoBack": 2, "SID": 13636, "NameZh": "\u6210\u529f\u5357\u8def", "RouteId": 98, "SeqNo": 11, "Terminal": 0, "DistrictId": 1, "Latitude": 22.750252, "Longitude": 120.313978, "IVRNo": 8963, "EXTVoiceNo": 20377, "traveltime": 0, "holidayTraveltime": 0}, {"Id": "2399", "pgp": 0, "GoBack": 2, "SID": 8867, "NameZh": "\u6a4b\u982d\u5e02\u5834", "RouteId": 98, "SeqNo": 12, "Terminal": 0, "DistrictId": 1, "Latitude": 22.75593, "Longitude": 120.3111, "IVRNo": 807, "EXTVoiceNo": 32399, "traveltime": 0, "holidayTraveltime": 0}, {"Id": "9125", "pgp": 0, "GoBack": 2, "SID": 5339, "NameZh": "\u6377\u904b\u6a4b\u982d\u706b\u8eca\u7ad9", "RouteId": 98, "SeqNo": 13, "Terminal": 0, "DistrictId": 1, "Latitude": 22.760615, "Longitude": 120.309235, "IVRNo": 7900, "EXTVoiceNo": 9125, "traveltime": 0, "holidayTraveltime": 0}, {"Id": "0994", "pgp": 0, "GoBack": 2, "SID": 14836, "NameZh": "\u6a4b\u982d\u570b\u5c0f", "RouteId": 98, "SeqNo": 14, "Terminal": 0, "DistrictId": 1, "Latitude": 22.762547, "Longitude": 120.305732, "IVRNo": 9277, "EXTVoiceNo": 20994, "traveltime": 0, "holidayTraveltime": 0}, {"Id": "0364", "pgp": 0, "GoBack": 2, "SID": 14842, "NameZh": "\u6a4b\u982d\u5340\u516c\u6240(\u9686\u8c50\u8def)", "RouteId": 98, "SeqNo": 15, "Terminal": 0, "DistrictId": 1, "Latitude": 22.75758, "Longitude": 120.305142, "IVRNo": 7903, "EXTVoiceNo": 364, "traveltime": 0, "holidayTraveltime": 0}, {"Id": "1089", "pgp": 0, "GoBack": 2, "SID": 14839, "NameZh": "\u6a4b\u982d\u5340\u8fb2\u6703", "RouteId": 98, "SeqNo": 16, "Terminal": 0, "DistrictId": 1, "Latitude": 22.752507, "Longitude": 120.308272, "IVRNo": 9275, "EXTVoiceNo": 21089, "traveltime": 0, "holidayTraveltime": 0}, {"Id": "2385", "pgp": 0, "GoBack": 2, "SID": 19059, "NameZh": "\u5357\u6e9d\u8def", "RouteId": 98, "SeqNo": 17, "Terminal": 0, "DistrictId": 1, "Latitude": 22.753422, "Longitude": 120.3093, "IVRNo": 32385, "EXTVoiceNo": 32385, "traveltime": 0, "holidayTraveltime": 0}, {"Id": "2400", "pgp": 0, "GoBack": 2, "SID": 19061, "NameZh": "\u4ed5\u9686\u6d3b\u52d5\u4e2d\u5fc3", "RouteId": 98, "SeqNo": 18, "Terminal": 0, "DistrictId": 1, "Latitude": 22.753047, "Longitude": 120.310764, "IVRNo": 32400, "EXTVoiceNo": 32400, "traveltime": 0, "holidayTraveltime": 0}, {"Id": "6086", "pgp": 0, "GoBack": 2, "SID": 14837, "NameZh": "\u4ed5\u8c50\u8def", "RouteId": 98, "SeqNo": 19, "Terminal": 0, "DistrictId": 1, "Latitude": 22.750826, "Longitude": 120.308035, "IVRNo": 8931, "EXTVoiceNo": 26086, "traveltime": 0, "holidayTraveltime": 0}, {"Id": "0587", "pgp": 0, "GoBack": 2, "SID": 15455, "NameZh": "\u65b0\u5e84(\u65b0\u838a\u8def)", "RouteId": 98, "SeqNo": 20, "Terminal": 0, "DistrictId": 1, "Latitude": 22.745351, "Longitude": 120.301619, "IVRNo": 8121, "EXTVoiceNo": 587, "traveltime": 0, "holidayTraveltime": 0}, {"Id": "6088", "pgp": 0, "GoBack": 2, "SID": 14838, "NameZh": "\u7532\u5317\u91cc", "RouteId": 98, "SeqNo": 21, "Terminal": 0, "DistrictId": 1, "Latitude": 22.743165, "Longitude": 120.29748, "IVRNo": 8951, "EXTVoiceNo": 26088, "traveltime": 0, "holidayTraveltime": 0}, {"Id": "0007", "pgp": 0, "GoBack": 2, "SID": 9524, "NameZh": "\u4e5d\u7532\u570d", "RouteId": 98, "SeqNo": 22, "Terminal": 0, "DistrictId": 1, "Latitude": 22.74223, "Longitude": 120.29435, "IVRNo": 4816, "EXTVoiceNo": 20007, "traveltime": 0, "holidayTraveltime": 0}, {"Id": "0348", "pgp": 0, "GoBack": 2, "SID": 9523, "NameZh": "\u7532\u660c\u8def", "RouteId": 98, "SeqNo": 23, "Terminal": 0, "DistrictId": 1, "Latitude": 22.73873, "Longitude": 120.29454, "IVRNo": 8953, "EXTVoiceNo": 20348, "traveltime": 0, "holidayTraveltime": 0}, {"Id": "0350", "pgp": 0, "GoBack": 2, "SID": 13629, "NameZh": "\u7532\u570d\u570b\u5c0f", "RouteId": 98, "SeqNo": 24, "Terminal": 0, "DistrictId": 1, "Latitude": 22.73561, "Longitude": 120.2932, "IVRNo": 8955, "EXTVoiceNo": 20350, "traveltime": 0, "holidayTraveltime": 0}, {"Id": "9014", "pgp": 0, "GoBack": 2, "SID": 13630, "NameZh": "\u9ad8\u5927\u7ba1\u7406\u5b78\u9662", "RouteId": 98, "SeqNo": 25, "Terminal": 0, "DistrictId": 1, "Latitude": 22.73231, "Longitude": 120.287974, "IVRNo": 8745, "EXTVoiceNo": 9014, "traveltime": 0, "holidayTraveltime": 0}, {"Id": "1090", "pgp": 0, "GoBack": 2, "SID": 13631, "NameZh": "\u9ad8\u96c4\u5927\u5b78(\u5927\u5b78\u5357\u8def)", "RouteId": 98, "SeqNo": 26, "Terminal": 0, "DistrictId": 1, "Latitude": 22.73205, "Longitude": 120.28501, "IVRNo": 1090, "EXTVoiceNo": 1090, "traveltime": 0, "holidayTraveltime": 0}, {"Id": "0117", "pgp": 0, "GoBack": 2, "SID": 13632, "NameZh": "\u5927\u5b78\u897f\u8def\u53e3(\u7b2c\u4e00\u7d9c\u5408\u5927\u6a13)", "RouteId": 98, "SeqNo": 27, "Terminal": 0, "DistrictId": 1, "Latitude": 22.72983, "Longitude": 120.27838, "IVRNo": 8805, "EXTVoiceNo": 20117, "traveltime": 0, "holidayTraveltime": 0}]}