{"en": [{"Id": "0145", "pgp": 0, "GoBack": 1, "SID": 18259, "NameZh": "Kaohsiung Armed Forces General Hospital (MRT Weiwuying Station)", "RouteId": 509, "SeqNo": 1, "Terminal": 0, "DistrictId": 1, "Latitude": 22.625427, "Longitude": 120.340362, "IVRNo": 51, "EXTVoiceNo": 145, "traveltime": 0, "holidayTraveltime": 0}, {"Id": "0003", "pgp": 0, "GoBack": 1, "SID": 3523, "NameZh": "Jhongjheng Senior High school", "RouteId": 509, "SeqNo": 2, "Terminal": 0, "DistrictId": 1, "Latitude": 22.626183, "Longitude": 120.338283, "IVRNo": 3, "EXTVoiceNo": 3, "traveltime": 0, "holidayTraveltime": 0}, {"Id": "9111", "pgp": 0, "GoBack": 1, "SID": 7313, "NameZh": "Kaohsiung Detention Center", "RouteId": 509, "SeqNo": 3, "Terminal": 0, "DistrictId": 1, "Latitude": 22.76131, "Longitude": 120.36909, "IVRNo": 7614, "EXTVoiceNo": 9111, "traveltime": 0, "holidayTraveltime": 0}, {"Id": "9208", "pgp": 0, "GoBack": 1, "SID": 18231, "NameZh": "Main Entrance to Shu-Te University", "RouteId": 509, "SeqNo": 4, "Terminal": 1, "DistrictId": 1, "Latitude": 22.764895, "Longitude": 120.375167, "IVRNo": 9759, "EXTVoiceNo": 9208, "traveltime": 0, "holidayTraveltime": 0}, {"Id": "9208", "pgp": 0, "GoBack": 2, "SID": 18232, "NameZh": "Main Entrance to Shu-Te University", "RouteId": 509, "SeqNo": 1, "Terminal": 0, "DistrictId": 1, "Latitude": 22.764811, "Longitude": 120.374686, "IVRNo": 9759, "EXTVoiceNo": 9208, "traveltime": 0, "holidayTraveltime": 0}, {"Id": "9111", "pgp": 0, "GoBack": 2, "SID": 7235, "NameZh": "Kaohsiung Detention Center", "RouteId": 509, "SeqNo": 2, "Terminal": 0, "DistrictId": 1, "Latitude": 22.76158, "Longitude": 120.36913, "IVRNo": 7614, "EXTVoiceNo": 9111, "traveltime": 0, "holidayTraveltime": 0}, {"Id": "0003", "pgp": 0, "GoBack": 2, "SID": 3524, "NameZh": "Jhongjheng Senior High school", "RouteId": 509, "SeqNo": 3, "Terminal": 0, "DistrictId": 1, "Latitude": 22.626135, "Longitude": 120.337789, "IVRNo": 3, "EXTVoiceNo": 3, "traveltime": 0, "holidayTraveltime": 0}, {"Id": "0145", "pgp": 0, "GoBack": 2, "SID": 18396, "NameZh": "Kaohsiung Armed Forces General Hospital (MRT Weiwuying Station)", "RouteId": 509, "SeqNo": 4, "Terminal": 1, "DistrictId": 1, "Latitude": 22.625498, "Longitude": 120.339705, "IVRNo": 51, "EXTVoiceNo": 145, "traveltime": 0, "holidayTraveltime": 0}], "zh": [{"Id": "0145", "pgp": 0, "GoBack": 1, "SID": 18259, "NameZh": "\u570b\u8ecd\u9ad8\u96c4\u7e3d\u91ab\u9662(\u6377\u904b\u885b\u6b66\u71df\u7ad9)", "RouteId": 509, "SeqNo": 1, "Terminal": 0, "DistrictId": 1, "Latitude": 22.625427, "Longitude": 120.340362, "IVRNo": 51, "EXTVoiceNo": 145, "traveltime": 0, "holidayTraveltime": 0}, {"Id": "0003", "pgp": 0, "GoBack": 1, "SID": 3523, "NameZh": "\u4e2d\u6b63\u9ad8\u4e2d", "RouteId": 509, "SeqNo": 2, "Terminal": 0, "DistrictId": 1, "Latitude": 22.626183, "Longitude": 120.338283, "IVRNo": 3, "EXTVoiceNo": 3, "traveltime": 0, "holidayTraveltime": 0}, {"Id": "9111", "pgp": 0, "GoBack": 1, "SID": 7313, "NameZh": "\u9ad8\u96c4\u770b\u5b88\u6240", "RouteId": 509, "SeqNo": 3, "Terminal": 0, "DistrictId": 1, "Latitude": 22.76131, "Longitude": 120.36909, "IVRNo": 7614, "EXTVoiceNo": 9111, "traveltime": 0, "holidayTraveltime": 0}, {"Id": "9208", "pgp": 0, "GoBack": 1, "SID": 18231, "NameZh": "\u6a39\u79d1\u5927\u9580\u53e3", "RouteId": 509, "SeqNo": 4, "Terminal": 1, "DistrictId": 1, "Latitude": 22.764895, "Longitude": 120.375167, "IVRNo": 9759, "EXTVoiceNo": 9208, "traveltime": 0, "holidayTraveltime": 0}, {"Id": "9208", "pgp": 0, "GoBack": 2, "SID": 18232, "NameZh": "\u6a39\u79d1\u5927\u9580\u53e3", "RouteId": 509, "SeqNo": 1, "Terminal": 0, "DistrictId": 1, "Latitude": 22.764811, "Longitude": 120.374686, "IVRNo": 9759, "EXTVoiceNo": 9208, "traveltime": 0, "holidayTraveltime": 0}, {"Id": "9111", "pgp": 0, "GoBack": 2, "SID": 7235, "NameZh": "\u9ad8\u96c4\u770b\u5b88\u6240", "RouteId": 509, "SeqNo": 2, "Terminal": 0, "DistrictId": 1, "Latitude": 22.76158, "Longitude": 120.36913, "IVRNo": 7614, "EXTVoiceNo": 9111, "traveltime": 0, "holidayTraveltime": 0}, {"Id": "0003", "pgp": 0, "GoBack": 2, "SID": 3524, "NameZh": "\u4e2d\u6b63\u9ad8\u4e2d", "RouteId": 509, "SeqNo": 3, "Terminal": 0, "DistrictId": 1, "Latitude": 22.626135, "Longitude": 120.337789, "IVRNo": 3, "EXTVoiceNo": 3, "traveltime": 0, "holidayTraveltime": 0}, {"Id": "0145", "pgp": 0, "GoBack": 2, "SID": 18396, "NameZh": "\u570b\u8ecd\u9ad8\u96c4\u7e3d\u91ab\u9662(\u6377\u904b\u885b\u6b66\u71df\u7ad9)", "RouteId": 509, "SeqNo": 4, "Terminal": 1, "DistrictId": 1, "Latitude": 22.625498, "Longitude": 120.339705, "IVRNo": 51, "EXTVoiceNo": 145, "traveltime": 0, "holidayTraveltime": 0}]}