{"en": [{"Id": "0412", "pgp": 0, "GoBack": 1, "SID": 4469, "NameZh": "Kaohsiung Train Station (MRT Kaohsiung Main Station)", "RouteId": 827, "SeqNo": 1, "Terminal": 0, "DistrictId": 1, "Latitude": 22.637927, "Longitude": 120.301641, "IVRNo": 412, "EXTVoiceNo": 412, "traveltime": 0, "holidayTraveltime": 0}, {"Id": "0248", "pgp": 0, "GoBack": 1, "SID": 2895, "NameZh": "Kaohsiung Train Station (Tungai St. Intersection)", "RouteId": 827, "SeqNo": 2, "Terminal": 0, "DistrictId": 1, "Latitude": 22.637913, "Longitude": 120.30101, "IVRNo": 241, "EXTVoiceNo": 20248, "traveltime": 0, "holidayTraveltime": 0}, {"Id": "0240", "pgp": 0, "GoBack": 1, "SID": 2901, "NameZh": "Kaohsiung Senior High School", "RouteId": 827, "SeqNo": 3, "Terminal": 0, "DistrictId": 1, "Latitude": 22.63798, "Longitude": 120.297336, "IVRNo": 240, "EXTVoiceNo": 240, "traveltime": 0, "holidayTraveltime": 0}, {"Id": "0414", "pgp": 0, "GoBack": 1, "SID": 2908, "NameZh": "Sanfongjhong St.", "RouteId": 827, "SeqNo": 4, "Terminal": 0, "DistrictId": 1, "Latitude": 22.637288, "Longitude": 120.293997, "IVRNo": 414, "EXTVoiceNo": 414, "traveltime": 0, "holidayTraveltime": 0}, {"Id": "0415", "pgp": 0, "GoBack": 1, "SID": 2912, "NameZh": "Sanmin Elementary School", "RouteId": 827, "SeqNo": 5, "Terminal": 0, "DistrictId": 1, "Latitude": 22.636224, "Longitude": 120.290819, "IVRNo": 415, "EXTVoiceNo": 415, "traveltime": 0, "holidayTraveltime": 0}, {"Id": "0416", "pgp": 0, "GoBack": 1, "SID": 2915, "NameZh": "Jianguo 3rd Rd.", "RouteId": 827, "SeqNo": 6, "Terminal": 0, "DistrictId": 1, "Latitude": 22.635498, "Longitude": 120.288636, "IVRNo": 416, "EXTVoiceNo": 416, "traveltime": 0, "holidayTraveltime": 0}, {"Id": "0417", "pgp": 0, "GoBack": 1, "SID": 2919, "NameZh": "Herbin Elementary School", "RouteId": 827, "SeqNo": 7, "Terminal": 0, "DistrictId": 1, "Latitude": 22.634853, "Longitude": 120.2865, "IVRNo": 417, "EXTVoiceNo": 417, "traveltime": 0, "holidayTraveltime": 0}, {"Id": "4505", "pgp": 0, "GoBack": 1, "SID": 3095, "NameZh": "Tongmeng 3rd Rd.", "RouteId": 827, "SeqNo": 8, "Terminal": 0, "DistrictId": 1, "Latitude": 22.63835, "Longitude": 120.28529, "IVRNo": 4505, "EXTVoiceNo": 4505, "traveltime": 0, "holidayTraveltime": 0}, {"Id": "7146", "pgp": 0, "GoBack": 1, "SID": 3099, "NameZh": "Jhongdu Tangrong Brick Kiln (Chuandong Village)", "RouteId": 827, "SeqNo": 9, "Terminal": 0, "DistrictId": 1, "Latitude": 22.640281, "Longitude": 120.284422, "IVRNo": 8597, "EXTVoiceNo": 17146, "traveltime": 0, "holidayTraveltime": 0}, {"Id": "1267", "pgp": 0, "GoBack": 1, "SID": 18160, "NameZh": "Zhongdu Wetlands Park (Tongmeng 3rd Rd.)", "RouteId": 827, "SeqNo": 10, "Terminal": 0, "DistrictId": 1, "Latitude": 22.648604, "Longitude": 120.285751, "IVRNo": 1267, "EXTVoiceNo": 1267, "traveltime": 0, "holidayTraveltime": 0}, {"Id": "1353", "pgp": 0, "GoBack": 1, "SID": 18258, "NameZh": "Zhongdu Wetlands Park (Deli st. Intersection)", "RouteId": 827, "SeqNo": 11, "Terminal": 0, "DistrictId": 1, "Latitude": 22.645927, "Longitude": 120.287999, "IVRNo": 1353, "EXTVoiceNo": 1353, "traveltime": 0, "holidayTraveltime": 0}, {"Id": "7142", "pgp": 0, "GoBack": 1, "SID": 14542, "NameZh": "Jhongdu St. Intersection", "RouteId": 827, "SeqNo": 12, "Terminal": 1, "DistrictId": 1, "Latitude": 22.641362, "Longitude": 120.287348, "IVRNo": 4507, "EXTVoiceNo": 17142, "traveltime": 0, "holidayTraveltime": 0}, {"Id": "7142", "pgp": 0, "GoBack": 2, "SID": 3103, "NameZh": "Jhongdu St. Intersection", "RouteId": 827, "SeqNo": 1, "Terminal": 0, "DistrictId": 1, "Latitude": 22.641365, "Longitude": 120.287397, "IVRNo": 4507, "EXTVoiceNo": 17142, "traveltime": 0, "holidayTraveltime": 0}, {"Id": "2428", "pgp": 0, "GoBack": 2, "SID": 3126, "NameZh": "Taian St. Intersection", "RouteId": 827, "SeqNo": 2, "Terminal": 0, "DistrictId": 1, "Latitude": 22.640886, "Longitude": 120.28865, "IVRNo": 9977, "EXTVoiceNo": 32428, "traveltime": 0, "holidayTraveltime": 0}, {"Id": "7144", "pgp": 0, "GoBack": 2, "SID": 3109, "NameZh": "Triangle Park", "RouteId": 827, "SeqNo": 3, "Terminal": 0, "DistrictId": 1, "Latitude": 22.640172, "Longitude": 120.289843, "IVRNo": 4509, "EXTVoiceNo": 17144, "traveltime": 0, "holidayTraveltime": 0}, {"Id": "7147", "pgp": 0, "GoBack": 2, "SID": 3114, "NameZh": "Jhongren St. Intersection", "RouteId": 827, "SeqNo": 4, "Terminal": 0, "DistrictId": 1, "Latitude": 22.639234, "Longitude": 120.290176, "IVRNo": 4510, "EXTVoiceNo": 17147, "traveltime": 0, "holidayTraveltime": 0}, {"Id": "7148", "pgp": 0, "GoBack": 2, "SID": 3115, "NameZh": "Guotai Community", "RouteId": 827, "SeqNo": 5, "Terminal": 0, "DistrictId": 1, "Latitude": 22.638746, "Longitude": 120.288743, "IVRNo": 4511, "EXTVoiceNo": 17148, "traveltime": 0, "holidayTraveltime": 0}, {"Id": "7149", "pgp": 0, "GoBack": 2, "SID": 3120, "NameZh": "Shihjhong 1st Rd. Intersection", "RouteId": 827, "SeqNo": 6, "Terminal": 0, "DistrictId": 1, "Latitude": 22.63776, "Longitude": 120.28593, "IVRNo": 4512, "EXTVoiceNo": 17149, "traveltime": 0, "holidayTraveltime": 0}, {"Id": "0417", "pgp": 0, "GoBack": 2, "SID": 2983, "NameZh": "Herbin Elementary School", "RouteId": 827, "SeqNo": 7, "Terminal": 0, "DistrictId": 1, "Latitude": 22.634697, "Longitude": 120.286372, "IVRNo": 417, "EXTVoiceNo": 417, "traveltime": 0, "holidayTraveltime": 0}, {"Id": "0416", "pgp": 0, "GoBack": 2, "SID": 2990, "NameZh": "Jianguo 3rd Rd.", "RouteId": 827, "SeqNo": 8, "Terminal": 0, "DistrictId": 1, "Latitude": 22.635327, "Longitude": 120.288252, "IVRNo": 416, "EXTVoiceNo": 416, "traveltime": 0, "holidayTraveltime": 0}, {"Id": "0415", "pgp": 0, "GoBack": 2, "SID": 2995, "NameZh": "Sanmin Elementary School", "RouteId": 827, "SeqNo": 9, "Terminal": 0, "DistrictId": 1, "Latitude": 22.636105, "Longitude": 120.290591, "IVRNo": 415, "EXTVoiceNo": 415, "traveltime": 0, "holidayTraveltime": 0}, {"Id": "0414", "pgp": 0, "GoBack": 2, "SID": 3009, "NameZh": "Sanfongjhong St.", "RouteId": 827, "SeqNo": 10, "Terminal": 0, "DistrictId": 1, "Latitude": 22.637398, "Longitude": 120.2951, "IVRNo": 414, "EXTVoiceNo": 414, "traveltime": 0, "holidayTraveltime": 0}, {"Id": "0240", "pgp": 0, "GoBack": 2, "SID": 8808, "NameZh": "Kaohsiung Senior High School", "RouteId": 827, "SeqNo": 11, "Terminal": 0, "DistrictId": 1, "Latitude": 22.63791, "Longitude": 120.29756, "IVRNo": 240, "EXTVoiceNo": 240, "traveltime": 0, "holidayTraveltime": 0}, {"Id": "0412", "pgp": 0, "GoBack": 2, "SID": 4460, "NameZh": "Kaohsiung Train Station (MRT Kaohsiung Main Station)", "RouteId": 827, "SeqNo": 12, "Terminal": 1, "DistrictId": 1, "Latitude": 22.637781, "Longitude": 120.301709, "IVRNo": 412, "EXTVoiceNo": 412, "traveltime": 0, "holidayTraveltime": 0}], "zh": [{"Id": "0412", "pgp": 0, "GoBack": 1, "SID": 4469, "NameZh": "\u9ad8\u96c4\u706b\u8eca\u7ad9(\u6377\u904b\u9ad8\u96c4\u8eca\u7ad9)", "RouteId": 827, "SeqNo": 1, "Terminal": 0, "DistrictId": 1, "Latitude": 22.637927, "Longitude": 120.301641, "IVRNo": 412, "EXTVoiceNo": 412, "traveltime": 0, "holidayTraveltime": 0}, {"Id": "0248", "pgp": 0, "GoBack": 1, "SID": 2895, "NameZh": "\u9ad8\u96c4\u706b\u8eca\u7ad9(\u540c\u611b\u8857\u53e3)", "RouteId": 827, "SeqNo": 2, "Terminal": 0, "DistrictId": 1, "Latitude": 22.637913, "Longitude": 120.30101, "IVRNo": 241, "EXTVoiceNo": 20248, "traveltime": 0, "holidayTraveltime": 0}, {"Id": "0240", "pgp": 0, "GoBack": 1, "SID": 2901, "NameZh": "\u9ad8\u96c4\u4e2d\u5b78", "RouteId": 827, "SeqNo": 3, "Terminal": 0, "DistrictId": 1, "Latitude": 22.63798, "Longitude": 120.297336, "IVRNo": 240, "EXTVoiceNo": 240, "traveltime": 0, "holidayTraveltime": 0}, {"Id": "0414", "pgp": 0, "GoBack": 1, "SID": 2908, "NameZh": "\u4e09\u9cf3\u4e2d\u8857", "RouteId": 827, "SeqNo": 4, "Terminal": 0, "DistrictId": 1, "Latitude": 22.637288, "Longitude": 120.293997, "IVRNo": 414, "EXTVoiceNo": 414, "traveltime": 0, "holidayTraveltime": 0}, {"Id": "0415", "pgp": 0, "GoBack": 1, "SID": 2912, "NameZh": "\u4e09\u6c11\u570b\u5c0f", "RouteId": 827, "SeqNo": 5, "Terminal": 0, "DistrictId": 1, "Latitude": 22.636224, "Longitude": 120.290819, "IVRNo": 415, "EXTVoiceNo": 415, "traveltime": 0, "holidayTraveltime": 0}, {"Id": "0416", "pgp": 0, "GoBack": 1, "SID": 2915, "NameZh": "\u5efa\u570b\u4e09\u8def", "RouteId": 827, "SeqNo": 6, "Terminal": 0, "DistrictId": 1, "Latitude": 22.635498, "Longitude": 120.288636, "IVRNo": 416, "EXTVoiceNo": 416, "traveltime": 0, "holidayTraveltime": 0}, {"Id": "0417", "pgp": 0, "GoBack": 1, "SID": 2919, "NameZh": "\u6cb3\u6ff1\u570b\u5c0f", "RouteId": 827, "SeqNo": 7, "Terminal": 0, "DistrictId": 1, "Latitude": 22.634853, "Longitude": 120.2865, "IVRNo": 417, "EXTVoiceNo": 417, "traveltime": 0, "holidayTraveltime": 0}, {"Id": "4505", "pgp": 0, "GoBack": 1, "SID": 3095, "NameZh": "\u540c\u76df\u4e09\u8def", "RouteId": 827, "SeqNo": 8, "Terminal": 0, "DistrictId": 1, "Latitude": 22.63835, "Longitude": 120.28529, "IVRNo": 4505, "EXTVoiceNo": 4505, "traveltime": 0, "holidayTraveltime": 0}, {"Id": "7146", "pgp": 0, "GoBack": 1, "SID": 3099, "NameZh": "\u4e2d\u90fd\u78da\u7aaf\u5ee0(\u5ddd\u6771\u91cc)", "RouteId": 827, "SeqNo": 9, "Terminal": 0, "DistrictId": 1, "Latitude": 22.640281, "Longitude": 120.284422, "IVRNo": 8597, "EXTVoiceNo": 17146, "traveltime": 0, "holidayTraveltime": 0}, {"Id": "1267", "pgp": 0, "GoBack": 1, "SID": 18160, "NameZh": "\u4e2d\u90fd\u6fd5\u5730\u516c\u5712(\u540c\u76df\u4e09\u8def)", "RouteId": 827, "SeqNo": 10, "Terminal": 0, "DistrictId": 1, "Latitude": 22.648604, "Longitude": 120.285751, "IVRNo": 1267, "EXTVoiceNo": 1267, "traveltime": 0, "holidayTraveltime": 0}, {"Id": "1353", "pgp": 0, "GoBack": 1, "SID": 18258, "NameZh": "\u4e2d\u90fd\u6fd5\u5730\u516c\u5712(\u5fb7\u5229\u8857\u53e3)", "RouteId": 827, "SeqNo": 11, "Terminal": 0, "DistrictId": 1, "Latitude": 22.645927, "Longitude": 120.287999, "IVRNo": 1353, "EXTVoiceNo": 1353, "traveltime": 0, "holidayTraveltime": 0}, {"Id": "7142", "pgp": 0, "GoBack": 1, "SID": 14542, "NameZh": "\u4e2d\u90fd\u8857\u53e3", "RouteId": 827, "SeqNo": 12, "Terminal": 1, "DistrictId": 1, "Latitude": 22.641362, "Longitude": 120.287348, "IVRNo": 4507, "EXTVoiceNo": 17142, "traveltime": 0, "holidayTraveltime": 0}, {"Id": "7142", "pgp": 0, "GoBack": 2, "SID": 3103, "NameZh": "\u4e2d\u90fd\u8857\u53e3", "RouteId": 827, "SeqNo": 1, "Terminal": 0, "DistrictId": 1, "Latitude": 22.641365, "Longitude": 120.287397, "IVRNo": 4507, "EXTVoiceNo": 17142, "traveltime": 0, "holidayTraveltime": 0}, {"Id": "2428", "pgp": 0, "GoBack": 2, "SID": 3126, "NameZh": "\u53f0\u5b89\u8857\u53e3", "RouteId": 827, "SeqNo": 2, "Terminal": 0, "DistrictId": 1, "Latitude": 22.640886, "Longitude": 120.28865, "IVRNo": 9977, "EXTVoiceNo": 32428, "traveltime": 0, "holidayTraveltime": 0}, {"Id": "7144", "pgp": 0, "GoBack": 2, "SID": 3109, "NameZh": "\u4e09\u89d2\u516c\u5712", "RouteId": 827, "SeqNo": 3, "Terminal": 0, "DistrictId": 1, "Latitude": 22.640172, "Longitude": 120.289843, "IVRNo": 4509, "EXTVoiceNo": 17144, "traveltime": 0, "holidayTraveltime": 0}, {"Id": "7147", "pgp": 0, "GoBack": 2, "SID": 3114, "NameZh": "\u4e2d\u4ec1\u8857\u53e3", "RouteId": 827, "SeqNo": 4, "Terminal": 0, "DistrictId": 1, "Latitude": 22.639234, "Longitude": 120.290176, "IVRNo": 4510, "EXTVoiceNo": 17147, "traveltime": 0, "holidayTraveltime": 0}, {"Id": "7148", "pgp": 0, "GoBack": 2, "SID": 3115, "NameZh": "\u570b\u6cf0\u793e\u5340", "RouteId": 827, "SeqNo": 5, "Terminal": 0, "DistrictId": 1, "Latitude": 22.638746, "Longitude": 120.288743, "IVRNo": 4511, "EXTVoiceNo": 17148, "traveltime": 0, "holidayTraveltime": 0}, {"Id": "7149", "pgp": 0, "GoBack": 2, "SID": 3120, "NameZh": "\u5e02\u4e2d\u4e00\u8def\u53e3", "RouteId": 827, "SeqNo": 6, "Terminal": 0, "DistrictId": 1, "Latitude": 22.63776, "Longitude": 120.28593, "IVRNo": 4512, "EXTVoiceNo": 17149, "traveltime": 0, "holidayTraveltime": 0}, {"Id": "0417", "pgp": 0, "GoBack": 2, "SID": 2983, "NameZh": "\u6cb3\u6ff1\u570b\u5c0f", "RouteId": 827, "SeqNo": 7, "Terminal": 0, "DistrictId": 1, "Latitude": 22.634697, "Longitude": 120.286372, "IVRNo": 417, "EXTVoiceNo": 417, "traveltime": 0, "holidayTraveltime": 0}, {"Id": "0416", "pgp": 0, "GoBack": 2, "SID": 2990, "NameZh": "\u5efa\u570b\u4e09\u8def", "RouteId": 827, "SeqNo": 8, "Terminal": 0, "DistrictId": 1, "Latitude": 22.635327, "Longitude": 120.288252, "IVRNo": 416, "EXTVoiceNo": 416, "traveltime": 0, "holidayTraveltime": 0}, {"Id": "0415", "pgp": 0, "GoBack": 2, "SID": 2995, "NameZh": "\u4e09\u6c11\u570b\u5c0f", "RouteId": 827, "SeqNo": 9, "Terminal": 0, "DistrictId": 1, "Latitude": 22.636105, "Longitude": 120.290591, "IVRNo": 415, "EXTVoiceNo": 415, "traveltime": 0, "holidayTraveltime": 0}, {"Id": "0414", "pgp": 0, "GoBack": 2, "SID": 3009, "NameZh": "\u4e09\u9cf3\u4e2d\u8857", "RouteId": 827, "SeqNo": 10, "Terminal": 0, "DistrictId": 1, "Latitude": 22.637398, "Longitude": 120.2951, "IVRNo": 414, "EXTVoiceNo": 414, "traveltime": 0, "holidayTraveltime": 0}, {"Id": "0240", "pgp": 0, "GoBack": 2, "SID": 8808, "NameZh": "\u9ad8\u96c4\u4e2d\u5b78", "RouteId": 827, "SeqNo": 11, "Terminal": 0, "DistrictId": 1, "Latitude": 22.63791, "Longitude": 120.29756, "IVRNo": 240, "EXTVoiceNo": 240, "traveltime": 0, "holidayTraveltime": 0}, {"Id": "0412", "pgp": 0, "GoBack": 2, "SID": 4460, "NameZh": "\u9ad8\u96c4\u706b\u8eca\u7ad9(\u6377\u904b\u9ad8\u96c4\u8eca\u7ad9)", "RouteId": 827, "SeqNo": 12, "Terminal": 1, "DistrictId": 1, "Latitude": 22.637781, "Longitude": 120.301709, "IVRNo": 412, "EXTVoiceNo": 412, "traveltime": 0, "holidayTraveltime": 0}]}