{"en": [{"Id": "0828", "pgp": 0, "GoBack": 1, "SID": 13326, "NameZh": "MRT Gangshan South Station", "RouteId": 871, "SeqNo": 1, "Terminal": 0, "DistrictId": 1, "Latitude": 22.780612, "Longitude": 120.300541, "IVRNo": 828, "EXTVoiceNo": 828, "traveltime": 0, "holidayTraveltime": 0}, {"Id": "1110", "pgp": 0, "GoBack": 1, "SID": 10979, "NameZh": "Gangshan Cultural Center", "RouteId": 871, "SeqNo": 2, "Terminal": 0, "DistrictId": 1, "Latitude": 22.78363, "Longitude": 120.29751, "IVRNo": 9564, "EXTVoiceNo": 21110, "traveltime": 0, "holidayTraveltime": 0}, {"Id": "0489", "pgp": 0, "GoBack": 1, "SID": 17971, "NameZh": "Heti Rd. Intersection (Gangshan Rd.)", "RouteId": 871, "SeqNo": 3, "Terminal": 0, "DistrictId": 1, "Latitude": 22.786144, "Longitude": 120.296937, "IVRNo": 2041, "EXTVoiceNo": 20489, "traveltime": 0, "holidayTraveltime": 0}, {"Id": "9129", "pgp": 0, "GoBack": 1, "SID": 10990, "NameZh": "Wunhua St. Intersection", "RouteId": 871, "SeqNo": 4, "Terminal": 0, "DistrictId": 1, "Latitude": 22.78825, "Longitude": 120.29661, "IVRNo": 9565, "EXTVoiceNo": 9129, "traveltime": 0, "holidayTraveltime": 0}, {"Id": "0832", "pgp": 0, "GoBack": 1, "SID": 17369, "NameZh": "Gangshan Transfer Station (Gangshan Train Station)", "RouteId": 871, "SeqNo": 5, "Terminal": 0, "DistrictId": 1, "Latitude": 22.792356, "Longitude": 120.299569, "IVRNo": 832, "EXTVoiceNo": 832, "traveltime": 0, "holidayTraveltime": 0}, {"Id": "9130", "pgp": 0, "GoBack": 1, "SID": 10936, "NameZh": "Gangshan Post Office (Minyou Rd.)", "RouteId": 871, "SeqNo": 6, "Terminal": 0, "DistrictId": 1, "Latitude": 22.792034, "Longitude": 120.29664, "IVRNo": 9566, "EXTVoiceNo": 9130, "traveltime": 0, "holidayTraveltime": 0}, {"Id": "0230", "pgp": 0, "GoBack": 1, "SID": 11553, "NameZh": "Wunsian Market", "RouteId": 871, "SeqNo": 7, "Terminal": 0, "DistrictId": 1, "Latitude": 22.794142, "Longitude": 120.295901, "IVRNo": 8308, "EXTVoiceNo": 20230, "traveltime": 0, "holidayTraveltime": 0}, {"Id": "9133", "pgp": 0, "GoBack": 1, "SID": 10853, "NameZh": "Gangshan Farmers` Association", "RouteId": 871, "SeqNo": 8, "Terminal": 0, "DistrictId": 1, "Latitude": 22.79561, "Longitude": 120.29558, "IVRNo": 9569, "EXTVoiceNo": 9133, "traveltime": 0, "holidayTraveltime": 0}, {"Id": "9134", "pgp": 0, "GoBack": 1, "SID": 10781, "NameZh": "Gangshan District Office", "RouteId": 871, "SeqNo": 9, "Terminal": 0, "DistrictId": 1, "Latitude": 22.798609, "Longitude": 120.295126, "IVRNo": 9570, "EXTVoiceNo": 9134, "traveltime": 0, "holidayTraveltime": 0}, {"Id": "9166", "pgp": 0, "GoBack": 1, "SID": 10855, "NameZh": "Gangshan Agricultural & Industrial Vocational Senior High School", "RouteId": 871, "SeqNo": 10, "Terminal": 0, "DistrictId": 1, "Latitude": 22.8022, "Longitude": 120.2917, "IVRNo": 874, "EXTVoiceNo": 9166, "traveltime": 0, "holidayTraveltime": 0}, {"Id": "9167", "pgp": 0, "GoBack": 1, "SID": 10856, "NameZh": "Tzu Chi University Continuing Education Center", "RouteId": 871, "SeqNo": 11, "Terminal": 0, "DistrictId": 1, "Latitude": 22.80751, "Longitude": 120.28523, "IVRNo": 9644, "EXTVoiceNo": 9167, "traveltime": 0, "holidayTraveltime": 0}, {"Id": "3447", "pgp": 0, "GoBack": 1, "SID": 10857, "NameZh": "Wanzihnei (Gangshan)", "RouteId": 871, "SeqNo": 12, "Terminal": 0, "DistrictId": 1, "Latitude": 22.809707, "Longitude": 120.282383, "IVRNo": 616, "EXTVoiceNo": 13447, "traveltime": 0, "holidayTraveltime": 0}, {"Id": "9169", "pgp": 0, "GoBack": 1, "SID": 10858, "NameZh": "Yude St. Intersection", "RouteId": 871, "SeqNo": 13, "Terminal": 0, "DistrictId": 1, "Latitude": 22.81185, "Longitude": 120.28005, "IVRNo": 9646, "EXTVoiceNo": 9169, "traveltime": 0, "holidayTraveltime": 0}, {"Id": "9170", "pgp": 0, "GoBack": 1, "SID": 10859, "NameZh": "Taiwan Cement Corporation", "RouteId": 871, "SeqNo": 14, "Terminal": 0, "DistrictId": 1, "Latitude": 22.81696, "Longitude": 120.2737, "IVRNo": 9647, "EXTVoiceNo": 9170, "traveltime": 0, "holidayTraveltime": 0}, {"Id": "9171", "pgp": 0, "GoBack": 1, "SID": 10860, "NameZh": "Beilingcian", "RouteId": 871, "SeqNo": 15, "Terminal": 0, "DistrictId": 1, "Latitude": 22.8212, "Longitude": 120.26946, "IVRNo": 9648, "EXTVoiceNo": 9171, "traveltime": 0, "holidayTraveltime": 0}, {"Id": "9172", "pgp": 0, "GoBack": 1, "SID": 10861, "NameZh": "Wei Chuan Foods Corp.", "RouteId": 871, "SeqNo": 16, "Terminal": 0, "DistrictId": 1, "Latitude": 22.82731, "Longitude": 120.2666, "IVRNo": 9649, "EXTVoiceNo": 9172, "traveltime": 0, "holidayTraveltime": 0}, {"Id": "9173", "pgp": 0, "GoBack": 1, "SID": 10862, "NameZh": "Kao Yuan University", "RouteId": 871, "SeqNo": 17, "Terminal": 0, "DistrictId": 1, "Latitude": 22.8415, "Longitude": 120.26383, "IVRNo": 9650, "EXTVoiceNo": 9173, "traveltime": 0, "holidayTraveltime": 0}, {"Id": "9174", "pgp": 0, "GoBack": 1, "SID": 10864, "NameZh": "East Alliance Enterprise Corporation", "RouteId": 871, "SeqNo": 18, "Terminal": 0, "DistrictId": 1, "Latitude": 22.84871, "Longitude": 120.26246, "IVRNo": 9651, "EXTVoiceNo": 9174, "traveltime": 0, "holidayTraveltime": 0}, {"Id": "9175", "pgp": 0, "GoBack": 1, "SID": 10865, "NameZh": "Lujhu District Office (Jhongshan Rd.)", "RouteId": 871, "SeqNo": 19, "Terminal": 0, "DistrictId": 1, "Latitude": 22.855199, "Longitude": 120.261003, "IVRNo": 829, "EXTVoiceNo": 9175, "traveltime": 0, "holidayTraveltime": 0}, {"Id": "9176", "pgp": 0, "GoBack": 1, "SID": 10866, "NameZh": "Lujhu", "RouteId": 871, "SeqNo": 20, "Terminal": 0, "DistrictId": 1, "Latitude": 22.85905, "Longitude": 120.26016, "IVRNo": 9653, "EXTVoiceNo": 9176, "traveltime": 0, "holidayTraveltime": 0}, {"Id": "9177", "pgp": 0, "GoBack": 1, "SID": 10867, "NameZh": "Beilujhu", "RouteId": 871, "SeqNo": 21, "Terminal": 0, "DistrictId": 1, "Latitude": 22.86308, "Longitude": 120.25796, "IVRNo": 9654, "EXTVoiceNo": 9177, "traveltime": 0, "holidayTraveltime": 0}, {"Id": "9178", "pgp": 0, "GoBack": 1, "SID": 10868, "NameZh": "Gaosin Hospital", "RouteId": 871, "SeqNo": 22, "Terminal": 0, "DistrictId": 1, "Latitude": 22.86563, "Longitude": 120.25676, "IVRNo": 9655, "EXTVoiceNo": 9178, "traveltime": 0, "holidayTraveltime": 0}, {"Id": "9179", "pgp": 0, "GoBack": 1, "SID": 10869, "NameZh": "Shu-Zen Junior College of Medicine and Management", "RouteId": 871, "SeqNo": 23, "Terminal": 0, "DistrictId": 1, "Latitude": 22.8735, "Longitude": 120.25421, "IVRNo": 9656, "EXTVoiceNo": 9179, "traveltime": 0, "holidayTraveltime": 0}, {"Id": "9180", "pgp": 0, "GoBack": 1, "SID": 10870, "NameZh": "Dahu Train Station", "RouteId": 871, "SeqNo": 24, "Terminal": 0, "DistrictId": 1, "Latitude": 22.87773, "Longitude": 120.25243, "IVRNo": 9657, "EXTVoiceNo": 9180, "traveltime": 0, "holidayTraveltime": 0}, {"Id": "9250", "pgp": 0, "GoBack": 1, "SID": 10871, "NameZh": "Dongfang Rd. Intersection (Tungfang Institute of Technology)", "RouteId": 871, "SeqNo": 25, "Terminal": 0, "DistrictId": 1, "Latitude": 22.88168, "Longitude": 120.24926, "IVRNo": 9658, "EXTVoiceNo": 9250, "traveltime": 0, "holidayTraveltime": 0}, {"Id": "9182", "pgp": 0, "GoBack": 1, "SID": 10872, "NameZh": "Dahu", "RouteId": 871, "SeqNo": 26, "Terminal": 0, "DistrictId": 1, "Latitude": 22.88855, "Longitude": 120.2428, "IVRNo": 9659, "EXTVoiceNo": 9182, "traveltime": 0, "holidayTraveltime": 0}, {"Id": "9183", "pgp": 0, "GoBack": 1, "SID": 10873, "NameZh": "Tianwei Village", "RouteId": 871, "SeqNo": 27, "Terminal": 0, "DistrictId": 1, "Latitude": 22.89463, "Longitude": 120.24063, "IVRNo": 9660, "EXTVoiceNo": 9183, "traveltime": 0, "holidayTraveltime": 0}, {"Id": "9184", "pgp": 0, "GoBack": 1, "SID": 10875, "NameZh": "Taiwan Farmers Feed Mill", "RouteId": 871, "SeqNo": 28, "Terminal": 0, "DistrictId": 1, "Latitude": 22.89821, "Longitude": 120.23615, "IVRNo": 9661, "EXTVoiceNo": 9184, "traveltime": 0, "holidayTraveltime": 0}, {"Id": "9185", "pgp": 0, "GoBack": 1, "SID": 10876, "NameZh": "Nioutiliao", "RouteId": 871, "SeqNo": 29, "Terminal": 0, "DistrictId": 1, "Latitude": 22.90248, "Longitude": 120.23175, "IVRNo": 9662, "EXTVoiceNo": 9185, "traveltime": 0, "holidayTraveltime": 0}, {"Id": "9186", "pgp": 0, "GoBack": 1, "SID": 10877, "NameZh": "Taiye (Hunei Junior High School)", "RouteId": 871, "SeqNo": 30, "Terminal": 0, "DistrictId": 1, "Latitude": 22.908153, "Longitude": 120.227938, "IVRNo": 9663, "EXTVoiceNo": 9186, "traveltime": 0, "holidayTraveltime": 0}, {"Id": "9187", "pgp": 0, "GoBack": 1, "SID": 10878, "NameZh": "Taiye (Jhongjheng Rd. Section 1)", "RouteId": 871, "SeqNo": 31, "Terminal": 0, "DistrictId": 1, "Latitude": 22.909491, "Longitude": 120.226251, "IVRNo": 9664, "EXTVoiceNo": 9187, "traveltime": 0, "holidayTraveltime": 0}, {"Id": "9188", "pgp": 0, "GoBack": 1, "SID": 10879, "NameZh": "Renyou Clinic", "RouteId": 871, "SeqNo": 32, "Terminal": 0, "DistrictId": 1, "Latitude": 22.91, "Longitude": 120.22425, "IVRNo": 9665, "EXTVoiceNo": 9188, "traveltime": 0, "holidayTraveltime": 0}, {"Id": "9189", "pgp": 0, "GoBack": 1, "SID": 10880, "NameZh": "Weinei", "RouteId": 871, "SeqNo": 33, "Terminal": 0, "DistrictId": 1, "Latitude": 22.90915, "Longitude": 120.22083, "IVRNo": 9666, "EXTVoiceNo": 9189, "traveltime": 0, "holidayTraveltime": 0}, {"Id": "1745", "pgp": 0, "GoBack": 1, "SID": 10881, "NameZh": "Yecuojia", "RouteId": 871, "SeqNo": 34, "Terminal": 0, "DistrictId": 1, "Latitude": 22.90881, "Longitude": 120.2172, "IVRNo": 9667, "EXTVoiceNo": 11745, "traveltime": 0, "holidayTraveltime": 0}, {"Id": "9191", "pgp": 0, "GoBack": 1, "SID": 10882, "NameZh": "Hunei Farmers` Association", "RouteId": 871, "SeqNo": 35, "Terminal": 0, "DistrictId": 1, "Latitude": 22.90858, "Longitude": 120.21475, "IVRNo": 9668, "EXTVoiceNo": 9191, "traveltime": 0, "holidayTraveltime": 0}, {"Id": "9192", "pgp": 0, "GoBack": 1, "SID": 10883, "NameZh": "Hunei District Office (Weizihnei)", "RouteId": 871, "SeqNo": 36, "Terminal": 0, "DistrictId": 1, "Latitude": 22.908438, "Longitude": 120.211216, "IVRNo": 9669, "EXTVoiceNo": 9192, "traveltime": 0, "holidayTraveltime": 0}, {"Id": "9193", "pgp": 0, "GoBack": 1, "SID": 10884, "NameZh": "Wunsian Village", "RouteId": 871, "SeqNo": 37, "Terminal": 0, "DistrictId": 1, "Latitude": 22.90798, "Longitude": 120.2086, "IVRNo": 9670, "EXTVoiceNo": 9193, "traveltime": 0, "holidayTraveltime": 0}, {"Id": "9349", "pgp": 0, "GoBack": 1, "SID": 8287, "NameZh": "Jhongsian Village", "RouteId": 871, "SeqNo": 38, "Terminal": 0, "DistrictId": 1, "Latitude": 22.90797, "Longitude": 120.20599, "IVRNo": 47, "EXTVoiceNo": 9349, "traveltime": 0, "holidayTraveltime": 0}, {"Id": "9194", "pgp": 0, "GoBack": 1, "SID": 10886, "NameZh": "Sinjhuang Rd. Intersection (Jhongjheng Rd. Sec. 2)", "RouteId": 871, "SeqNo": 39, "Terminal": 0, "DistrictId": 1, "Latitude": 22.9097, "Longitude": 120.2007, "IVRNo": 1065, "EXTVoiceNo": 9194, "traveltime": 0, "holidayTraveltime": 0}, {"Id": "9195", "pgp": 0, "GoBack": 1, "SID": 10887, "NameZh": "Caozihliao-Hu Nei", "RouteId": 871, "SeqNo": 40, "Terminal": 0, "DistrictId": 1, "Latitude": 22.91198, "Longitude": 120.19561, "IVRNo": 631, "EXTVoiceNo": 9195, "traveltime": 0, "holidayTraveltime": 0}, {"Id": "9196", "pgp": 0, "GoBack": 1, "SID": 10888, "NameZh": "Baishalun", "RouteId": 871, "SeqNo": 41, "Terminal": 0, "DistrictId": 1, "Latitude": 22.91285, "Longitude": 120.18513, "IVRNo": 9672, "EXTVoiceNo": 9196, "traveltime": 0, "holidayTraveltime": 0}, {"Id": "9197", "pgp": 0, "GoBack": 1, "SID": 10889, "NameZh": "S. Baishalun", "RouteId": 871, "SeqNo": 42, "Terminal": 0, "DistrictId": 1, "Latitude": 22.9109, "Longitude": 120.18473, "IVRNo": 9673, "EXTVoiceNo": 9197, "traveltime": 0, "holidayTraveltime": 0}, {"Id": "9251", "pgp": 0, "GoBack": 1, "SID": 10890, "NameZh": "Baiyun Temple", "RouteId": 871, "SeqNo": 43, "Terminal": 1, "DistrictId": 1, "Latitude": 22.90936, "Longitude": 120.18432, "IVRNo": 9896, "EXTVoiceNo": 9251, "traveltime": 0, "holidayTraveltime": 0}, {"Id": "9198", "pgp": 0, "GoBack": 2, "SID": 10891, "NameZh": "Cieding District Office (Jiading Junior High School)", "RouteId": 871, "SeqNo": 1, "Terminal": 0, "DistrictId": 1, "Latitude": 22.90635, "Longitude": 120.18366, "IVRNo": 9828, "EXTVoiceNo": 9198, "traveltime": 0, "holidayTraveltime": 0}, {"Id": "9252", "pgp": 0, "GoBack": 2, "SID": 10892, "NameZh": "Kaohsiung Municipal Cieding Primary School", "RouteId": 871, "SeqNo": 2, "Terminal": 0, "DistrictId": 1, "Latitude": 22.90363, "Longitude": 120.18369, "IVRNo": 640, "EXTVoiceNo": 9252, "traveltime": 0, "holidayTraveltime": 0}, {"Id": "9253", "pgp": 0, "GoBack": 2, "SID": 10893, "NameZh": "Zengcuo", "RouteId": 871, "SeqNo": 3, "Terminal": 0, "DistrictId": 1, "Latitude": 22.9012, "Longitude": 120.18405, "IVRNo": 9830, "EXTVoiceNo": 9253, "traveltime": 0, "holidayTraveltime": 0}, {"Id": "9254", "pgp": 0, "GoBack": 2, "SID": 10977, "NameZh": "Dingcieding", "RouteId": 871, "SeqNo": 4, "Terminal": 0, "DistrictId": 1, "Latitude": 22.89818, "Longitude": 120.18468, "IVRNo": 641, "EXTVoiceNo": 9254, "traveltime": 0, "holidayTraveltime": 0}, {"Id": "9255", "pgp": 0, "GoBack": 2, "SID": 10978, "NameZh": "Qieding Farmers` Association (Siacieding)", "RouteId": 871, "SeqNo": 5, "Terminal": 0, "DistrictId": 1, "Latitude": 22.89594, "Longitude": 120.18501, "IVRNo": 9832, "EXTVoiceNo": 9255, "traveltime": 0, "holidayTraveltime": 0}, {"Id": "9256", "pgp": 0, "GoBack": 2, "SID": 10980, "NameZh": "Guangding", "RouteId": 871, "SeqNo": 6, "Terminal": 0, "DistrictId": 1, "Latitude": 22.89282, "Longitude": 120.18632, "IVRNo": 9833, "EXTVoiceNo": 9256, "traveltime": 0, "holidayTraveltime": 0}, {"Id": "9257", "pgp": 0, "GoBack": 2, "SID": 10981, "NameZh": "Chenggong Bridge", "RouteId": 871, "SeqNo": 7, "Terminal": 0, "DistrictId": 1, "Latitude": 22.88991, "Longitude": 120.18697, "IVRNo": 9834, "EXTVoiceNo": 9257, "traveltime": 0, "holidayTraveltime": 0}, {"Id": "9258", "pgp": 0, "GoBack": 2, "SID": 10982, "NameZh": "Binhai Rd. Sec. 1", "RouteId": 871, "SeqNo": 8, "Terminal": 0, "DistrictId": 1, "Latitude": 22.88441, "Longitude": 120.18665, "IVRNo": 9835, "EXTVoiceNo": 9258, "traveltime": 0, "holidayTraveltime": 0}, {"Id": "9259", "pgp": 0, "GoBack": 2, "SID": 10983, "NameZh": "Cilou", "RouteId": 871, "SeqNo": 9, "Terminal": 0, "DistrictId": 1, "Latitude": 22.87751, "Longitude": 120.18896, "IVRNo": 9836, "EXTVoiceNo": 9259, "traveltime": 0, "holidayTraveltime": 0}, {"Id": "9260", "pgp": 0, "GoBack": 2, "SID": 10984, "NameZh": "Community Center of Cilou Farmers` Association", "RouteId": 871, "SeqNo": 10, "Terminal": 0, "DistrictId": 1, "Latitude": 22.87313, "Longitude": 120.19062, "IVRNo": 9837, "EXTVoiceNo": 9260, "traveltime": 0, "holidayTraveltime": 0}, {"Id": "9261", "pgp": 0, "GoBack": 2, "SID": 10985, "NameZh": "Singda Harbor Tourism Fish Market", "RouteId": 871, "SeqNo": 11, "Terminal": 0, "DistrictId": 1, "Latitude": 22.87106, "Longitude": 120.19279, "IVRNo": 9838, "EXTVoiceNo": 9261, "traveltime": 0, "holidayTraveltime": 0}, {"Id": "3225", "pgp": 0, "GoBack": 2, "SID": 10986, "NameZh": "Cilou Telecom Office", "RouteId": 871, "SeqNo": 12, "Terminal": 0, "DistrictId": 1, "Latitude": 22.87461, "Longitude": 120.19409, "IVRNo": 11366, "EXTVoiceNo": 3225, "traveltime": 0, "holidayTraveltime": 0}, {"Id": "9263", "pgp": 0, "GoBack": 2, "SID": 10987, "NameZh": "Hsing-Da Elementary School", "RouteId": 871, "SeqNo": 13, "Terminal": 0, "DistrictId": 1, "Latitude": 22.87543, "Longitude": 120.19685, "IVRNo": 9840, "EXTVoiceNo": 9263, "traveltime": 0, "holidayTraveltime": 0}, {"Id": "9264", "pgp": 0, "GoBack": 2, "SID": 10988, "NameZh": "Coast Guard Base of Singda Harbor", "RouteId": 871, "SeqNo": 14, "Terminal": 0, "DistrictId": 1, "Latitude": 22.87613, "Longitude": 120.20114, "IVRNo": 9455, "EXTVoiceNo": 9264, "traveltime": 0, "holidayTraveltime": 0}, {"Id": "9265", "pgp": 0, "GoBack": 2, "SID": 10989, "NameZh": "Singda Fishing Port (Jhengda Rd.)", "RouteId": 871, "SeqNo": 15, "Terminal": 0, "DistrictId": 1, "Latitude": 22.87834, "Longitude": 120.20382, "IVRNo": 9841, "EXTVoiceNo": 9265, "traveltime": 0, "holidayTraveltime": 0}, {"Id": "9266", "pgp": 0, "GoBack": 2, "SID": 10991, "NameZh": "Lovers Wharf", "RouteId": 871, "SeqNo": 16, "Terminal": 0, "DistrictId": 1, "Latitude": 22.8806, "Longitude": 120.21124, "IVRNo": 9842, "EXTVoiceNo": 9266, "traveltime": 0, "holidayTraveltime": 0}, {"Id": "9267", "pgp": 0, "GoBack": 2, "SID": 10992, "NameZh": "Holiday Market", "RouteId": 871, "SeqNo": 17, "Terminal": 0, "DistrictId": 1, "Latitude": 22.87944, "Longitude": 120.21391, "IVRNo": 9456, "EXTVoiceNo": 9267, "traveltime": 0, "holidayTraveltime": 0}, {"Id": "9268", "pgp": 0, "GoBack": 2, "SID": 10993, "NameZh": "Singda Deep Sea Fishing Port", "RouteId": 871, "SeqNo": 18, "Terminal": 0, "DistrictId": 1, "Latitude": 22.87734, "Longitude": 120.21397, "IVRNo": 905, "EXTVoiceNo": 9268, "traveltime": 0, "holidayTraveltime": 0}, {"Id": "6097", "pgp": 0, "GoBack": 2, "SID": 14843, "NameZh": "Dongfang Rd. Lane Entrance 2", "RouteId": 871, "SeqNo": 19, "Terminal": 0, "DistrictId": 1, "Latitude": 22.876263, "Longitude": 120.218162, "IVRNo": 782, "EXTVoiceNo": 26097, "traveltime": 0, "holidayTraveltime": 0}, {"Id": "9269", "pgp": 0, "GoBack": 2, "SID": 10994, "NameZh": "Minzu St. Intersection", "RouteId": 871, "SeqNo": 20, "Terminal": 0, "DistrictId": 1, "Latitude": 22.87811, "Longitude": 120.23177, "IVRNo": 9914, "EXTVoiceNo": 9269, "traveltime": 0, "holidayTraveltime": 0}, {"Id": "9270", "pgp": 0, "GoBack": 2, "SID": 10995, "NameZh": "Ningjing (Prince of the Ming Dynasty) Park", "RouteId": 871, "SeqNo": 21, "Terminal": 0, "DistrictId": 1, "Latitude": 22.8786, "Longitude": 120.23939, "IVRNo": 9845, "EXTVoiceNo": 9270, "traveltime": 0, "holidayTraveltime": 0}, {"Id": "9271", "pgp": 0, "GoBack": 2, "SID": 10996, "NameZh": "Tungfang Design Institute", "RouteId": 871, "SeqNo": 22, "Terminal": 0, "DistrictId": 1, "Latitude": 22.87966, "Longitude": 120.24826, "IVRNo": 9846, "EXTVoiceNo": 9271, "traveltime": 0, "holidayTraveltime": 0}, {"Id": "9180", "pgp": 0, "GoBack": 2, "SID": 10997, "NameZh": "Dahu Train Station", "RouteId": 871, "SeqNo": 23, "Terminal": 0, "DistrictId": 1, "Latitude": 22.87783, "Longitude": 120.25211, "IVRNo": 9657, "EXTVoiceNo": 9180, "traveltime": 0, "holidayTraveltime": 0}, {"Id": "9179", "pgp": 0, "GoBack": 2, "SID": 10998, "NameZh": "Shu-Zen Junior College of Medicine and Management", "RouteId": 871, "SeqNo": 24, "Terminal": 0, "DistrictId": 1, "Latitude": 22.87393, "Longitude": 120.25383, "IVRNo": 9656, "EXTVoiceNo": 9179, "traveltime": 0, "holidayTraveltime": 0}, {"Id": "9178", "pgp": 0, "GoBack": 2, "SID": 10923, "NameZh": "Gaosin Hospital", "RouteId": 871, "SeqNo": 25, "Terminal": 0, "DistrictId": 1, "Latitude": 22.86598, "Longitude": 120.25641, "IVRNo": 9655, "EXTVoiceNo": 9178, "traveltime": 0, "holidayTraveltime": 0}, {"Id": "9177", "pgp": 0, "GoBack": 2, "SID": 10924, "NameZh": "Beilujhu", "RouteId": 871, "SeqNo": 26, "Terminal": 0, "DistrictId": 1, "Latitude": 22.86238, "Longitude": 120.25811, "IVRNo": 9654, "EXTVoiceNo": 9177, "traveltime": 0, "holidayTraveltime": 0}, {"Id": "9176", "pgp": 0, "GoBack": 2, "SID": 10926, "NameZh": "Lujhu", "RouteId": 871, "SeqNo": 27, "Terminal": 0, "DistrictId": 1, "Latitude": 22.8595, "Longitude": 120.25991, "IVRNo": 9653, "EXTVoiceNo": 9176, "traveltime": 0, "holidayTraveltime": 0}, {"Id": "9175", "pgp": 0, "GoBack": 2, "SID": 11068, "NameZh": "Lujhu District Office (Jhongshan Rd.)", "RouteId": 871, "SeqNo": 28, "Terminal": 0, "DistrictId": 1, "Latitude": 22.855199, "Longitude": 120.261003, "IVRNo": 829, "EXTVoiceNo": 9175, "traveltime": 0, "holidayTraveltime": 0}, {"Id": "9174", "pgp": 0, "GoBack": 2, "SID": 10928, "NameZh": "East Alliance Enterprise Corporation", "RouteId": 871, "SeqNo": 29, "Terminal": 0, "DistrictId": 1, "Latitude": 22.84906, "Longitude": 120.26211, "IVRNo": 9651, "EXTVoiceNo": 9174, "traveltime": 0, "holidayTraveltime": 0}, {"Id": "9173", "pgp": 0, "GoBack": 2, "SID": 10929, "NameZh": "Kao Yuan University", "RouteId": 871, "SeqNo": 30, "Terminal": 0, "DistrictId": 1, "Latitude": 22.84061, "Longitude": 120.26376, "IVRNo": 9650, "EXTVoiceNo": 9173, "traveltime": 0, "holidayTraveltime": 0}, {"Id": "9172", "pgp": 0, "GoBack": 2, "SID": 10930, "NameZh": "Wei Chuan Foods Corp.", "RouteId": 871, "SeqNo": 31, "Terminal": 0, "DistrictId": 1, "Latitude": 22.82738, "Longitude": 120.26628, "IVRNo": 9649, "EXTVoiceNo": 9172, "traveltime": 0, "holidayTraveltime": 0}, {"Id": "9171", "pgp": 0, "GoBack": 2, "SID": 10931, "NameZh": "Beilingcian", "RouteId": 871, "SeqNo": 32, "Terminal": 0, "DistrictId": 1, "Latitude": 22.82085, "Longitude": 120.26948, "IVRNo": 9648, "EXTVoiceNo": 9171, "traveltime": 0, "holidayTraveltime": 0}, {"Id": "9170", "pgp": 0, "GoBack": 2, "SID": 10932, "NameZh": "Taiwan Cement Corporation", "RouteId": 871, "SeqNo": 33, "Terminal": 0, "DistrictId": 1, "Latitude": 22.81695, "Longitude": 120.27386, "IVRNo": 9647, "EXTVoiceNo": 9170, "traveltime": 0, "holidayTraveltime": 0}, {"Id": "9169", "pgp": 0, "GoBack": 2, "SID": 10933, "NameZh": "Yude St. Intersection", "RouteId": 871, "SeqNo": 34, "Terminal": 0, "DistrictId": 1, "Latitude": 22.81153, "Longitude": 120.27986, "IVRNo": 9646, "EXTVoiceNo": 9169, "traveltime": 0, "holidayTraveltime": 0}, {"Id": "3447", "pgp": 0, "GoBack": 2, "SID": 10934, "NameZh": "Wanzihnei (Gangshan)", "RouteId": 871, "SeqNo": 35, "Terminal": 0, "DistrictId": 1, "Latitude": 22.809597, "Longitude": 120.282279, "IVRNo": 616, "EXTVoiceNo": 13447, "traveltime": 0, "holidayTraveltime": 0}, {"Id": "9167", "pgp": 0, "GoBack": 2, "SID": 10935, "NameZh": "Tzu Chi University Continuing Education Center", "RouteId": 871, "SeqNo": 36, "Terminal": 0, "DistrictId": 1, "Latitude": 22.80685, "Longitude": 120.28546, "IVRNo": 9644, "EXTVoiceNo": 9167, "traveltime": 0, "holidayTraveltime": 0}, {"Id": "9166", "pgp": 0, "GoBack": 2, "SID": 11148, "NameZh": "Gangshan Agricultural & Industrial Vocational Senior High School", "RouteId": 871, "SeqNo": 37, "Terminal": 0, "DistrictId": 1, "Latitude": 22.80206, "Longitude": 120.2913, "IVRNo": 874, "EXTVoiceNo": 9166, "traveltime": 0, "holidayTraveltime": 0}, {"Id": "9134", "pgp": 0, "GoBack": 2, "SID": 11149, "NameZh": "Gangshan District Office", "RouteId": 871, "SeqNo": 38, "Terminal": 0, "DistrictId": 1, "Latitude": 22.798619, "Longitude": 120.295186, "IVRNo": 9570, "EXTVoiceNo": 9134, "traveltime": 0, "holidayTraveltime": 0}, {"Id": "9133", "pgp": 0, "GoBack": 2, "SID": 10782, "NameZh": "Gangshan Farmers` Association", "RouteId": 871, "SeqNo": 39, "Terminal": 0, "DistrictId": 1, "Latitude": 22.79533, "Longitude": 120.29563, "IVRNo": 9569, "EXTVoiceNo": 9133, "traveltime": 0, "holidayTraveltime": 0}, {"Id": "0230", "pgp": 0, "GoBack": 2, "SID": 11573, "NameZh": "Wunsian Market", "RouteId": 871, "SeqNo": 40, "Terminal": 0, "DistrictId": 1, "Latitude": 22.794142, "Longitude": 120.295901, "IVRNo": 8308, "EXTVoiceNo": 20230, "traveltime": 0, "holidayTraveltime": 0}, {"Id": "9130", "pgp": 0, "GoBack": 2, "SID": 10784, "NameZh": "Gangshan Post Office (Minyou Rd.)", "RouteId": 871, "SeqNo": 41, "Terminal": 0, "DistrictId": 1, "Latitude": 22.79199, "Longitude": 120.296703, "IVRNo": 9566, "EXTVoiceNo": 9130, "traveltime": 0, "holidayTraveltime": 0}, {"Id": "0832", "pgp": 0, "GoBack": 2, "SID": 17378, "NameZh": "Gangshan Transfer Station (Gangshan Train Station)", "RouteId": 871, "SeqNo": 42, "Terminal": 0, "DistrictId": 1, "Latitude": 22.792356, "Longitude": 120.299569, "IVRNo": 832, "EXTVoiceNo": 832, "traveltime": 0, "holidayTraveltime": 0}, {"Id": "9129", "pgp": 0, "GoBack": 2, "SID": 10786, "NameZh": "Wunhua St. Intersection", "RouteId": 871, "SeqNo": 43, "Terminal": 0, "DistrictId": 1, "Latitude": 22.78768, "Longitude": 120.29661, "IVRNo": 9565, "EXTVoiceNo": 9129, "traveltime": 0, "holidayTraveltime": 0}, {"Id": "0489", "pgp": 0, "GoBack": 2, "SID": 18210, "NameZh": "Heti Rd. Intersection (Gangshan Rd.)", "RouteId": 871, "SeqNo": 44, "Terminal": 0, "DistrictId": 1, "Latitude": 22.785923, "Longitude": 120.296816, "IVRNo": 2041, "EXTVoiceNo": 20489, "traveltime": 0, "holidayTraveltime": 0}, {"Id": "1110", "pgp": 0, "GoBack": 2, "SID": 10787, "NameZh": "Gangshan Cultural Center", "RouteId": 871, "SeqNo": 45, "Terminal": 0, "DistrictId": 1, "Latitude": 22.78411, "Longitude": 120.2971, "IVRNo": 9564, "EXTVoiceNo": 21110, "traveltime": 0, "holidayTraveltime": 0}, {"Id": "0828", "pgp": 0, "GoBack": 2, "SID": 13364, "NameZh": "MRT Gangshan South Station", "RouteId": 871, "SeqNo": 46, "Terminal": 1, "DistrictId": 1, "Latitude": 22.780347, "Longitude": 120.300666, "IVRNo": 828, "EXTVoiceNo": 828, "traveltime": 0, "holidayTraveltime": 0}], "zh": [{"Id": "0828", "pgp": 0, "GoBack": 1, "SID": 13326, "NameZh": "\u6377\u904b\u5357\u5ca1\u5c71\u7ad9", "RouteId": 871, "SeqNo": 1, "Terminal": 0, "DistrictId": 1, "Latitude": 22.780612, "Longitude": 120.300541, "IVRNo": 828, "EXTVoiceNo": 828, "traveltime": 0, "holidayTraveltime": 0}, {"Id": "1110", "pgp": 0, "GoBack": 1, "SID": 10979, "NameZh": "\u5ca1\u5c71\u6587\u5316\u4e2d\u5fc3", "RouteId": 871, "SeqNo": 2, "Terminal": 0, "DistrictId": 1, "Latitude": 22.78363, "Longitude": 120.29751, "IVRNo": 9564, "EXTVoiceNo": 21110, "traveltime": 0, "holidayTraveltime": 0}, {"Id": "0489", "pgp": 0, "GoBack": 1, "SID": 17971, "NameZh": "\u6cb3\u5824\u8def\u53e3(\u5ca1\u5c71\u8def)", "RouteId": 871, "SeqNo": 3, "Terminal": 0, "DistrictId": 1, "Latitude": 22.786144, "Longitude": 120.296937, "IVRNo": 2041, "EXTVoiceNo": 20489, "traveltime": 0, "holidayTraveltime": 0}, {"Id": "9129", "pgp": 0, "GoBack": 1, "SID": 10990, "NameZh": "\u6587\u5316\u8857\u53e3", "RouteId": 871, "SeqNo": 4, "Terminal": 0, "DistrictId": 1, "Latitude": 22.78825, "Longitude": 120.29661, "IVRNo": 9565, "EXTVoiceNo": 9129, "traveltime": 0, "holidayTraveltime": 0}, {"Id": "0832", "pgp": 0, "GoBack": 1, "SID": 17369, "NameZh": "\u5ca1\u5c71\u8f49\u904b\u7ad9(\u5ca1\u5c71\u706b\u8eca\u7ad9)", "RouteId": 871, "SeqNo": 5, "Terminal": 0, "DistrictId": 1, "Latitude": 22.792356, "Longitude": 120.299569, "IVRNo": 832, "EXTVoiceNo": 832, "traveltime": 0, "holidayTraveltime": 0}, {"Id": "9130", "pgp": 0, "GoBack": 1, "SID": 10936, "NameZh": "\u5ca1\u5c71\u90f5\u5c40(\u6c11\u6709\u8def)", "RouteId": 871, "SeqNo": 6, "Terminal": 0, "DistrictId": 1, "Latitude": 22.792034, "Longitude": 120.29664, "IVRNo": 9566, "EXTVoiceNo": 9130, "traveltime": 0, "holidayTraveltime": 0}, {"Id": "0230", "pgp": 0, "GoBack": 1, "SID": 11553, "NameZh": "\u6587\u8ce2\u5e02\u5834", "RouteId": 871, "SeqNo": 7, "Terminal": 0, "DistrictId": 1, "Latitude": 22.794142, "Longitude": 120.295901, "IVRNo": 8308, "EXTVoiceNo": 20230, "traveltime": 0, "holidayTraveltime": 0}, {"Id": "9133", "pgp": 0, "GoBack": 1, "SID": 10853, "NameZh": "\u5ca1\u5c71\u8fb2\u6703", "RouteId": 871, "SeqNo": 8, "Terminal": 0, "DistrictId": 1, "Latitude": 22.79561, "Longitude": 120.29558, "IVRNo": 9569, "EXTVoiceNo": 9133, "traveltime": 0, "holidayTraveltime": 0}, {"Id": "9134", "pgp": 0, "GoBack": 1, "SID": 10781, "NameZh": "\u5ca1\u5c71\u5340\u516c\u6240", "RouteId": 871, "SeqNo": 9, "Terminal": 0, "DistrictId": 1, "Latitude": 22.798609, "Longitude": 120.295126, "IVRNo": 9570, "EXTVoiceNo": 9134, "traveltime": 0, "holidayTraveltime": 0}, {"Id": "9166", "pgp": 0, "GoBack": 1, "SID": 10855, "NameZh": "\u5ca1\u5c71\u8fb2\u5de5", "RouteId": 871, "SeqNo": 10, "Terminal": 0, "DistrictId": 1, "Latitude": 22.8022, "Longitude": 120.2917, "IVRNo": 874, "EXTVoiceNo": 9166, "traveltime": 0, "holidayTraveltime": 0}, {"Id": "9167", "pgp": 0, "GoBack": 1, "SID": 10856, "NameZh": "\u6148\u6fdf\u5927\u5b78\u63a8\u5ee3\u4e2d\u5fc3", "RouteId": 871, "SeqNo": 11, "Terminal": 0, "DistrictId": 1, "Latitude": 22.80751, "Longitude": 120.28523, "IVRNo": 9644, "EXTVoiceNo": 9167, "traveltime": 0, "holidayTraveltime": 0}, {"Id": "3447", "pgp": 0, "GoBack": 1, "SID": 10857, "NameZh": "\u7063\u5b50\u5167(\u5ca1\u5c71)", "RouteId": 871, "SeqNo": 12, "Terminal": 0, "DistrictId": 1, "Latitude": 22.809707, "Longitude": 120.282383, "IVRNo": 616, "EXTVoiceNo": 13447, "traveltime": 0, "holidayTraveltime": 0}, {"Id": "9169", "pgp": 0, "GoBack": 1, "SID": 10858, "NameZh": "\u80b2\u5fb7\u8857\u53e3", "RouteId": 871, "SeqNo": 13, "Terminal": 0, "DistrictId": 1, "Latitude": 22.81185, "Longitude": 120.28005, "IVRNo": 9646, "EXTVoiceNo": 9169, "traveltime": 0, "holidayTraveltime": 0}, {"Id": "9170", "pgp": 0, "GoBack": 1, "SID": 10859, "NameZh": "\u53f0\u6ce5\u516c\u53f8", "RouteId": 871, "SeqNo": 14, "Terminal": 0, "DistrictId": 1, "Latitude": 22.81696, "Longitude": 120.2737, "IVRNo": 9647, "EXTVoiceNo": 9170, "traveltime": 0, "holidayTraveltime": 0}, {"Id": "9171", "pgp": 0, "GoBack": 1, "SID": 10860, "NameZh": "\u5317\u5dba\u5898", "RouteId": 871, "SeqNo": 15, "Terminal": 0, "DistrictId": 1, "Latitude": 22.8212, "Longitude": 120.26946, "IVRNo": 9648, "EXTVoiceNo": 9171, "traveltime": 0, "holidayTraveltime": 0}, {"Id": "9172", "pgp": 0, "GoBack": 1, "SID": 10861, "NameZh": "\u5473\u5168\u516c\u53f8", "RouteId": 871, "SeqNo": 16, "Terminal": 0, "DistrictId": 1, "Latitude": 22.82731, "Longitude": 120.2666, "IVRNo": 9649, "EXTVoiceNo": 9172, "traveltime": 0, "holidayTraveltime": 0}, {"Id": "9173", "pgp": 0, "GoBack": 1, "SID": 10862, "NameZh": "\u9ad8\u82d1\u79d1\u5927", "RouteId": 871, "SeqNo": 17, "Terminal": 0, "DistrictId": 1, "Latitude": 22.8415, "Longitude": 120.26383, "IVRNo": 9650, "EXTVoiceNo": 9173, "traveltime": 0, "holidayTraveltime": 0}, {"Id": "9174", "pgp": 0, "GoBack": 1, "SID": 10864, "NameZh": "\u6771\u76df\u516c\u53f8", "RouteId": 871, "SeqNo": 18, "Terminal": 0, "DistrictId": 1, "Latitude": 22.84871, "Longitude": 120.26246, "IVRNo": 9651, "EXTVoiceNo": 9174, "traveltime": 0, "holidayTraveltime": 0}, {"Id": "9175", "pgp": 0, "GoBack": 1, "SID": 10865, "NameZh": "\u8def\u7af9\u5340\u516c\u6240(\u4e2d\u5c71\u8def)", "RouteId": 871, "SeqNo": 19, "Terminal": 0, "DistrictId": 1, "Latitude": 22.855199, "Longitude": 120.261003, "IVRNo": 829, "EXTVoiceNo": 9175, "traveltime": 0, "holidayTraveltime": 0}, {"Id": "9176", "pgp": 0, "GoBack": 1, "SID": 10866, "NameZh": "\u8def\u7af9", "RouteId": 871, "SeqNo": 20, "Terminal": 0, "DistrictId": 1, "Latitude": 22.85905, "Longitude": 120.26016, "IVRNo": 9653, "EXTVoiceNo": 9176, "traveltime": 0, "holidayTraveltime": 0}, {"Id": "9177", "pgp": 0, "GoBack": 1, "SID": 10867, "NameZh": "\u5317\u8def\u7af9", "RouteId": 871, "SeqNo": 21, "Terminal": 0, "DistrictId": 1, "Latitude": 22.86308, "Longitude": 120.25796, "IVRNo": 9654, "EXTVoiceNo": 9177, "traveltime": 0, "holidayTraveltime": 0}, {"Id": "9178", "pgp": 0, "GoBack": 1, "SID": 10868, "NameZh": "\u9ad8\u65b0\u91ab\u9662", "RouteId": 871, "SeqNo": 22, "Terminal": 0, "DistrictId": 1, "Latitude": 22.86563, "Longitude": 120.25676, "IVRNo": 9655, "EXTVoiceNo": 9178, "traveltime": 0, "holidayTraveltime": 0}, {"Id": "9179", "pgp": 0, "GoBack": 1, "SID": 10869, "NameZh": "\u6a39\u4eba\u91ab\u6821", "RouteId": 871, "SeqNo": 23, "Terminal": 0, "DistrictId": 1, "Latitude": 22.8735, "Longitude": 120.25421, "IVRNo": 9656, "EXTVoiceNo": 9179, "traveltime": 0, "holidayTraveltime": 0}, {"Id": "9180", "pgp": 0, "GoBack": 1, "SID": 10870, "NameZh": "\u5927\u6e56\u706b\u8eca\u7ad9", "RouteId": 871, "SeqNo": 24, "Terminal": 0, "DistrictId": 1, "Latitude": 22.87773, "Longitude": 120.25243, "IVRNo": 9657, "EXTVoiceNo": 9180, "traveltime": 0, "holidayTraveltime": 0}, {"Id": "9250", "pgp": 0, "GoBack": 1, "SID": 10871, "NameZh": "\u6771\u65b9\u8def\u53e3(\u6771\u65b9\u6280\u8853\u5b78\u9662)", "RouteId": 871, "SeqNo": 25, "Terminal": 0, "DistrictId": 1, "Latitude": 22.88168, "Longitude": 120.24926, "IVRNo": 9658, "EXTVoiceNo": 9250, "traveltime": 0, "holidayTraveltime": 0}, {"Id": "9182", "pgp": 0, "GoBack": 1, "SID": 10872, "NameZh": "\u5927\u6e56", "RouteId": 871, "SeqNo": 26, "Terminal": 0, "DistrictId": 1, "Latitude": 22.88855, "Longitude": 120.2428, "IVRNo": 9659, "EXTVoiceNo": 9182, "traveltime": 0, "holidayTraveltime": 0}, {"Id": "9183", "pgp": 0, "GoBack": 1, "SID": 10873, "NameZh": "\u7530\u5c3e\u91cc", "RouteId": 871, "SeqNo": 27, "Terminal": 0, "DistrictId": 1, "Latitude": 22.89463, "Longitude": 120.24063, "IVRNo": 9660, "EXTVoiceNo": 9183, "traveltime": 0, "holidayTraveltime": 0}, {"Id": "9184", "pgp": 0, "GoBack": 1, "SID": 10875, "NameZh": "\u53f0\u8fb2\u98fc\u6599\u5ee0", "RouteId": 871, "SeqNo": 28, "Terminal": 0, "DistrictId": 1, "Latitude": 22.89821, "Longitude": 120.23615, "IVRNo": 9661, "EXTVoiceNo": 9184, "traveltime": 0, "holidayTraveltime": 0}, {"Id": "9185", "pgp": 0, "GoBack": 1, "SID": 10876, "NameZh": "\u725b\u8e44\u5bee", "RouteId": 871, "SeqNo": 29, "Terminal": 0, "DistrictId": 1, "Latitude": 22.90248, "Longitude": 120.23175, "IVRNo": 9662, "EXTVoiceNo": 9185, "traveltime": 0, "holidayTraveltime": 0}, {"Id": "9186", "pgp": 0, "GoBack": 1, "SID": 10877, "NameZh": "\u592a\u723a(\u6e56\u5167\u570b\u4e2d)", "RouteId": 871, "SeqNo": 30, "Terminal": 0, "DistrictId": 1, "Latitude": 22.908153, "Longitude": 120.227938, "IVRNo": 9663, "EXTVoiceNo": 9186, "traveltime": 0, "holidayTraveltime": 0}, {"Id": "9187", "pgp": 0, "GoBack": 1, "SID": 10878, "NameZh": "\u592a\u723a(\u4e2d\u6b63\u8def\u4e00\u6bb5)", "RouteId": 871, "SeqNo": 31, "Terminal": 0, "DistrictId": 1, "Latitude": 22.909491, "Longitude": 120.226251, "IVRNo": 9664, "EXTVoiceNo": 9187, "traveltime": 0, "holidayTraveltime": 0}, {"Id": "9188", "pgp": 0, "GoBack": 1, "SID": 10879, "NameZh": "\u4ec1\u4f51\u8a3a\u6240", "RouteId": 871, "SeqNo": 32, "Terminal": 0, "DistrictId": 1, "Latitude": 22.91, "Longitude": 120.22425, "IVRNo": 9665, "EXTVoiceNo": 9188, "traveltime": 0, "holidayTraveltime": 0}, {"Id": "9189", "pgp": 0, "GoBack": 1, "SID": 10880, "NameZh": "\u570d\u5167", "RouteId": 871, "SeqNo": 33, "Terminal": 0, "DistrictId": 1, "Latitude": 22.90915, "Longitude": 120.22083, "IVRNo": 9666, "EXTVoiceNo": 9189, "traveltime": 0, "holidayTraveltime": 0}, {"Id": "1745", "pgp": 0, "GoBack": 1, "SID": 10881, "NameZh": "\u8449\u539d\u7532", "RouteId": 871, "SeqNo": 34, "Terminal": 0, "DistrictId": 1, "Latitude": 22.90881, "Longitude": 120.2172, "IVRNo": 9667, "EXTVoiceNo": 11745, "traveltime": 0, "holidayTraveltime": 0}, {"Id": "9191", "pgp": 0, "GoBack": 1, "SID": 10882, "NameZh": "\u6e56\u5167\u8fb2\u6703", "RouteId": 871, "SeqNo": 35, "Terminal": 0, "DistrictId": 1, "Latitude": 22.90858, "Longitude": 120.21475, "IVRNo": 9668, "EXTVoiceNo": 9191, "traveltime": 0, "holidayTraveltime": 0}, {"Id": "9192", "pgp": 0, "GoBack": 1, "SID": 10883, "NameZh": "\u6e56\u5167\u5340\u516c\u6240(\u570d\u5b50\u5167)", "RouteId": 871, "SeqNo": 36, "Terminal": 0, "DistrictId": 1, "Latitude": 22.908438, "Longitude": 120.211216, "IVRNo": 9669, "EXTVoiceNo": 9192, "traveltime": 0, "holidayTraveltime": 0}, {"Id": "9193", "pgp": 0, "GoBack": 1, "SID": 10884, "NameZh": "\u6587\u8ce2\u91cc", "RouteId": 871, "SeqNo": 37, "Terminal": 0, "DistrictId": 1, "Latitude": 22.90798, "Longitude": 120.2086, "IVRNo": 9670, "EXTVoiceNo": 9193, "traveltime": 0, "holidayTraveltime": 0}, {"Id": "9349", "pgp": 0, "GoBack": 1, "SID": 8287, "NameZh": "\u4e2d\u8ce2\u91cc", "RouteId": 871, "SeqNo": 38, "Terminal": 0, "DistrictId": 1, "Latitude": 22.90797, "Longitude": 120.20599, "IVRNo": 47, "EXTVoiceNo": 9349, "traveltime": 0, "holidayTraveltime": 0}, {"Id": "9194", "pgp": 0, "GoBack": 1, "SID": 10886, "NameZh": "\u65b0\u5e84\u8def\u53e3(\u4e2d\u6b63\u8def\u4e8c\u6bb5)", "RouteId": 871, "SeqNo": 39, "Terminal": 0, "DistrictId": 1, "Latitude": 22.9097, "Longitude": 120.2007, "IVRNo": 1065, "EXTVoiceNo": 9194, "traveltime": 0, "holidayTraveltime": 0}, {"Id": "9195", "pgp": 0, "GoBack": 1, "SID": 10887, "NameZh": "\u8349\u4ed4\u5bee-\u6e56\u5167", "RouteId": 871, "SeqNo": 40, "Terminal": 0, "DistrictId": 1, "Latitude": 22.91198, "Longitude": 120.19561, "IVRNo": 631, "EXTVoiceNo": 9195, "traveltime": 0, "holidayTraveltime": 0}, {"Id": "9196", "pgp": 0, "GoBack": 1, "SID": 10888, "NameZh": "\u767d\u7802\u5d19", "RouteId": 871, "SeqNo": 41, "Terminal": 0, "DistrictId": 1, "Latitude": 22.91285, "Longitude": 120.18513, "IVRNo": 9672, "EXTVoiceNo": 9196, "traveltime": 0, "holidayTraveltime": 0}, {"Id": "9197", "pgp": 0, "GoBack": 1, "SID": 10889, "NameZh": "\u5357\u767d\u7802\u5d19", "RouteId": 871, "SeqNo": 42, "Terminal": 0, "DistrictId": 1, "Latitude": 22.9109, "Longitude": 120.18473, "IVRNo": 9673, "EXTVoiceNo": 9197, "traveltime": 0, "holidayTraveltime": 0}, {"Id": "9251", "pgp": 0, "GoBack": 1, "SID": 10890, "NameZh": "\u767d\u96f2\u5bfa", "RouteId": 871, "SeqNo": 43, "Terminal": 1, "DistrictId": 1, "Latitude": 22.90936, "Longitude": 120.18432, "IVRNo": 9896, "EXTVoiceNo": 9251, "traveltime": 0, "holidayTraveltime": 0}, {"Id": "9198", "pgp": 0, "GoBack": 2, "SID": 10891, "NameZh": "\u8304\u8423\u5340\u516c\u6240(\u8304\u8423\u570b\u4e2d)", "RouteId": 871, "SeqNo": 1, "Terminal": 0, "DistrictId": 1, "Latitude": 22.90635, "Longitude": 120.18366, "IVRNo": 9828, "EXTVoiceNo": 9198, "traveltime": 0, "holidayTraveltime": 0}, {"Id": "9252", "pgp": 0, "GoBack": 2, "SID": 10892, "NameZh": "\u8304\u8423\u570b\u5c0f", "RouteId": 871, "SeqNo": 2, "Terminal": 0, "DistrictId": 1, "Latitude": 22.90363, "Longitude": 120.18369, "IVRNo": 640, "EXTVoiceNo": 9252, "traveltime": 0, "holidayTraveltime": 0}, {"Id": "9253", "pgp": 0, "GoBack": 2, "SID": 10893, "NameZh": "\u66fe\u539d", "RouteId": 871, "SeqNo": 3, "Terminal": 0, "DistrictId": 1, "Latitude": 22.9012, "Longitude": 120.18405, "IVRNo": 9830, "EXTVoiceNo": 9253, "traveltime": 0, "holidayTraveltime": 0}, {"Id": "9254", "pgp": 0, "GoBack": 2, "SID": 10977, "NameZh": "\u9802\u8304\u8423", "RouteId": 871, "SeqNo": 4, "Terminal": 0, "DistrictId": 1, "Latitude": 22.89818, "Longitude": 120.18468, "IVRNo": 641, "EXTVoiceNo": 9254, "traveltime": 0, "holidayTraveltime": 0}, {"Id": "9255", "pgp": 0, "GoBack": 2, "SID": 10978, "NameZh": "\u8304\u8423\u8fb2\u6703(\u4e0b\u8304\u8423)", "RouteId": 871, "SeqNo": 5, "Terminal": 0, "DistrictId": 1, "Latitude": 22.89594, "Longitude": 120.18501, "IVRNo": 9832, "EXTVoiceNo": 9255, "traveltime": 0, "holidayTraveltime": 0}, {"Id": "9256", "pgp": 0, "GoBack": 2, "SID": 10980, "NameZh": "\u5149\u8423", "RouteId": 871, "SeqNo": 6, "Terminal": 0, "DistrictId": 1, "Latitude": 22.89282, "Longitude": 120.18632, "IVRNo": 9833, "EXTVoiceNo": 9256, "traveltime": 0, "holidayTraveltime": 0}, {"Id": "9257", "pgp": 0, "GoBack": 2, "SID": 10981, "NameZh": "\u6210\u529f\u6a4b", "RouteId": 871, "SeqNo": 7, "Terminal": 0, "DistrictId": 1, "Latitude": 22.88991, "Longitude": 120.18697, "IVRNo": 9834, "EXTVoiceNo": 9257, "traveltime": 0, "holidayTraveltime": 0}, {"Id": "9258", "pgp": 0, "GoBack": 2, "SID": 10982, "NameZh": "\u6ff1\u6d77\u8def\u4e00\u6bb5", "RouteId": 871, "SeqNo": 8, "Terminal": 0, "DistrictId": 1, "Latitude": 22.88441, "Longitude": 120.18665, "IVRNo": 9835, "EXTVoiceNo": 9258, "traveltime": 0, "holidayTraveltime": 0}, {"Id": "9259", "pgp": 0, "GoBack": 2, "SID": 10983, "NameZh": "\u5d0e\u6f0f", "RouteId": 871, "SeqNo": 9, "Terminal": 0, "DistrictId": 1, "Latitude": 22.87751, "Longitude": 120.18896, "IVRNo": 9836, "EXTVoiceNo": 9259, "traveltime": 0, "holidayTraveltime": 0}, {"Id": "9260", "pgp": 0, "GoBack": 2, "SID": 10984, "NameZh": "\u5d0e\u6f0f\u8fb2\u6703\u6d3b\u52d5\u4e2d\u5fc3", "RouteId": 871, "SeqNo": 10, "Terminal": 0, "DistrictId": 1, "Latitude": 22.87313, "Longitude": 120.19062, "IVRNo": 9837, "EXTVoiceNo": 9260, "traveltime": 0, "holidayTraveltime": 0}, {"Id": "9261", "pgp": 0, "GoBack": 2, "SID": 10985, "NameZh": "\u8208\u9054\u6e2f\u89c0\u5149\u9b5a\u5e02", "RouteId": 871, "SeqNo": 11, "Terminal": 0, "DistrictId": 1, "Latitude": 22.87106, "Longitude": 120.19279, "IVRNo": 9838, "EXTVoiceNo": 9261, "traveltime": 0, "holidayTraveltime": 0}, {"Id": "3225", "pgp": 0, "GoBack": 2, "SID": 10986, "NameZh": "\u5d0e\u6f0f\u96fb\u4fe1\u5c40", "RouteId": 871, "SeqNo": 12, "Terminal": 0, "DistrictId": 1, "Latitude": 22.87461, "Longitude": 120.19409, "IVRNo": 11366, "EXTVoiceNo": 3225, "traveltime": 0, "holidayTraveltime": 0}, {"Id": "9263", "pgp": 0, "GoBack": 2, "SID": 10987, "NameZh": "\u8208\u9054\u570b\u5c0f", "RouteId": 871, "SeqNo": 13, "Terminal": 0, "DistrictId": 1, "Latitude": 22.87543, "Longitude": 120.19685, "IVRNo": 9840, "EXTVoiceNo": 9263, "traveltime": 0, "holidayTraveltime": 0}, {"Id": "9264", "pgp": 0, "GoBack": 2, "SID": 10988, "NameZh": "\u8208\u9054\u6e2f\u6d77\u5de1\u7f72\u57fa\u5730", "RouteId": 871, "SeqNo": 14, "Terminal": 0, "DistrictId": 1, "Latitude": 22.87613, "Longitude": 120.20114, "IVRNo": 9455, "EXTVoiceNo": 9264, "traveltime": 0, "holidayTraveltime": 0}, {"Id": "9265", "pgp": 0, "GoBack": 2, "SID": 10989, "NameZh": "\u8208\u9054\u6e2f(\u6b63\u5927\u8def)", "RouteId": 871, "SeqNo": 15, "Terminal": 0, "DistrictId": 1, "Latitude": 22.87834, "Longitude": 120.20382, "IVRNo": 9841, "EXTVoiceNo": 9265, "traveltime": 0, "holidayTraveltime": 0}, {"Id": "9266", "pgp": 0, "GoBack": 2, "SID": 10991, "NameZh": "\u60c5\u4eba\u78bc\u982d", "RouteId": 871, "SeqNo": 16, "Terminal": 0, "DistrictId": 1, "Latitude": 22.8806, "Longitude": 120.21124, "IVRNo": 9842, "EXTVoiceNo": 9266, "traveltime": 0, "holidayTraveltime": 0}, {"Id": "9267", "pgp": 0, "GoBack": 2, "SID": 10992, "NameZh": "\u5047\u65e5\u5e02\u96c6", "RouteId": 871, "SeqNo": 17, "Terminal": 0, "DistrictId": 1, "Latitude": 22.87944, "Longitude": 120.21391, "IVRNo": 9456, "EXTVoiceNo": 9267, "traveltime": 0, "holidayTraveltime": 0}, {"Id": "9268", "pgp": 0, "GoBack": 2, "SID": 10993, "NameZh": "\u8208\u9054\u9060\u6d0b\u6f01\u6e2f", "RouteId": 871, "SeqNo": 18, "Terminal": 0, "DistrictId": 1, "Latitude": 22.87734, "Longitude": 120.21397, "IVRNo": 905, "EXTVoiceNo": 9268, "traveltime": 0, "holidayTraveltime": 0}, {"Id": "6097", "pgp": 0, "GoBack": 2, "SID": 14843, "NameZh": "\u6771\u65b9\u8def2\u5df7\u53e3", "RouteId": 871, "SeqNo": 19, "Terminal": 0, "DistrictId": 1, "Latitude": 22.876263, "Longitude": 120.218162, "IVRNo": 782, "EXTVoiceNo": 26097, "traveltime": 0, "holidayTraveltime": 0}, {"Id": "9269", "pgp": 0, "GoBack": 2, "SID": 10994, "NameZh": "\u6c11\u65cf\u8857\u53e3", "RouteId": 871, "SeqNo": 20, "Terminal": 0, "DistrictId": 1, "Latitude": 22.87811, "Longitude": 120.23177, "IVRNo": 9914, "EXTVoiceNo": 9269, "traveltime": 0, "holidayTraveltime": 0}, {"Id": "9270", "pgp": 0, "GoBack": 2, "SID": 10995, "NameZh": "\u660e\u5be7\u9756\u738b\u516c\u5712", "RouteId": 871, "SeqNo": 21, "Terminal": 0, "DistrictId": 1, "Latitude": 22.8786, "Longitude": 120.23939, "IVRNo": 9845, "EXTVoiceNo": 9270, "traveltime": 0, "holidayTraveltime": 0}, {"Id": "9271", "pgp": 0, "GoBack": 2, "SID": 10996, "NameZh": "\u6771\u65b9\u8a2d\u8a08\u5b78\u9662", "RouteId": 871, "SeqNo": 22, "Terminal": 0, "DistrictId": 1, "Latitude": 22.87966, "Longitude": 120.24826, "IVRNo": 9846, "EXTVoiceNo": 9271, "traveltime": 0, "holidayTraveltime": 0}, {"Id": "9180", "pgp": 0, "GoBack": 2, "SID": 10997, "NameZh": "\u5927\u6e56\u706b\u8eca\u7ad9", "RouteId": 871, "SeqNo": 23, "Terminal": 0, "DistrictId": 1, "Latitude": 22.87783, "Longitude": 120.25211, "IVRNo": 9657, "EXTVoiceNo": 9180, "traveltime": 0, "holidayTraveltime": 0}, {"Id": "9179", "pgp": 0, "GoBack": 2, "SID": 10998, "NameZh": "\u6a39\u4eba\u91ab\u6821", "RouteId": 871, "SeqNo": 24, "Terminal": 0, "DistrictId": 1, "Latitude": 22.87393, "Longitude": 120.25383, "IVRNo": 9656, "EXTVoiceNo": 9179, "traveltime": 0, "holidayTraveltime": 0}, {"Id": "9178", "pgp": 0, "GoBack": 2, "SID": 10923, "NameZh": "\u9ad8\u65b0\u91ab\u9662", "RouteId": 871, "SeqNo": 25, "Terminal": 0, "DistrictId": 1, "Latitude": 22.86598, "Longitude": 120.25641, "IVRNo": 9655, "EXTVoiceNo": 9178, "traveltime": 0, "holidayTraveltime": 0}, {"Id": "9177", "pgp": 0, "GoBack": 2, "SID": 10924, "NameZh": "\u5317\u8def\u7af9", "RouteId": 871, "SeqNo": 26, "Terminal": 0, "DistrictId": 1, "Latitude": 22.86238, "Longitude": 120.25811, "IVRNo": 9654, "EXTVoiceNo": 9177, "traveltime": 0, "holidayTraveltime": 0}, {"Id": "9176", "pgp": 0, "GoBack": 2, "SID": 10926, "NameZh": "\u8def\u7af9", "RouteId": 871, "SeqNo": 27, "Terminal": 0, "DistrictId": 1, "Latitude": 22.8595, "Longitude": 120.25991, "IVRNo": 9653, "EXTVoiceNo": 9176, "traveltime": 0, "holidayTraveltime": 0}, {"Id": "9175", "pgp": 0, "GoBack": 2, "SID": 11068, "NameZh": "\u8def\u7af9\u5340\u516c\u6240(\u4e2d\u5c71\u8def)", "RouteId": 871, "SeqNo": 28, "Terminal": 0, "DistrictId": 1, "Latitude": 22.855199, "Longitude": 120.261003, "IVRNo": 829, "EXTVoiceNo": 9175, "traveltime": 0, "holidayTraveltime": 0}, {"Id": "9174", "pgp": 0, "GoBack": 2, "SID": 10928, "NameZh": "\u6771\u76df\u516c\u53f8", "RouteId": 871, "SeqNo": 29, "Terminal": 0, "DistrictId": 1, "Latitude": 22.84906, "Longitude": 120.26211, "IVRNo": 9651, "EXTVoiceNo": 9174, "traveltime": 0, "holidayTraveltime": 0}, {"Id": "9173", "pgp": 0, "GoBack": 2, "SID": 10929, "NameZh": "\u9ad8\u82d1\u79d1\u5927", "RouteId": 871, "SeqNo": 30, "Terminal": 0, "DistrictId": 1, "Latitude": 22.84061, "Longitude": 120.26376, "IVRNo": 9650, "EXTVoiceNo": 9173, "traveltime": 0, "holidayTraveltime": 0}, {"Id": "9172", "pgp": 0, "GoBack": 2, "SID": 10930, "NameZh": "\u5473\u5168\u516c\u53f8", "RouteId": 871, "SeqNo": 31, "Terminal": 0, "DistrictId": 1, "Latitude": 22.82738, "Longitude": 120.26628, "IVRNo": 9649, "EXTVoiceNo": 9172, "traveltime": 0, "holidayTraveltime": 0}, {"Id": "9171", "pgp": 0, "GoBack": 2, "SID": 10931, "NameZh": "\u5317\u5dba\u5898", "RouteId": 871, "SeqNo": 32, "Terminal": 0, "DistrictId": 1, "Latitude": 22.82085, "Longitude": 120.26948, "IVRNo": 9648, "EXTVoiceNo": 9171, "traveltime": 0, "holidayTraveltime": 0}, {"Id": "9170", "pgp": 0, "GoBack": 2, "SID": 10932, "NameZh": "\u53f0\u6ce5\u516c\u53f8", "RouteId": 871, "SeqNo": 33, "Terminal": 0, "DistrictId": 1, "Latitude": 22.81695, "Longitude": 120.27386, "IVRNo": 9647, "EXTVoiceNo": 9170, "traveltime": 0, "holidayTraveltime": 0}, {"Id": "9169", "pgp": 0, "GoBack": 2, "SID": 10933, "NameZh": "\u80b2\u5fb7\u8857\u53e3", "RouteId": 871, "SeqNo": 34, "Terminal": 0, "DistrictId": 1, "Latitude": 22.81153, "Longitude": 120.27986, "IVRNo": 9646, "EXTVoiceNo": 9169, "traveltime": 0, "holidayTraveltime": 0}, {"Id": "3447", "pgp": 0, "GoBack": 2, "SID": 10934, "NameZh": "\u7063\u5b50\u5167(\u5ca1\u5c71)", "RouteId": 871, "SeqNo": 35, "Terminal": 0, "DistrictId": 1, "Latitude": 22.809597, "Longitude": 120.282279, "IVRNo": 616, "EXTVoiceNo": 13447, "traveltime": 0, "holidayTraveltime": 0}, {"Id": "9167", "pgp": 0, "GoBack": 2, "SID": 10935, "NameZh": "\u6148\u6fdf\u5927\u5b78\u63a8\u5ee3\u4e2d\u5fc3", "RouteId": 871, "SeqNo": 36, "Terminal": 0, "DistrictId": 1, "Latitude": 22.80685, "Longitude": 120.28546, "IVRNo": 9644, "EXTVoiceNo": 9167, "traveltime": 0, "holidayTraveltime": 0}, {"Id": "9166", "pgp": 0, "GoBack": 2, "SID": 11148, "NameZh": "\u5ca1\u5c71\u8fb2\u5de5", "RouteId": 871, "SeqNo": 37, "Terminal": 0, "DistrictId": 1, "Latitude": 22.80206, "Longitude": 120.2913, "IVRNo": 874, "EXTVoiceNo": 9166, "traveltime": 0, "holidayTraveltime": 0}, {"Id": "9134", "pgp": 0, "GoBack": 2, "SID": 11149, "NameZh": "\u5ca1\u5c71\u5340\u516c\u6240", "RouteId": 871, "SeqNo": 38, "Terminal": 0, "DistrictId": 1, "Latitude": 22.798619, "Longitude": 120.295186, "IVRNo": 9570, "EXTVoiceNo": 9134, "traveltime": 0, "holidayTraveltime": 0}, {"Id": "9133", "pgp": 0, "GoBack": 2, "SID": 10782, "NameZh": "\u5ca1\u5c71\u8fb2\u6703", "RouteId": 871, "SeqNo": 39, "Terminal": 0, "DistrictId": 1, "Latitude": 22.79533, "Longitude": 120.29563, "IVRNo": 9569, "EXTVoiceNo": 9133, "traveltime": 0, "holidayTraveltime": 0}, {"Id": "0230", "pgp": 0, "GoBack": 2, "SID": 11573, "NameZh": "\u6587\u8ce2\u5e02\u5834", "RouteId": 871, "SeqNo": 40, "Terminal": 0, "DistrictId": 1, "Latitude": 22.794142, "Longitude": 120.295901, "IVRNo": 8308, "EXTVoiceNo": 20230, "traveltime": 0, "holidayTraveltime": 0}, {"Id": "9130", "pgp": 0, "GoBack": 2, "SID": 10784, "NameZh": "\u5ca1\u5c71\u90f5\u5c40(\u6c11\u6709\u8def)", "RouteId": 871, "SeqNo": 41, "Terminal": 0, "DistrictId": 1, "Latitude": 22.79199, "Longitude": 120.296703, "IVRNo": 9566, "EXTVoiceNo": 9130, "traveltime": 0, "holidayTraveltime": 0}, {"Id": "0832", "pgp": 0, "GoBack": 2, "SID": 17378, "NameZh": "\u5ca1\u5c71\u8f49\u904b\u7ad9(\u5ca1\u5c71\u706b\u8eca\u7ad9)", "RouteId": 871, "SeqNo": 42, "Terminal": 0, "DistrictId": 1, "Latitude": 22.792356, "Longitude": 120.299569, "IVRNo": 832, "EXTVoiceNo": 832, "traveltime": 0, "holidayTraveltime": 0}, {"Id": "9129", "pgp": 0, "GoBack": 2, "SID": 10786, "NameZh": "\u6587\u5316\u8857\u53e3", "RouteId": 871, "SeqNo": 43, "Terminal": 0, "DistrictId": 1, "Latitude": 22.78768, "Longitude": 120.29661, "IVRNo": 9565, "EXTVoiceNo": 9129, "traveltime": 0, "holidayTraveltime": 0}, {"Id": "0489", "pgp": 0, "GoBack": 2, "SID": 18210, "NameZh": "\u6cb3\u5824\u8def\u53e3(\u5ca1\u5c71\u8def)", "RouteId": 871, "SeqNo": 44, "Terminal": 0, "DistrictId": 1, "Latitude": 22.785923, "Longitude": 120.296816, "IVRNo": 2041, "EXTVoiceNo": 20489, "traveltime": 0, "holidayTraveltime": 0}, {"Id": "1110", "pgp": 0, "GoBack": 2, "SID": 10787, "NameZh": "\u5ca1\u5c71\u6587\u5316\u4e2d\u5fc3", "RouteId": 871, "SeqNo": 45, "Terminal": 0, "DistrictId": 1, "Latitude": 22.78411, "Longitude": 120.2971, "IVRNo": 9564, "EXTVoiceNo": 21110, "traveltime": 0, "holidayTraveltime": 0}, {"Id": "0828", "pgp": 0, "GoBack": 2, "SID": 13364, "NameZh": "\u6377\u904b\u5357\u5ca1\u5c71\u7ad9", "RouteId": 871, "SeqNo": 46, "Terminal": 1, "DistrictId": 1, "Latitude": 22.780347, "Longitude": 120.300666, "IVRNo": 828, "EXTVoiceNo": 828, "traveltime": 0, "holidayTraveltime": 0}]}