{"en": [{"Id": "1710", "pgp": 0, "GoBack": 1, "SID": 6578, "NameZh": "Siliao", "RouteId": 9211, "SeqNo": 1, "Terminal": 0, "DistrictId": 1, "Latitude": 22.626945, "Longitude": 120.41728, "IVRNo": 11710, "EXTVoiceNo": 11710, "traveltime": 0, "holidayTraveltime": 0}, {"Id": "1056", "pgp": 0, "GoBack": 1, "SID": 11606, "NameZh": "Siliao Community", "RouteId": 9211, "SeqNo": 2, "Terminal": 0, "DistrictId": 1, "Latitude": 22.629505, "Longitude": 120.417985, "IVRNo": 1048, "EXTVoiceNo": 1056, "traveltime": 0, "holidayTraveltime": 0}, {"Id": "0135", "pgp": 0, "GoBack": 1, "SID": 1841, "NameZh": "Yuetian Temple", "RouteId": 9211, "SeqNo": 3, "Terminal": 0, "DistrictId": 1, "Latitude": 22.62542, "Longitude": 120.410003, "IVRNo": 1067, "EXTVoiceNo": 135, "traveltime": 0, "holidayTraveltime": 0}, {"Id": "1258", "pgp": 0, "GoBack": 1, "SID": 6581, "NameZh": "Wongyuan Elementary School", "RouteId": 9211, "SeqNo": 4, "Terminal": 0, "DistrictId": 1, "Latitude": 22.62356, "Longitude": 120.40876, "IVRNo": 11258, "EXTVoiceNo": 11258, "traveltime": 0, "holidayTraveltime": 0}, {"Id": "1506", "pgp": 0, "GoBack": 1, "SID": 6582, "NameZh": "Chaofong Temple", "RouteId": 9211, "SeqNo": 5, "Terminal": 0, "DistrictId": 1, "Latitude": 22.61958, "Longitude": 120.40932, "IVRNo": 11506, "EXTVoiceNo": 11506, "traveltime": 0, "holidayTraveltime": 0}, {"Id": "1112", "pgp": 0, "GoBack": 1, "SID": 6583, "NameZh": "Siangwei Rd.", "RouteId": 9211, "SeqNo": 6, "Terminal": 0, "DistrictId": 1, "Latitude": 22.618356, "Longitude": 120.409973, "IVRNo": 11112, "EXTVoiceNo": 11112, "traveltime": 0, "holidayTraveltime": 0}, {"Id": "1561", "pgp": 0, "GoBack": 1, "SID": 6584, "NameZh": "Huangcuo Rd.", "RouteId": 9211, "SeqNo": 7, "Terminal": 0, "DistrictId": 1, "Latitude": 22.61625, "Longitude": 120.40887, "IVRNo": 11561, "EXTVoiceNo": 11561, "traveltime": 0, "holidayTraveltime": 0}, {"Id": "0982", "pgp": 0, "GoBack": 1, "SID": 6585, "NameZh": "Wuhou Temple", "RouteId": 9211, "SeqNo": 8, "Terminal": 0, "DistrictId": 1, "Latitude": 22.61423, "Longitude": 120.41156, "IVRNo": 10982, "EXTVoiceNo": 10982, "traveltime": 0, "holidayTraveltime": 0}, {"Id": "0131", "pgp": 0, "GoBack": 1, "SID": 18448, "NameZh": "Singlong Rd. Intersection", "RouteId": 9211, "SeqNo": 9, "Terminal": 0, "DistrictId": 1, "Latitude": 22.612634, "Longitude": 120.410697, "IVRNo": 996, "EXTVoiceNo": 131, "traveltime": 0, "holidayTraveltime": 0}, {"Id": "0772", "pgp": 0, "GoBack": 1, "SID": 6587, "NameZh": "Jhufong Temple", "RouteId": 9211, "SeqNo": 10, "Terminal": 0, "DistrictId": 1, "Latitude": 22.61354, "Longitude": 120.40796, "IVRNo": 59, "EXTVoiceNo": 10772, "traveltime": 0, "holidayTraveltime": 0}, {"Id": "0681", "pgp": 0, "GoBack": 1, "SID": 6588, "NameZh": "Yongfang Rd. Intersection", "RouteId": 9211, "SeqNo": 11, "Terminal": 0, "DistrictId": 1, "Latitude": 22.61391, "Longitude": 120.40515, "IVRNo": 919, "EXTVoiceNo": 10681, "traveltime": 0, "holidayTraveltime": 0}, {"Id": "1222", "pgp": 0, "GoBack": 1, "SID": 6589, "NameZh": "Neisi", "RouteId": 9211, "SeqNo": 12, "Terminal": 0, "DistrictId": 1, "Latitude": 22.61356, "Longitude": 120.400581, "IVRNo": 921, "EXTVoiceNo": 21222, "traveltime": 0, "holidayTraveltime": 0}, {"Id": "0169", "pgp": 0, "GoBack": 1, "SID": 6590, "NameZh": "Jhongsing (Wandan Rd.)", "RouteId": 9211, "SeqNo": 13, "Terminal": 0, "DistrictId": 1, "Latitude": 22.61309, "Longitude": 120.39677, "IVRNo": 1243, "EXTVoiceNo": 20169, "traveltime": 0, "holidayTraveltime": 0}, {"Id": "5532", "pgp": 0, "GoBack": 1, "SID": 18449, "NameZh": "Zihyou Rd. Intersection (Daliao)", "RouteId": 9211, "SeqNo": 14, "Terminal": 0, "DistrictId": 1, "Latitude": 22.616853, "Longitude": 120.392223, "IVRNo": 5532, "EXTVoiceNo": 5532, "traveltime": 0, "holidayTraveltime": 0}, {"Id": "2155", "pgp": 0, "GoBack": 1, "SID": 13018, "NameZh": "MRT Daliao Station", "RouteId": 9211, "SeqNo": 15, "Terminal": 1, "DistrictId": 1, "Latitude": 22.62125, "Longitude": 120.39203, "IVRNo": 488, "EXTVoiceNo": 12155, "traveltime": 0, "holidayTraveltime": 0}, {"Id": "2155", "pgp": 0, "GoBack": 2, "SID": 13053, "NameZh": "MRT Daliao Station", "RouteId": 9211, "SeqNo": 1, "Terminal": 0, "DistrictId": 1, "Latitude": 22.62125, "Longitude": 120.39203, "IVRNo": 488, "EXTVoiceNo": 12155, "traveltime": 0, "holidayTraveltime": 0}, {"Id": "5532", "pgp": 0, "GoBack": 2, "SID": 18452, "NameZh": "Zihyou Rd. Intersection (Daliao)", "RouteId": 9211, "SeqNo": 2, "Terminal": 0, "DistrictId": 1, "Latitude": 22.617136, "Longitude": 120.391703, "IVRNo": 5532, "EXTVoiceNo": 5532, "traveltime": 0, "holidayTraveltime": 0}, {"Id": "0169", "pgp": 0, "GoBack": 2, "SID": 6567, "NameZh": "Jhongsing (Wandan Rd.)", "RouteId": 9211, "SeqNo": 3, "Terminal": 0, "DistrictId": 1, "Latitude": 22.61294, "Longitude": 120.39655, "IVRNo": 1243, "EXTVoiceNo": 20169, "traveltime": 0, "holidayTraveltime": 0}, {"Id": "1222", "pgp": 0, "GoBack": 2, "SID": 6568, "NameZh": "Neisi", "RouteId": 9211, "SeqNo": 4, "Terminal": 0, "DistrictId": 1, "Latitude": 22.61339, "Longitude": 120.4006, "IVRNo": 921, "EXTVoiceNo": 21222, "traveltime": 0, "holidayTraveltime": 0}, {"Id": "0681", "pgp": 0, "GoBack": 2, "SID": 6569, "NameZh": "Yongfang Rd. Intersection", "RouteId": 9211, "SeqNo": 5, "Terminal": 0, "DistrictId": 1, "Latitude": 22.61398, "Longitude": 120.4053, "IVRNo": 919, "EXTVoiceNo": 10681, "traveltime": 0, "holidayTraveltime": 0}, {"Id": "0136", "pgp": 0, "GoBack": 2, "SID": 1861, "NameZh": "Yongfang Village", "RouteId": 9211, "SeqNo": 6, "Terminal": 0, "DistrictId": 1, "Latitude": 22.615298, "Longitude": 120.406226, "IVRNo": 1101, "EXTVoiceNo": 136, "traveltime": 0, "holidayTraveltime": 0}, {"Id": "0137", "pgp": 0, "GoBack": 2, "SID": 1960, "NameZh": "Siangwei", "RouteId": 9211, "SeqNo": 7, "Terminal": 0, "DistrictId": 1, "Latitude": 22.618289, "Longitude": 120.408179, "IVRNo": 1102, "EXTVoiceNo": 137, "traveltime": 0, "holidayTraveltime": 0}, {"Id": "1258", "pgp": 0, "GoBack": 2, "SID": 6576, "NameZh": "Wongyuan Elementary School", "RouteId": 9211, "SeqNo": 8, "Terminal": 0, "DistrictId": 1, "Latitude": 22.6225, "Longitude": 120.40902, "IVRNo": 11258, "EXTVoiceNo": 11258, "traveltime": 0, "holidayTraveltime": 0}, {"Id": "0135", "pgp": 0, "GoBack": 2, "SID": 1848, "NameZh": "Yuetian Temple", "RouteId": 9211, "SeqNo": 9, "Terminal": 1, "DistrictId": 1, "Latitude": 22.62542, "Longitude": 120.410003, "IVRNo": 1067, "EXTVoiceNo": 135, "traveltime": 0, "holidayTraveltime": 0}], "zh": [{"Id": "1710", "pgp": 0, "GoBack": 1, "SID": 6578, "NameZh": "\u6eaa\u5bee", "RouteId": 9211, "SeqNo": 1, "Terminal": 0, "DistrictId": 1, "Latitude": 22.626945, "Longitude": 120.41728, "IVRNo": 11710, "EXTVoiceNo": 11710, "traveltime": 0, "holidayTraveltime": 0}, {"Id": "1056", "pgp": 0, "GoBack": 1, "SID": 11606, "NameZh": "\u6eaa\u5bee\u793e\u5340", "RouteId": 9211, "SeqNo": 2, "Terminal": 0, "DistrictId": 1, "Latitude": 22.629505, "Longitude": 120.417985, "IVRNo": 1048, "EXTVoiceNo": 1056, "traveltime": 0, "holidayTraveltime": 0}, {"Id": "0135", "pgp": 0, "GoBack": 1, "SID": 1841, "NameZh": "\u6708\u5929\u5bfa", "RouteId": 9211, "SeqNo": 3, "Terminal": 0, "DistrictId": 1, "Latitude": 22.62542, "Longitude": 120.410003, "IVRNo": 1067, "EXTVoiceNo": 135, "traveltime": 0, "holidayTraveltime": 0}, {"Id": "1258", "pgp": 0, "GoBack": 1, "SID": 6581, "NameZh": "\u7fc1\u5712\u570b\u5c0f", "RouteId": 9211, "SeqNo": 4, "Terminal": 0, "DistrictId": 1, "Latitude": 22.62356, "Longitude": 120.40876, "IVRNo": 11258, "EXTVoiceNo": 11258, "traveltime": 0, "holidayTraveltime": 0}, {"Id": "1506", "pgp": 0, "GoBack": 1, "SID": 6582, "NameZh": "\u671d\u9cf3\u5bae", "RouteId": 9211, "SeqNo": 5, "Terminal": 0, "DistrictId": 1, "Latitude": 22.61958, "Longitude": 120.40932, "IVRNo": 11506, "EXTVoiceNo": 11506, "traveltime": 0, "holidayTraveltime": 0}, {"Id": "1112", "pgp": 0, "GoBack": 1, "SID": 6583, "NameZh": "\u5df7\u5c3e\u8def", "RouteId": 9211, "SeqNo": 6, "Terminal": 0, "DistrictId": 1, "Latitude": 22.618356, "Longitude": 120.409973, "IVRNo": 11112, "EXTVoiceNo": 11112, "traveltime": 0, "holidayTraveltime": 0}, {"Id": "1561", "pgp": 0, "GoBack": 1, "SID": 6584, "NameZh": "\u9ec3\u539d\u8def", "RouteId": 9211, "SeqNo": 7, "Terminal": 0, "DistrictId": 1, "Latitude": 22.61625, "Longitude": 120.40887, "IVRNo": 11561, "EXTVoiceNo": 11561, "traveltime": 0, "holidayTraveltime": 0}, {"Id": "0982", "pgp": 0, "GoBack": 1, "SID": 6585, "NameZh": "\u6b66\u4faf\u5bae", "RouteId": 9211, "SeqNo": 8, "Terminal": 0, "DistrictId": 1, "Latitude": 22.61423, "Longitude": 120.41156, "IVRNo": 10982, "EXTVoiceNo": 10982, "traveltime": 0, "holidayTraveltime": 0}, {"Id": "0131", "pgp": 0, "GoBack": 1, "SID": 18448, "NameZh": "\u8208\u9686\u8def\u53e3", "RouteId": 9211, "SeqNo": 9, "Terminal": 0, "DistrictId": 1, "Latitude": 22.612634, "Longitude": 120.410697, "IVRNo": 996, "EXTVoiceNo": 131, "traveltime": 0, "holidayTraveltime": 0}, {"Id": "0772", "pgp": 0, "GoBack": 1, "SID": 6587, "NameZh": "\u6731\u5cf0\u5bae", "RouteId": 9211, "SeqNo": 10, "Terminal": 0, "DistrictId": 1, "Latitude": 22.61354, "Longitude": 120.40796, "IVRNo": 59, "EXTVoiceNo": 10772, "traveltime": 0, "holidayTraveltime": 0}, {"Id": "0681", "pgp": 0, "GoBack": 1, "SID": 6588, "NameZh": "\u6c38\u82b3\u8def\u53e3", "RouteId": 9211, "SeqNo": 11, "Terminal": 0, "DistrictId": 1, "Latitude": 22.61391, "Longitude": 120.40515, "IVRNo": 919, "EXTVoiceNo": 10681, "traveltime": 0, "holidayTraveltime": 0}, {"Id": "1222", "pgp": 0, "GoBack": 1, "SID": 6589, "NameZh": "\u5167\u6eaa", "RouteId": 9211, "SeqNo": 12, "Terminal": 0, "DistrictId": 1, "Latitude": 22.61356, "Longitude": 120.400581, "IVRNo": 921, "EXTVoiceNo": 21222, "traveltime": 0, "holidayTraveltime": 0}, {"Id": "0169", "pgp": 0, "GoBack": 1, "SID": 6590, "NameZh": "\u4e2d\u8208(\u842c\u4e39\u8def)", "RouteId": 9211, "SeqNo": 13, "Terminal": 0, "DistrictId": 1, "Latitude": 22.61309, "Longitude": 120.39677, "IVRNo": 1243, "EXTVoiceNo": 20169, "traveltime": 0, "holidayTraveltime": 0}, {"Id": "5532", "pgp": 0, "GoBack": 1, "SID": 18449, "NameZh": "\u81ea\u7531\u8def\u53e3(\u5927\u5bee)", "RouteId": 9211, "SeqNo": 14, "Terminal": 0, "DistrictId": 1, "Latitude": 22.616853, "Longitude": 120.392223, "IVRNo": 5532, "EXTVoiceNo": 5532, "traveltime": 0, "holidayTraveltime": 0}, {"Id": "2155", "pgp": 0, "GoBack": 1, "SID": 13018, "NameZh": "\u6377\u904b\u5927\u5bee\u7ad9", "RouteId": 9211, "SeqNo": 15, "Terminal": 1, "DistrictId": 1, "Latitude": 22.62125, "Longitude": 120.39203, "IVRNo": 488, "EXTVoiceNo": 12155, "traveltime": 0, "holidayTraveltime": 0}, {"Id": "2155", "pgp": 0, "GoBack": 2, "SID": 13053, "NameZh": "\u6377\u904b\u5927\u5bee\u7ad9", "RouteId": 9211, "SeqNo": 1, "Terminal": 0, "DistrictId": 1, "Latitude": 22.62125, "Longitude": 120.39203, "IVRNo": 488, "EXTVoiceNo": 12155, "traveltime": 0, "holidayTraveltime": 0}, {"Id": "5532", "pgp": 0, "GoBack": 2, "SID": 18452, "NameZh": "\u81ea\u7531\u8def\u53e3(\u5927\u5bee)", "RouteId": 9211, "SeqNo": 2, "Terminal": 0, "DistrictId": 1, "Latitude": 22.617136, "Longitude": 120.391703, "IVRNo": 5532, "EXTVoiceNo": 5532, "traveltime": 0, "holidayTraveltime": 0}, {"Id": "0169", "pgp": 0, "GoBack": 2, "SID": 6567, "NameZh": "\u4e2d\u8208(\u842c\u4e39\u8def)", "RouteId": 9211, "SeqNo": 3, "Terminal": 0, "DistrictId": 1, "Latitude": 22.61294, "Longitude": 120.39655, "IVRNo": 1243, "EXTVoiceNo": 20169, "traveltime": 0, "holidayTraveltime": 0}, {"Id": "1222", "pgp": 0, "GoBack": 2, "SID": 6568, "NameZh": "\u5167\u6eaa", "RouteId": 9211, "SeqNo": 4, "Terminal": 0, "DistrictId": 1, "Latitude": 22.61339, "Longitude": 120.4006, "IVRNo": 921, "EXTVoiceNo": 21222, "traveltime": 0, "holidayTraveltime": 0}, {"Id": "0681", "pgp": 0, "GoBack": 2, "SID": 6569, "NameZh": "\u6c38\u82b3\u8def\u53e3", "RouteId": 9211, "SeqNo": 5, "Terminal": 0, "DistrictId": 1, "Latitude": 22.61398, "Longitude": 120.4053, "IVRNo": 919, "EXTVoiceNo": 10681, "traveltime": 0, "holidayTraveltime": 0}, {"Id": "0136", "pgp": 0, "GoBack": 2, "SID": 1861, "NameZh": "\u6c38\u82b3\u91cc", "RouteId": 9211, "SeqNo": 6, "Terminal": 0, "DistrictId": 1, "Latitude": 22.615298, "Longitude": 120.406226, "IVRNo": 1101, "EXTVoiceNo": 136, "traveltime": 0, "holidayTraveltime": 0}, {"Id": "0137", "pgp": 0, "GoBack": 2, "SID": 1960, "NameZh": "\u5df7\u5c3e", "RouteId": 9211, "SeqNo": 7, "Terminal": 0, "DistrictId": 1, "Latitude": 22.618289, "Longitude": 120.408179, "IVRNo": 1102, "EXTVoiceNo": 137, "traveltime": 0, "holidayTraveltime": 0}, {"Id": "1258", "pgp": 0, "GoBack": 2, "SID": 6576, "NameZh": "\u7fc1\u5712\u570b\u5c0f", "RouteId": 9211, "SeqNo": 8, "Terminal": 0, "DistrictId": 1, "Latitude": 22.6225, "Longitude": 120.40902, "IVRNo": 11258, "EXTVoiceNo": 11258, "traveltime": 0, "holidayTraveltime": 0}, {"Id": "0135", "pgp": 0, "GoBack": 2, "SID": 1848, "NameZh": "\u6708\u5929\u5bfa", "RouteId": 9211, "SeqNo": 9, "Terminal": 1, "DistrictId": 1, "Latitude": 22.62542, "Longitude": 120.410003, "IVRNo": 1067, "EXTVoiceNo": 135, "traveltime": 0, "holidayTraveltime": 0}]}