{"en": [{"Id": "0345", "pgp": 0, "GoBack": 1, "SID": 13781, "NameZh": "Jiasian Station", "RouteId": 1122, "SeqNo": 1, "Terminal": 0, "DistrictId": 1, "Latitude": 23.082619, "Longitude": 120.5879, "IVRNo": 10704, "EXTVoiceNo": 20345, "traveltime": 0, "holidayTraveltime": 0}, {"Id": "3393", "pgp": 0, "GoBack": 1, "SID": 13784, "NameZh": "Sinrong Lane", "RouteId": 1122, "SeqNo": 2, "Terminal": 0, "DistrictId": 1, "Latitude": 23.070222, "Longitude": 120.578634, "IVRNo": 11662, "EXTVoiceNo": 13393, "traveltime": 0, "holidayTraveltime": 0}, {"Id": "3362", "pgp": 0, "GoBack": 1, "SID": 13789, "NameZh": "Paozihliao", "RouteId": 1122, "SeqNo": 3, "Terminal": 0, "DistrictId": 1, "Latitude": 23.048394, "Longitude": 120.554485, "IVRNo": 13362, "EXTVoiceNo": 13362, "traveltime": 0, "holidayTraveltime": 0}, {"Id": "0026", "pgp": 0, "GoBack": 1, "SID": 9802, "NameZh": "Shihjhangli", "RouteId": 1122, "SeqNo": 4, "Terminal": 0, "DistrictId": 1, "Latitude": 23.02256, "Longitude": 120.56293, "IVRNo": 10062, "EXTVoiceNo": 20026, "traveltime": 0, "holidayTraveltime": 0}, {"Id": "0124", "pgp": 0, "GoBack": 1, "SID": 13800, "NameZh": "Siaofenwei", "RouteId": 1122, "SeqNo": 5, "Terminal": 0, "DistrictId": 1, "Latitude": 22.999221, "Longitude": 120.573239, "IVRNo": 10241, "EXTVoiceNo": 20124, "traveltime": 0, "holidayTraveltime": 0}, {"Id": "3385", "pgp": 0, "GoBack": 1, "SID": 13806, "NameZh": "Sinjhuang Elementary School", "RouteId": 1122, "SeqNo": 6, "Terminal": 0, "DistrictId": 1, "Latitude": 22.987184, "Longitude": 120.561704, "IVRNo": 11624, "EXTVoiceNo": 13385, "traveltime": 0, "holidayTraveltime": 0}, {"Id": "3309", "pgp": 0, "GoBack": 1, "SID": 13813, "NameZh": "Shanlin District Office (Health Center)", "RouteId": 1122, "SeqNo": 7, "Terminal": 0, "DistrictId": 1, "Latitude": 22.972111, "Longitude": 120.540037, "IVRNo": 13309, "EXTVoiceNo": 13309, "traveltime": 0, "holidayTraveltime": 0}, {"Id": "3311", "pgp": 0, "GoBack": 1, "SID": 13819, "NameZh": "Shanlin Farmers` Association", "RouteId": 1122, "SeqNo": 8, "Terminal": 0, "DistrictId": 1, "Latitude": 22.964291, "Longitude": 120.532108, "IVRNo": 10854, "EXTVoiceNo": 13311, "traveltime": 0, "holidayTraveltime": 0}, {"Id": "3381", "pgp": 0, "GoBack": 1, "SID": 13825, "NameZh": "Yuantan", "RouteId": 1122, "SeqNo": 9, "Terminal": 0, "DistrictId": 1, "Latitude": 22.932545, "Longitude": 120.503275, "IVRNo": 11580, "EXTVoiceNo": 13381, "traveltime": 0, "holidayTraveltime": 0}, {"Id": "3413", "pgp": 0, "GoBack": 1, "SID": 13834, "NameZh": "Ci Shan Agricultural and Industrial Senior High School", "RouteId": 1122, "SeqNo": 10, "Terminal": 0, "DistrictId": 1, "Latitude": 22.90194, "Longitude": 120.483244, "IVRNo": 1255, "EXTVoiceNo": 13413, "traveltime": 0, "holidayTraveltime": 0}, {"Id": "9718", "pgp": 0, "GoBack": 1, "SID": 13837, "NameZh": "Yanping Rd. (Cishan District Office)", "RouteId": 1122, "SeqNo": 11, "Terminal": 0, "DistrictId": 1, "Latitude": 22.887674, "Longitude": 120.483179, "IVRNo": 9718, "EXTVoiceNo": 9718, "traveltime": 0, "holidayTraveltime": 0}, {"Id": "3412", "pgp": 0, "GoBack": 1, "SID": 13839, "NameZh": "Cishan Bus Transfer Station", "RouteId": 1122, "SeqNo": 12, "Terminal": 1, "DistrictId": 1, "Latitude": 22.8835, "Longitude": 120.48461, "IVRNo": 9717, "EXTVoiceNo": 13412, "traveltime": 0, "holidayTraveltime": 0}, {"Id": "3412", "pgp": 0, "GoBack": 2, "SID": 13906, "NameZh": "Cishan Bus Transfer Station", "RouteId": 1122, "SeqNo": 1, "Terminal": 0, "DistrictId": 1, "Latitude": 22.883438, "Longitude": 120.484586, "IVRNo": 9717, "EXTVoiceNo": 13412, "traveltime": 0, "holidayTraveltime": 0}, {"Id": "9718", "pgp": 0, "GoBack": 2, "SID": 13907, "NameZh": "Yanping Rd. (Cishan District Office)", "RouteId": 1122, "SeqNo": 2, "Terminal": 0, "DistrictId": 1, "Latitude": 22.88745, "Longitude": 120.48318, "IVRNo": 9718, "EXTVoiceNo": 9718, "traveltime": 0, "holidayTraveltime": 0}, {"Id": "3413", "pgp": 0, "GoBack": 2, "SID": 13910, "NameZh": "Ci Shan Agricultural and Industrial Senior High School", "RouteId": 1122, "SeqNo": 3, "Terminal": 0, "DistrictId": 1, "Latitude": 22.90193, "Longitude": 120.4833, "IVRNo": 1255, "EXTVoiceNo": 13413, "traveltime": 0, "holidayTraveltime": 0}, {"Id": "3381", "pgp": 0, "GoBack": 2, "SID": 13919, "NameZh": "Yuantan", "RouteId": 1122, "SeqNo": 4, "Terminal": 0, "DistrictId": 1, "Latitude": 22.93268, "Longitude": 120.50353, "IVRNo": 11580, "EXTVoiceNo": 13381, "traveltime": 0, "holidayTraveltime": 0}, {"Id": "3311", "pgp": 0, "GoBack": 2, "SID": 13925, "NameZh": "Shanlin Farmers` Association", "RouteId": 1122, "SeqNo": 5, "Terminal": 0, "DistrictId": 1, "Latitude": 22.964276, "Longitude": 120.532095, "IVRNo": 10854, "EXTVoiceNo": 13311, "traveltime": 0, "holidayTraveltime": 0}, {"Id": "3309", "pgp": 0, "GoBack": 2, "SID": 13931, "NameZh": "Shanlin District Office (Health Center)", "RouteId": 1122, "SeqNo": 6, "Terminal": 0, "DistrictId": 1, "Latitude": 22.97193, "Longitude": 120.53996, "IVRNo": 13309, "EXTVoiceNo": 13309, "traveltime": 0, "holidayTraveltime": 0}, {"Id": "3385", "pgp": 0, "GoBack": 2, "SID": 13938, "NameZh": "Sinjhuang Elementary School", "RouteId": 1122, "SeqNo": 7, "Terminal": 0, "DistrictId": 1, "Latitude": 22.98715, "Longitude": 120.56158, "IVRNo": 11624, "EXTVoiceNo": 13385, "traveltime": 0, "holidayTraveltime": 0}, {"Id": "0124", "pgp": 0, "GoBack": 2, "SID": 13944, "NameZh": "Siaofenwei", "RouteId": 1122, "SeqNo": 8, "Terminal": 0, "DistrictId": 1, "Latitude": 22.99921, "Longitude": 120.57328, "IVRNo": 10241, "EXTVoiceNo": 20124, "traveltime": 0, "holidayTraveltime": 0}, {"Id": "0026", "pgp": 0, "GoBack": 2, "SID": 9830, "NameZh": "Shihjhangli", "RouteId": 1122, "SeqNo": 9, "Terminal": 0, "DistrictId": 1, "Latitude": 23.02233, "Longitude": 120.56306, "IVRNo": 10062, "EXTVoiceNo": 20026, "traveltime": 0, "holidayTraveltime": 0}, {"Id": "3362", "pgp": 0, "GoBack": 2, "SID": 13955, "NameZh": "Paozihliao", "RouteId": 1122, "SeqNo": 10, "Terminal": 0, "DistrictId": 1, "Latitude": 23.04835, "Longitude": 120.5545, "IVRNo": 13362, "EXTVoiceNo": 13362, "traveltime": 0, "holidayTraveltime": 0}, {"Id": "3393", "pgp": 0, "GoBack": 2, "SID": 13960, "NameZh": "Sinrong Lane", "RouteId": 1122, "SeqNo": 11, "Terminal": 0, "DistrictId": 1, "Latitude": 23.07026, "Longitude": 120.57868, "IVRNo": 11662, "EXTVoiceNo": 13393, "traveltime": 0, "holidayTraveltime": 0}, {"Id": "0345", "pgp": 0, "GoBack": 2, "SID": 13963, "NameZh": "Jiasian Station", "RouteId": 1122, "SeqNo": 12, "Terminal": 1, "DistrictId": 1, "Latitude": 23.082619, "Longitude": 120.5879, "IVRNo": 10704, "EXTVoiceNo": 20345, "traveltime": 0, "holidayTraveltime": 0}], "zh": [{"Id": "0345", "pgp": 0, "GoBack": 1, "SID": 13781, "NameZh": "\u7532\u4ed9\u7ad9", "RouteId": 1122, "SeqNo": 1, "Terminal": 0, "DistrictId": 1, "Latitude": 23.082619, "Longitude": 120.5879, "IVRNo": 10704, "EXTVoiceNo": 20345, "traveltime": 0, "holidayTraveltime": 0}, {"Id": "3393", "pgp": 0, "GoBack": 1, "SID": 13784, "NameZh": "\u65b0\u69ae\u5df7", "RouteId": 1122, "SeqNo": 2, "Terminal": 0, "DistrictId": 1, "Latitude": 23.070222, "Longitude": 120.578634, "IVRNo": 11662, "EXTVoiceNo": 13393, "traveltime": 0, "holidayTraveltime": 0}, {"Id": "3362", "pgp": 0, "GoBack": 1, "SID": 13789, "NameZh": "\u530f\u5b50\u5bee", "RouteId": 1122, "SeqNo": 3, "Terminal": 0, "DistrictId": 1, "Latitude": 23.048394, "Longitude": 120.554485, "IVRNo": 13362, "EXTVoiceNo": 13362, "traveltime": 0, "holidayTraveltime": 0}, {"Id": "0026", "pgp": 0, "GoBack": 1, "SID": 9802, "NameZh": "\u5341\u5f35\u7281", "RouteId": 1122, "SeqNo": 4, "Terminal": 0, "DistrictId": 1, "Latitude": 23.02256, "Longitude": 120.56293, "IVRNo": 10062, "EXTVoiceNo": 20026, "traveltime": 0, "holidayTraveltime": 0}, {"Id": "0124", "pgp": 0, "GoBack": 1, "SID": 13800, "NameZh": "\u5c0f\u4efd\u5c3e", "RouteId": 1122, "SeqNo": 5, "Terminal": 0, "DistrictId": 1, "Latitude": 22.999221, "Longitude": 120.573239, "IVRNo": 10241, "EXTVoiceNo": 20124, "traveltime": 0, "holidayTraveltime": 0}, {"Id": "3385", "pgp": 0, "GoBack": 1, "SID": 13806, "NameZh": "\u65b0\u5e84\u570b\u5c0f", "RouteId": 1122, "SeqNo": 6, "Terminal": 0, "DistrictId": 1, "Latitude": 22.987184, "Longitude": 120.561704, "IVRNo": 11624, "EXTVoiceNo": 13385, "traveltime": 0, "holidayTraveltime": 0}, {"Id": "3309", "pgp": 0, "GoBack": 1, "SID": 13813, "NameZh": "\u6749\u6797\u5340\u516c\u6240(\u885b\u751f\u6240)", "RouteId": 1122, "SeqNo": 7, "Terminal": 0, "DistrictId": 1, "Latitude": 22.972111, "Longitude": 120.540037, "IVRNo": 13309, "EXTVoiceNo": 13309, "traveltime": 0, "holidayTraveltime": 0}, {"Id": "3311", "pgp": 0, "GoBack": 1, "SID": 13819, "NameZh": "\u6749\u6797\u8fb2\u6703", "RouteId": 1122, "SeqNo": 8, "Terminal": 0, "DistrictId": 1, "Latitude": 22.964291, "Longitude": 120.532108, "IVRNo": 10854, "EXTVoiceNo": 13311, "traveltime": 0, "holidayTraveltime": 0}, {"Id": "3381", "pgp": 0, "GoBack": 1, "SID": 13825, "NameZh": "\u5713\u6f6d", "RouteId": 1122, "SeqNo": 9, "Terminal": 0, "DistrictId": 1, "Latitude": 22.932545, "Longitude": 120.503275, "IVRNo": 11580, "EXTVoiceNo": 13381, "traveltime": 0, "holidayTraveltime": 0}, {"Id": "3413", "pgp": 0, "GoBack": 1, "SID": 13834, "NameZh": "\u65d7\u5c71\u8fb2\u5de5", "RouteId": 1122, "SeqNo": 10, "Terminal": 0, "DistrictId": 1, "Latitude": 22.90194, "Longitude": 120.483244, "IVRNo": 1255, "EXTVoiceNo": 13413, "traveltime": 0, "holidayTraveltime": 0}, {"Id": "9718", "pgp": 0, "GoBack": 1, "SID": 13837, "NameZh": "\u5ef6\u5e73\u8def(\u65d7\u5c71\u5340\u516c\u6240)", "RouteId": 1122, "SeqNo": 11, "Terminal": 0, "DistrictId": 1, "Latitude": 22.887674, "Longitude": 120.483179, "IVRNo": 9718, "EXTVoiceNo": 9718, "traveltime": 0, "holidayTraveltime": 0}, {"Id": "3412", "pgp": 0, "GoBack": 1, "SID": 13839, "NameZh": "\u65d7\u5c71\u8f49\u904b\u7ad9", "RouteId": 1122, "SeqNo": 12, "Terminal": 1, "DistrictId": 1, "Latitude": 22.8835, "Longitude": 120.48461, "IVRNo": 9717, "EXTVoiceNo": 13412, "traveltime": 0, "holidayTraveltime": 0}, {"Id": "3412", "pgp": 0, "GoBack": 2, "SID": 13906, "NameZh": "\u65d7\u5c71\u8f49\u904b\u7ad9", "RouteId": 1122, "SeqNo": 1, "Terminal": 0, "DistrictId": 1, "Latitude": 22.883438, "Longitude": 120.484586, "IVRNo": 9717, "EXTVoiceNo": 13412, "traveltime": 0, "holidayTraveltime": 0}, {"Id": "9718", "pgp": 0, "GoBack": 2, "SID": 13907, "NameZh": "\u5ef6\u5e73\u8def(\u65d7\u5c71\u5340\u516c\u6240)", "RouteId": 1122, "SeqNo": 2, "Terminal": 0, "DistrictId": 1, "Latitude": 22.88745, "Longitude": 120.48318, "IVRNo": 9718, "EXTVoiceNo": 9718, "traveltime": 0, "holidayTraveltime": 0}, {"Id": "3413", "pgp": 0, "GoBack": 2, "SID": 13910, "NameZh": "\u65d7\u5c71\u8fb2\u5de5", "RouteId": 1122, "SeqNo": 3, "Terminal": 0, "DistrictId": 1, "Latitude": 22.90193, "Longitude": 120.4833, "IVRNo": 1255, "EXTVoiceNo": 13413, "traveltime": 0, "holidayTraveltime": 0}, {"Id": "3381", "pgp": 0, "GoBack": 2, "SID": 13919, "NameZh": "\u5713\u6f6d", "RouteId": 1122, "SeqNo": 4, "Terminal": 0, "DistrictId": 1, "Latitude": 22.93268, "Longitude": 120.50353, "IVRNo": 11580, "EXTVoiceNo": 13381, "traveltime": 0, "holidayTraveltime": 0}, {"Id": "3311", "pgp": 0, "GoBack": 2, "SID": 13925, "NameZh": "\u6749\u6797\u8fb2\u6703", "RouteId": 1122, "SeqNo": 5, "Terminal": 0, "DistrictId": 1, "Latitude": 22.964276, "Longitude": 120.532095, "IVRNo": 10854, "EXTVoiceNo": 13311, "traveltime": 0, "holidayTraveltime": 0}, {"Id": "3309", "pgp": 0, "GoBack": 2, "SID": 13931, "NameZh": "\u6749\u6797\u5340\u516c\u6240(\u885b\u751f\u6240)", "RouteId": 1122, "SeqNo": 6, "Terminal": 0, "DistrictId": 1, "Latitude": 22.97193, "Longitude": 120.53996, "IVRNo": 13309, "EXTVoiceNo": 13309, "traveltime": 0, "holidayTraveltime": 0}, {"Id": "3385", "pgp": 0, "GoBack": 2, "SID": 13938, "NameZh": "\u65b0\u5e84\u570b\u5c0f", "RouteId": 1122, "SeqNo": 7, "Terminal": 0, "DistrictId": 1, "Latitude": 22.98715, "Longitude": 120.56158, "IVRNo": 11624, "EXTVoiceNo": 13385, "traveltime": 0, "holidayTraveltime": 0}, {"Id": "0124", "pgp": 0, "GoBack": 2, "SID": 13944, "NameZh": "\u5c0f\u4efd\u5c3e", "RouteId": 1122, "SeqNo": 8, "Terminal": 0, "DistrictId": 1, "Latitude": 22.99921, "Longitude": 120.57328, "IVRNo": 10241, "EXTVoiceNo": 20124, "traveltime": 0, "holidayTraveltime": 0}, {"Id": "0026", "pgp": 0, "GoBack": 2, "SID": 9830, "NameZh": "\u5341\u5f35\u7281", "RouteId": 1122, "SeqNo": 9, "Terminal": 0, "DistrictId": 1, "Latitude": 23.02233, "Longitude": 120.56306, "IVRNo": 10062, "EXTVoiceNo": 20026, "traveltime": 0, "holidayTraveltime": 0}, {"Id": "3362", "pgp": 0, "GoBack": 2, "SID": 13955, "NameZh": "\u530f\u5b50\u5bee", "RouteId": 1122, "SeqNo": 10, "Terminal": 0, "DistrictId": 1, "Latitude": 23.04835, "Longitude": 120.5545, "IVRNo": 13362, "EXTVoiceNo": 13362, "traveltime": 0, "holidayTraveltime": 0}, {"Id": "3393", "pgp": 0, "GoBack": 2, "SID": 13960, "NameZh": "\u65b0\u69ae\u5df7", "RouteId": 1122, "SeqNo": 11, "Terminal": 0, "DistrictId": 1, "Latitude": 23.07026, "Longitude": 120.57868, "IVRNo": 11662, "EXTVoiceNo": 13393, "traveltime": 0, "holidayTraveltime": 0}, {"Id": "0345", "pgp": 0, "GoBack": 2, "SID": 13963, "NameZh": "\u7532\u4ed9\u7ad9", "RouteId": 1122, "SeqNo": 12, "Terminal": 1, "DistrictId": 1, "Latitude": 23.082619, "Longitude": 120.5879, "IVRNo": 10704, "EXTVoiceNo": 20345, "traveltime": 0, "holidayTraveltime": 0}]}