{"en": [{"Id": "0031", "pgp": 0, "GoBack": 1, "SID": 1599, "NameZh": "MRT Sizihwan Station (LRT Hamasen)", "RouteId": 9012, "SeqNo": 1, "Terminal": 0, "DistrictId": 1, "Latitude": 22.621486, "Longitude": 120.275128, "IVRNo": 30, "EXTVoiceNo": 20031, "traveltime": 0, "holidayTraveltime": 0}, {"Id": "0025", "pgp": 0, "GoBack": 1, "SID": 10533, "NameZh": "Gushan Market", "RouteId": 9012, "SeqNo": 2, "Terminal": 0, "DistrictId": 1, "Latitude": 22.622481, "Longitude": 120.272907, "IVRNo": 25, "EXTVoiceNo": 25, "traveltime": 0, "holidayTraveltime": 0}, {"Id": "4607", "pgp": 0, "GoBack": 1, "SID": 3136, "NameZh": "Taiwan International Ports Corporation Ltd. (Sizihwan Tunnel)", "RouteId": 9012, "SeqNo": 3, "Terminal": 0, "DistrictId": 1, "Latitude": 22.623998, "Longitude": 120.270298, "IVRNo": 4607, "EXTVoiceNo": 4607, "traveltime": 0, "holidayTraveltime": 0}, {"Id": "4608", "pgp": 0, "GoBack": 1, "SID": 12401, "NameZh": "Shaochuan St.", "RouteId": 9012, "SeqNo": 4, "Terminal": 0, "DistrictId": 1, "Latitude": 22.622389, "Longitude": 120.269362, "IVRNo": 4608, "EXTVoiceNo": 4608, "traveltime": 0, "holidayTraveltime": 0}, {"Id": "4609", "pgp": 0, "GoBack": 1, "SID": 3139, "NameZh": "Shaochuantou", "RouteId": 9012, "SeqNo": 5, "Terminal": 0, "DistrictId": 1, "Latitude": 22.619656, "Longitude": 120.269222, "IVRNo": 4609, "EXTVoiceNo": 4609, "traveltime": 0, "holidayTraveltime": 0}, {"Id": "8881", "pgp": 0, "GoBack": 1, "SID": 3142, "NameZh": "Syongjhen North Gate(The British Consulate at Takow)", "RouteId": 9012, "SeqNo": 6, "Terminal": 0, "DistrictId": 1, "Latitude": 22.61755, "Longitude": 120.26739, "IVRNo": 4610, "EXTVoiceNo": 8881, "traveltime": 0, "holidayTraveltime": 0}, {"Id": "4611", "pgp": 0, "GoBack": 1, "SID": 3144, "NameZh": "Sizihwan (Former British Consular Residence)", "RouteId": 9012, "SeqNo": 7, "Terminal": 0, "DistrictId": 1, "Latitude": 22.61925, "Longitude": 120.266361, "IVRNo": 4611, "EXTVoiceNo": 4611, "traveltime": 0, "holidayTraveltime": 0}, {"Id": "4631", "pgp": 0, "GoBack": 1, "SID": 3182, "NameZh": "Administration Building, National Sun Yat-sen University", "RouteId": 9012, "SeqNo": 8, "Terminal": 0, "DistrictId": 1, "Latitude": 22.62389, "Longitude": 120.26585, "IVRNo": 4630, "EXTVoiceNo": 4631, "traveltime": 0, "holidayTraveltime": 0}, {"Id": "3023", "pgp": 0, "GoBack": 1, "SID": 19246, "NameZh": "Building H", "RouteId": 9012, "SeqNo": 9, "Terminal": 0, "DistrictId": 1, "Latitude": 22.627188, "Longitude": 120.267786, "IVRNo": 33023, "EXTVoiceNo": 33023, "traveltime": 0, "holidayTraveltime": 0}, {"Id": "1141", "pgp": 0, "GoBack": 1, "SID": 19250, "NameZh": "Student Activity Center, National Sun Yat-sen University", "RouteId": 9012, "SeqNo": 10, "Terminal": 0, "DistrictId": 1, "Latitude": 22.627986, "Longitude": 120.265357, "IVRNo": 1141, "EXTVoiceNo": 1141, "traveltime": 0, "holidayTraveltime": 0}, {"Id": "4639", "pgp": 0, "GoBack": 1, "SID": 3197, "NameZh": "Wuling Rd. Intersection", "RouteId": 9012, "SeqNo": 11, "Terminal": 0, "DistrictId": 1, "Latitude": 22.62893, "Longitude": 120.26361, "IVRNo": 4639, "EXTVoiceNo": 4639, "traveltime": 0, "holidayTraveltime": 0}, {"Id": "4614", "pgp": 0, "GoBack": 1, "SID": 3147, "NameZh": "College Of Liberal Arts", "RouteId": 9012, "SeqNo": 12, "Terminal": 1, "DistrictId": 1, "Latitude": 22.633939, "Longitude": 120.260944, "IVRNo": 4614, "EXTVoiceNo": 4614, "traveltime": 0, "holidayTraveltime": 0}, {"Id": "4614", "pgp": 0, "GoBack": 2, "SID": 7930, "NameZh": "College Of Liberal Arts", "RouteId": 9012, "SeqNo": 1, "Terminal": 0, "DistrictId": 1, "Latitude": 22.633729, "Longitude": 120.26136, "IVRNo": 4614, "EXTVoiceNo": 4614, "traveltime": 0, "holidayTraveltime": 0}, {"Id": "3025", "pgp": 0, "GoBack": 2, "SID": 19247, "NameZh": "College of Marine Sciences", "RouteId": 9012, "SeqNo": 2, "Terminal": 0, "DistrictId": 1, "Latitude": 22.630215, "Longitude": 120.261973, "IVRNo": 33024, "EXTVoiceNo": 33025, "traveltime": 0, "holidayTraveltime": 0}, {"Id": "3026", "pgp": 0, "GoBack": 2, "SID": 19248, "NameZh": "Building of Marine Environment and Engineering", "RouteId": 9012, "SeqNo": 3, "Terminal": 0, "DistrictId": 1, "Latitude": 22.629293, "Longitude": 120.262143, "IVRNo": 33025, "EXTVoiceNo": 33026, "traveltime": 0, "holidayTraveltime": 0}, {"Id": "3023", "pgp": 0, "GoBack": 2, "SID": 19249, "NameZh": "Building H", "RouteId": 9012, "SeqNo": 4, "Terminal": 0, "DistrictId": 1, "Latitude": 22.627188, "Longitude": 120.267786, "IVRNo": 33023, "EXTVoiceNo": 33023, "traveltime": 0, "holidayTraveltime": 0}, {"Id": "1141", "pgp": 0, "GoBack": 2, "SID": 19251, "NameZh": "Student Activity Center, National Sun Yat-sen University", "RouteId": 9012, "SeqNo": 5, "Terminal": 0, "DistrictId": 1, "Latitude": 22.627986, "Longitude": 120.265357, "IVRNo": 1141, "EXTVoiceNo": 1141, "traveltime": 0, "holidayTraveltime": 0}, {"Id": "4631", "pgp": 0, "GoBack": 2, "SID": 3185, "NameZh": "Administration Building, National Sun Yat-sen University", "RouteId": 9012, "SeqNo": 6, "Terminal": 0, "DistrictId": 1, "Latitude": 22.623767, "Longitude": 120.265803, "IVRNo": 4630, "EXTVoiceNo": 4631, "traveltime": 0, "holidayTraveltime": 0}, {"Id": "4611", "pgp": 0, "GoBack": 2, "SID": 3158, "NameZh": "Sizihwan (Former British Consular Residence)", "RouteId": 9012, "SeqNo": 7, "Terminal": 0, "DistrictId": 1, "Latitude": 22.61966, "Longitude": 120.26626, "IVRNo": 4611, "EXTVoiceNo": 4611, "traveltime": 0, "holidayTraveltime": 0}, {"Id": "8881", "pgp": 0, "GoBack": 2, "SID": 3159, "NameZh": "Syongjhen North Gate(The British Consulate at Takow)", "RouteId": 9012, "SeqNo": 8, "Terminal": 0, "DistrictId": 1, "Latitude": 22.61755, "Longitude": 120.26739, "IVRNo": 4610, "EXTVoiceNo": 8881, "traveltime": 0, "holidayTraveltime": 0}, {"Id": "4609", "pgp": 0, "GoBack": 2, "SID": 3164, "NameZh": "Shaochuantou", "RouteId": 9012, "SeqNo": 9, "Terminal": 0, "DistrictId": 1, "Latitude": 22.619825, "Longitude": 120.269282, "IVRNo": 4609, "EXTVoiceNo": 4609, "traveltime": 0, "holidayTraveltime": 0}, {"Id": "4608", "pgp": 0, "GoBack": 2, "SID": 3165, "NameZh": "Shaochuan St.", "RouteId": 9012, "SeqNo": 10, "Terminal": 0, "DistrictId": 1, "Latitude": 22.622656, "Longitude": 120.269397, "IVRNo": 4608, "EXTVoiceNo": 4608, "traveltime": 0, "holidayTraveltime": 0}, {"Id": "4607", "pgp": 0, "GoBack": 2, "SID": 3193, "NameZh": "Taiwan International Ports Corporation Ltd. (Sizihwan Tunnel)", "RouteId": 9012, "SeqNo": 11, "Terminal": 0, "DistrictId": 1, "Latitude": 22.623823, "Longitude": 120.270435, "IVRNo": 4607, "EXTVoiceNo": 4607, "traveltime": 0, "holidayTraveltime": 0}, {"Id": "0025", "pgp": 0, "GoBack": 2, "SID": 3171, "NameZh": "Gushan Market", "RouteId": 9012, "SeqNo": 12, "Terminal": 0, "DistrictId": 1, "Latitude": 22.62245, "Longitude": 120.27283, "IVRNo": 25, "EXTVoiceNo": 25, "traveltime": 0, "holidayTraveltime": 0}, {"Id": "7124", "pgp": 0, "GoBack": 2, "SID": 3174, "NameZh": "MRT Sizihwan Station (Exit 1)", "RouteId": 9012, "SeqNo": 13, "Terminal": 0, "DistrictId": 1, "Latitude": 22.62198, "Longitude": 120.27363, "IVRNo": 68, "EXTVoiceNo": 17124, "traveltime": 0, "holidayTraveltime": 0}, {"Id": "0031", "pgp": 0, "GoBack": 2, "SID": 1599, "NameZh": "MRT Sizihwan Station (LRT Hamasen)", "RouteId": 9012, "SeqNo": 14, "Terminal": 1, "DistrictId": 1, "Latitude": 22.621486, "Longitude": 120.275128, "IVRNo": 30, "EXTVoiceNo": 20031, "traveltime": 0, "holidayTraveltime": 0}], "zh": [{"Id": "0031", "pgp": 0, "GoBack": 1, "SID": 1599, "NameZh": "\u6377\u904b\u897f\u5b50\u7063\u7ad9(\u8f15\u8ecc\u54c8\u746a\u661f\u7ad9)", "RouteId": 9012, "SeqNo": 1, "Terminal": 0, "DistrictId": 1, "Latitude": 22.621486, "Longitude": 120.275128, "IVRNo": 30, "EXTVoiceNo": 20031, "traveltime": 0, "holidayTraveltime": 0}, {"Id": "0025", "pgp": 0, "GoBack": 1, "SID": 10533, "NameZh": "\u9f13\u5c71\u5e02\u5834", "RouteId": 9012, "SeqNo": 2, "Terminal": 0, "DistrictId": 1, "Latitude": 22.622481, "Longitude": 120.272907, "IVRNo": 25, "EXTVoiceNo": 25, "traveltime": 0, "holidayTraveltime": 0}, {"Id": "4607", "pgp": 0, "GoBack": 1, "SID": 3136, "NameZh": "\u6e2f\u52d9\u516c\u53f8(\u897f\u5b50\u7063\u96a7\u9053)", "RouteId": 9012, "SeqNo": 3, "Terminal": 0, "DistrictId": 1, "Latitude": 22.623998, "Longitude": 120.270298, "IVRNo": 4607, "EXTVoiceNo": 4607, "traveltime": 0, "holidayTraveltime": 0}, {"Id": "4608", "pgp": 0, "GoBack": 1, "SID": 12401, "NameZh": "\u54e8\u8239\u8857", "RouteId": 9012, "SeqNo": 4, "Terminal": 0, "DistrictId": 1, "Latitude": 22.622389, "Longitude": 120.269362, "IVRNo": 4608, "EXTVoiceNo": 4608, "traveltime": 0, "holidayTraveltime": 0}, {"Id": "4609", "pgp": 0, "GoBack": 1, "SID": 3139, "NameZh": "\u54e8\u8239\u982d", "RouteId": 9012, "SeqNo": 5, "Terminal": 0, "DistrictId": 1, "Latitude": 22.619656, "Longitude": 120.269222, "IVRNo": 4609, "EXTVoiceNo": 4609, "traveltime": 0, "holidayTraveltime": 0}, {"Id": "8881", "pgp": 0, "GoBack": 1, "SID": 3142, "NameZh": "\u96c4\u93ae\u5317\u9580(\u6253\u72d7\u82f1\u570b\u9818\u4e8b\u9928)", "RouteId": 9012, "SeqNo": 6, "Terminal": 0, "DistrictId": 1, "Latitude": 22.61755, "Longitude": 120.26739, "IVRNo": 4610, "EXTVoiceNo": 8881, "traveltime": 0, "holidayTraveltime": 0}, {"Id": "4611", "pgp": 0, "GoBack": 1, "SID": 3144, "NameZh": "\u897f\u5b50\u7063(\u82f1\u570b\u9818\u4e8b\u9928\u5b98\u90b8)", "RouteId": 9012, "SeqNo": 7, "Terminal": 0, "DistrictId": 1, "Latitude": 22.61925, "Longitude": 120.266361, "IVRNo": 4611, "EXTVoiceNo": 4611, "traveltime": 0, "holidayTraveltime": 0}, {"Id": "4631", "pgp": 0, "GoBack": 1, "SID": 3182, "NameZh": "\u4e2d\u5c71\u5927\u5b78\u884c\u653f\u5927\u6a13", "RouteId": 9012, "SeqNo": 8, "Terminal": 0, "DistrictId": 1, "Latitude": 22.62389, "Longitude": 120.26585, "IVRNo": 4630, "EXTVoiceNo": 4631, "traveltime": 0, "holidayTraveltime": 0}, {"Id": "3023", "pgp": 0, "GoBack": 1, "SID": 19246, "NameZh": "H\u68df\u5bbf\u820d", "RouteId": 9012, "SeqNo": 9, "Terminal": 0, "DistrictId": 1, "Latitude": 22.627188, "Longitude": 120.267786, "IVRNo": 33023, "EXTVoiceNo": 33023, "traveltime": 0, "holidayTraveltime": 0}, {"Id": "1141", "pgp": 0, "GoBack": 1, "SID": 19250, "NameZh": "\u4e2d\u5c71\u5927\u5b78\u6d3b\u52d5\u4e2d\u5fc3", "RouteId": 9012, "SeqNo": 10, "Terminal": 0, "DistrictId": 1, "Latitude": 22.627986, "Longitude": 120.265357, "IVRNo": 1141, "EXTVoiceNo": 1141, "traveltime": 0, "holidayTraveltime": 0}, {"Id": "4639", "pgp": 0, "GoBack": 1, "SID": 3197, "NameZh": "\u6b66\u5dba\u8def\u53e3", "RouteId": 9012, "SeqNo": 11, "Terminal": 0, "DistrictId": 1, "Latitude": 22.62893, "Longitude": 120.26361, "IVRNo": 4639, "EXTVoiceNo": 4639, "traveltime": 0, "holidayTraveltime": 0}, {"Id": "4614", "pgp": 0, "GoBack": 1, "SID": 3147, "NameZh": "\u6587\u5b78\u9662", "RouteId": 9012, "SeqNo": 12, "Terminal": 1, "DistrictId": 1, "Latitude": 22.633939, "Longitude": 120.260944, "IVRNo": 4614, "EXTVoiceNo": 4614, "traveltime": 0, "holidayTraveltime": 0}, {"Id": "4614", "pgp": 0, "GoBack": 2, "SID": 7930, "NameZh": "\u6587\u5b78\u9662", "RouteId": 9012, "SeqNo": 1, "Terminal": 0, "DistrictId": 1, "Latitude": 22.633729, "Longitude": 120.26136, "IVRNo": 4614, "EXTVoiceNo": 4614, "traveltime": 0, "holidayTraveltime": 0}, {"Id": "3025", "pgp": 0, "GoBack": 2, "SID": 19247, "NameZh": "\u6d77\u79d1\u9662", "RouteId": 9012, "SeqNo": 2, "Terminal": 0, "DistrictId": 1, "Latitude": 22.630215, "Longitude": 120.261973, "IVRNo": 33024, "EXTVoiceNo": 33025, "traveltime": 0, "holidayTraveltime": 0}, {"Id": "3026", "pgp": 0, "GoBack": 2, "SID": 19248, "NameZh": "\u6d77\u5de5\u9928", "RouteId": 9012, "SeqNo": 3, "Terminal": 0, "DistrictId": 1, "Latitude": 22.629293, "Longitude": 120.262143, "IVRNo": 33025, "EXTVoiceNo": 33026, "traveltime": 0, "holidayTraveltime": 0}, {"Id": "3023", "pgp": 0, "GoBack": 2, "SID": 19249, "NameZh": "H\u68df\u5bbf\u820d", "RouteId": 9012, "SeqNo": 4, "Terminal": 0, "DistrictId": 1, "Latitude": 22.627188, "Longitude": 120.267786, "IVRNo": 33023, "EXTVoiceNo": 33023, "traveltime": 0, "holidayTraveltime": 0}, {"Id": "1141", "pgp": 0, "GoBack": 2, "SID": 19251, "NameZh": "\u4e2d\u5c71\u5927\u5b78\u6d3b\u52d5\u4e2d\u5fc3", "RouteId": 9012, "SeqNo": 5, "Terminal": 0, "DistrictId": 1, "Latitude": 22.627986, "Longitude": 120.265357, "IVRNo": 1141, "EXTVoiceNo": 1141, "traveltime": 0, "holidayTraveltime": 0}, {"Id": "4631", "pgp": 0, "GoBack": 2, "SID": 3185, "NameZh": "\u4e2d\u5c71\u5927\u5b78\u884c\u653f\u5927\u6a13", "RouteId": 9012, "SeqNo": 6, "Terminal": 0, "DistrictId": 1, "Latitude": 22.623767, "Longitude": 120.265803, "IVRNo": 4630, "EXTVoiceNo": 4631, "traveltime": 0, "holidayTraveltime": 0}, {"Id": "4611", "pgp": 0, "GoBack": 2, "SID": 3158, "NameZh": "\u897f\u5b50\u7063(\u82f1\u570b\u9818\u4e8b\u9928\u5b98\u90b8)", "RouteId": 9012, "SeqNo": 7, "Terminal": 0, "DistrictId": 1, "Latitude": 22.61966, "Longitude": 120.26626, "IVRNo": 4611, "EXTVoiceNo": 4611, "traveltime": 0, "holidayTraveltime": 0}, {"Id": "8881", "pgp": 0, "GoBack": 2, "SID": 3159, "NameZh": "\u96c4\u93ae\u5317\u9580(\u6253\u72d7\u82f1\u570b\u9818\u4e8b\u9928)", "RouteId": 9012, "SeqNo": 8, "Terminal": 0, "DistrictId": 1, "Latitude": 22.61755, "Longitude": 120.26739, "IVRNo": 4610, "EXTVoiceNo": 8881, "traveltime": 0, "holidayTraveltime": 0}, {"Id": "4609", "pgp": 0, "GoBack": 2, "SID": 3164, "NameZh": "\u54e8\u8239\u982d", "RouteId": 9012, "SeqNo": 9, "Terminal": 0, "DistrictId": 1, "Latitude": 22.619825, "Longitude": 120.269282, "IVRNo": 4609, "EXTVoiceNo": 4609, "traveltime": 0, "holidayTraveltime": 0}, {"Id": "4608", "pgp": 0, "GoBack": 2, "SID": 3165, "NameZh": "\u54e8\u8239\u8857", "RouteId": 9012, "SeqNo": 10, "Terminal": 0, "DistrictId": 1, "Latitude": 22.622656, "Longitude": 120.269397, "IVRNo": 4608, "EXTVoiceNo": 4608, "traveltime": 0, "holidayTraveltime": 0}, {"Id": "4607", "pgp": 0, "GoBack": 2, "SID": 3193, "NameZh": "\u6e2f\u52d9\u516c\u53f8(\u897f\u5b50\u7063\u96a7\u9053)", "RouteId": 9012, "SeqNo": 11, "Terminal": 0, "DistrictId": 1, "Latitude": 22.623823, "Longitude": 120.270435, "IVRNo": 4607, "EXTVoiceNo": 4607, "traveltime": 0, "holidayTraveltime": 0}, {"Id": "0025", "pgp": 0, "GoBack": 2, "SID": 3171, "NameZh": "\u9f13\u5c71\u5e02\u5834", "RouteId": 9012, "SeqNo": 12, "Terminal": 0, "DistrictId": 1, "Latitude": 22.62245, "Longitude": 120.27283, "IVRNo": 25, "EXTVoiceNo": 25, "traveltime": 0, "holidayTraveltime": 0}, {"Id": "7124", "pgp": 0, "GoBack": 2, "SID": 3174, "NameZh": "\u6377\u904b\u897f\u5b50\u7063\u7ad9(\u51fa\u53e31)", "RouteId": 9012, "SeqNo": 13, "Terminal": 0, "DistrictId": 1, "Latitude": 22.62198, "Longitude": 120.27363, "IVRNo": 68, "EXTVoiceNo": 17124, "traveltime": 0, "holidayTraveltime": 0}, {"Id": "0031", "pgp": 0, "GoBack": 2, "SID": 1599, "NameZh": "\u6377\u904b\u897f\u5b50\u7063\u7ad9(\u8f15\u8ecc\u54c8\u746a\u661f\u7ad9)", "RouteId": 9012, "SeqNo": 14, "Terminal": 1, "DistrictId": 1, "Latitude": 22.621486, "Longitude": 120.275128, "IVRNo": 30, "EXTVoiceNo": 20031, "traveltime": 0, "holidayTraveltime": 0}]}