{"en": [{"Id": "1828", "pgp": 0, "GoBack": 1, "SID": 12445, "NameZh": "Cishan North Station", "RouteId": 8009, "SeqNo": 1, "Terminal": 0, "DistrictId": 1, "Latitude": 22.896043, "Longitude": 120.483457, "IVRNo": 9142, "EXTVoiceNo": 11828, "traveltime": 0, "holidayTraveltime": 0}, {"Id": "1197", "pgp": 0, "GoBack": 1, "SID": 17276, "NameZh": "Jhonghua Rd. Intersection (Ci)", "RouteId": 8009, "SeqNo": 2, "Terminal": 0, "DistrictId": 1, "Latitude": 22.89278, "Longitude": 120.4833, "IVRNo": 1180, "EXTVoiceNo": 21197, "traveltime": 0, "holidayTraveltime": 0}, {"Id": "9374", "pgp": 0, "GoBack": 1, "SID": 2336, "NameZh": "Cishan Market", "RouteId": 8009, "SeqNo": 3, "Terminal": 0, "DistrictId": 1, "Latitude": 22.889889, "Longitude": 120.483465, "IVRNo": 9953, "EXTVoiceNo": 9374, "traveltime": 0, "holidayTraveltime": 0}, {"Id": "9718", "pgp": 0, "GoBack": 1, "SID": 12448, "NameZh": "Yanping Rd. (Cishan District Office)", "RouteId": 8009, "SeqNo": 4, "Terminal": 0, "DistrictId": 1, "Latitude": 22.88762, "Longitude": 120.48313, "IVRNo": 9718, "EXTVoiceNo": 9718, "traveltime": 0, "holidayTraveltime": 0}, {"Id": "3412", "pgp": 0, "GoBack": 1, "SID": 12449, "NameZh": "Cishan Bus Transfer Station", "RouteId": 8009, "SeqNo": 5, "Terminal": 0, "DistrictId": 1, "Latitude": 22.883651, "Longitude": 120.484555, "IVRNo": 9717, "EXTVoiceNo": 13412, "traveltime": 0, "holidayTraveltime": 0}, {"Id": "2114", "pgp": 0, "GoBack": 1, "SID": 12451, "NameZh": "Dechang Rd. (Jhongsyue Rd. Intersection)", "RouteId": 8009, "SeqNo": 6, "Terminal": 0, "DistrictId": 1, "Latitude": 22.88162, "Longitude": 120.48203, "IVRNo": 2114, "EXTVoiceNo": 2114, "traveltime": 0, "holidayTraveltime": 0}, {"Id": "0168", "pgp": 0, "GoBack": 1, "SID": 12452, "NameZh": "Jhongsyue Rd.", "RouteId": 8009, "SeqNo": 7, "Terminal": 0, "DistrictId": 1, "Latitude": 22.88282, "Longitude": 120.47867, "IVRNo": 10321, "EXTVoiceNo": 20168, "traveltime": 0, "holidayTraveltime": 0}, {"Id": "3337", "pgp": 0, "GoBack": 1, "SID": 12453, "NameZh": "Ciouliang Mountain", "RouteId": 8009, "SeqNo": 8, "Terminal": 0, "DistrictId": 1, "Latitude": 22.87956, "Longitude": 120.47664, "IVRNo": 3258, "EXTVoiceNo": 13337, "traveltime": 0, "holidayTraveltime": 0}, {"Id": "3430", "pgp": 0, "GoBack": 1, "SID": 12622, "NameZh": "Toulin Lane Intersection", "RouteId": 8009, "SeqNo": 9, "Terminal": 0, "DistrictId": 1, "Latitude": 22.87667, "Longitude": 120.47531, "IVRNo": 3273, "EXTVoiceNo": 13430, "traveltime": 0, "holidayTraveltime": 0}, {"Id": "1000", "pgp": 0, "GoBack": 1, "SID": 12454, "NameZh": "Huaci Villa", "RouteId": 8009, "SeqNo": 10, "Terminal": 0, "DistrictId": 1, "Latitude": 22.873129, "Longitude": 120.474145, "IVRNo": 11000, "EXTVoiceNo": 11000, "traveltime": 0, "holidayTraveltime": 0}, {"Id": "3417", "pgp": 0, "GoBack": 1, "SID": 12455, "NameZh": "Cinan 1st Rd.", "RouteId": 8009, "SeqNo": 11, "Terminal": 0, "DistrictId": 1, "Latitude": 22.86984, "Longitude": 120.47295, "IVRNo": 11842, "EXTVoiceNo": 13417, "traveltime": 0, "holidayTraveltime": 0}, {"Id": "3315", "pgp": 0, "GoBack": 1, "SID": 12456, "NameZh": "Hechang", "RouteId": 8009, "SeqNo": 12, "Terminal": 0, "DistrictId": 1, "Latitude": 22.86462, "Longitude": 120.47055, "IVRNo": 10888, "EXTVoiceNo": 13315, "traveltime": 0, "holidayTraveltime": 0}, {"Id": "0984", "pgp": 0, "GoBack": 1, "SID": 12457, "NameZh": "Wulu", "RouteId": 8009, "SeqNo": 13, "Terminal": 0, "DistrictId": 1, "Latitude": 22.86116, "Longitude": 120.46857, "IVRNo": 10984, "EXTVoiceNo": 10984, "traveltime": 0, "holidayTraveltime": 0}, {"Id": "3423", "pgp": 0, "GoBack": 1, "SID": 12458, "NameZh": "Weiguang Village", "RouteId": 8009, "SeqNo": 14, "Terminal": 0, "DistrictId": 1, "Latitude": 22.85679, "Longitude": 120.46857, "IVRNo": 11935, "EXTVoiceNo": 13423, "traveltime": 0, "holidayTraveltime": 0}, {"Id": "0062", "pgp": 0, "GoBack": 1, "SID": 12459, "NameZh": "Dashan", "RouteId": 8009, "SeqNo": 15, "Terminal": 0, "DistrictId": 1, "Latitude": 22.85314, "Longitude": 120.46789, "IVRNo": 10136, "EXTVoiceNo": 20062, "traveltime": 0, "holidayTraveltime": 0}, {"Id": "3460", "pgp": 0, "GoBack": 1, "SID": 12460, "NameZh": "Cingshuei Temple (Sijhou)", "RouteId": 8009, "SeqNo": 16, "Terminal": 0, "DistrictId": 1, "Latitude": 22.8506, "Longitude": 120.46688, "IVRNo": 803, "EXTVoiceNo": 13460, "traveltime": 0, "holidayTraveltime": 0}, {"Id": "1704", "pgp": 0, "GoBack": 1, "SID": 12461, "NameZh": "Sijhou Elementary School", "RouteId": 8009, "SeqNo": 17, "Terminal": 0, "DistrictId": 1, "Latitude": 22.84735, "Longitude": 120.46552, "IVRNo": 11704, "EXTVoiceNo": 11704, "traveltime": 0, "holidayTraveltime": 0}, {"Id": "1702", "pgp": 0, "GoBack": 1, "SID": 12462, "NameZh": "Sijhou", "RouteId": 8009, "SeqNo": 18, "Terminal": 0, "DistrictId": 1, "Latitude": 22.84269, "Longitude": 120.46421, "IVRNo": 11702, "EXTVoiceNo": 11702, "traveltime": 0, "holidayTraveltime": 0}, {"Id": "0129", "pgp": 0, "GoBack": 1, "SID": 12463, "NameZh": "7-11 Sijhou Store", "RouteId": 8009, "SeqNo": 19, "Terminal": 0, "DistrictId": 1, "Latitude": 22.83974, "Longitude": 120.46319, "IVRNo": 129, "EXTVoiceNo": 129, "traveltime": 0, "holidayTraveltime": 0}, {"Id": "0208", "pgp": 0, "GoBack": 1, "SID": 12464, "NameZh": "Gongyuanzih", "RouteId": 8009, "SeqNo": 20, "Terminal": 0, "DistrictId": 1, "Latitude": 22.83775, "Longitude": 120.46265, "IVRNo": 10402, "EXTVoiceNo": 20208, "traveltime": 0, "holidayTraveltime": 0}, {"Id": "0095", "pgp": 0, "GoBack": 1, "SID": 12465, "NameZh": "Dajhou Junior High School", "RouteId": 8009, "SeqNo": 21, "Terminal": 0, "DistrictId": 1, "Latitude": 22.835888, "Longitude": 120.462384, "IVRNo": 10183, "EXTVoiceNo": 20095, "traveltime": 0, "holidayTraveltime": 0}, {"Id": "1606", "pgp": 0, "GoBack": 1, "SID": 12466, "NameZh": "Singuang Village", "RouteId": 8009, "SeqNo": 22, "Terminal": 0, "DistrictId": 1, "Latitude": 22.8323, "Longitude": 120.46258, "IVRNo": 11606, "EXTVoiceNo": 11606, "traveltime": 0, "holidayTraveltime": 0}, {"Id": "0076", "pgp": 0, "GoBack": 1, "SID": 7854, "NameZh": "Dajhuwei", "RouteId": 8009, "SeqNo": 23, "Terminal": 0, "DistrictId": 1, "Latitude": 22.82444, "Longitude": 120.46229, "IVRNo": 9148, "EXTVoiceNo": 20076, "traveltime": 0, "holidayTraveltime": 0}, {"Id": "0900", "pgp": 0, "GoBack": 1, "SID": 12468, "NameZh": "Shanghe", "RouteId": 8009, "SeqNo": 24, "Terminal": 0, "DistrictId": 1, "Latitude": 22.8148, "Longitude": 120.46155, "IVRNo": 10900, "EXTVoiceNo": 10900, "traveltime": 0, "holidayTraveltime": 0}, {"Id": "3434", "pgp": 0, "GoBack": 1, "SID": 13859, "NameZh": "Congzaikeng", "RouteId": 8009, "SeqNo": 25, "Terminal": 0, "DistrictId": 1, "Latitude": 22.80932, "Longitude": 120.461573, "IVRNo": 13434, "EXTVoiceNo": 13434, "traveltime": 0, "holidayTraveltime": 0}, {"Id": "3333", "pgp": 0, "GoBack": 1, "SID": 12470, "NameZh": "Nansheng Lake", "RouteId": 8009, "SeqNo": 26, "Terminal": 0, "DistrictId": 1, "Latitude": 22.79996, "Longitude": 120.45902, "IVRNo": 11086, "EXTVoiceNo": 13333, "traveltime": 0, "holidayTraveltime": 0}, {"Id": "1904", "pgp": 0, "GoBack": 1, "SID": 12471, "NameZh": "Desheng Lane", "RouteId": 8009, "SeqNo": 27, "Terminal": 0, "DistrictId": 1, "Latitude": 22.796983, "Longitude": 120.458014, "IVRNo": 11904, "EXTVoiceNo": 11904, "traveltime": 0, "holidayTraveltime": 0}, {"Id": "1184", "pgp": 0, "GoBack": 1, "SID": 12472, "NameZh": "Gravel Pits", "RouteId": 8009, "SeqNo": 28, "Terminal": 0, "DistrictId": 1, "Latitude": 22.79031, "Longitude": 120.45608, "IVRNo": 11184, "EXTVoiceNo": 11184, "traveltime": 0, "holidayTraveltime": 0}, {"Id": "2018", "pgp": 0, "GoBack": 1, "SID": 12473, "NameZh": "Lingkou", "RouteId": 8009, "SeqNo": 29, "Terminal": 0, "DistrictId": 1, "Latitude": 22.77376, "Longitude": 120.44926, "IVRNo": 12018, "EXTVoiceNo": 12018, "traveltime": 0, "holidayTraveltime": 0}, {"Id": "0421", "pgp": 0, "GoBack": 1, "SID": 12474, "NameZh": "Fangkan", "RouteId": 8009, "SeqNo": 30, "Terminal": 0, "DistrictId": 1, "Latitude": 22.76136, "Longitude": 120.44675, "IVRNo": 131, "EXTVoiceNo": 20421, "traveltime": 0, "holidayTraveltime": 0}, {"Id": "0790", "pgp": 0, "GoBack": 1, "SID": 12475, "NameZh": "Tonglingkeng", "RouteId": 8009, "SeqNo": 31, "Terminal": 0, "DistrictId": 1, "Latitude": 22.75593, "Longitude": 120.44765, "IVRNo": 790, "EXTVoiceNo": 790, "traveltime": 0, "holidayTraveltime": 0}, {"Id": "0396", "pgp": 0, "GoBack": 1, "SID": 12722, "NameZh": "Fo Guang Shan Buddha Museum", "RouteId": 8009, "SeqNo": 32, "Terminal": 0, "DistrictId": 1, "Latitude": 22.75497, "Longitude": 120.44615, "IVRNo": 396, "EXTVoiceNo": 396, "traveltime": 0, "holidayTraveltime": 0}, {"Id": "0395", "pgp": 0, "GoBack": 1, "SID": 12476, "NameZh": "Fo Guang Shan", "RouteId": 8009, "SeqNo": 33, "Terminal": 0, "DistrictId": 1, "Latitude": 22.7495, "Longitude": 120.44706, "IVRNo": 395, "EXTVoiceNo": 395, "traveltime": 0, "holidayTraveltime": 0}, {"Id": "2298", "pgp": 0, "GoBack": 1, "SID": 12477, "NameZh": "Majhuyuan", "RouteId": 8009, "SeqNo": 34, "Terminal": 0, "DistrictId": 1, "Latitude": 22.74639, "Longitude": 120.447, "IVRNo": 3263, "EXTVoiceNo": 32298, "traveltime": 0, "holidayTraveltime": 0}, {"Id": "1981", "pgp": 0, "GoBack": 1, "SID": 12478, "NameZh": "Singtian", "RouteId": 8009, "SeqNo": 35, "Terminal": 0, "DistrictId": 1, "Latitude": 22.74199, "Longitude": 120.44826, "IVRNo": 11981, "EXTVoiceNo": 11981, "traveltime": 0, "holidayTraveltime": 0}, {"Id": "3396", "pgp": 0, "GoBack": 1, "SID": 12479, "NameZh": "Sinsing (Dashu)", "RouteId": 8009, "SeqNo": 36, "Terminal": 0, "DistrictId": 1, "Latitude": 22.73735, "Longitude": 120.44769, "IVRNo": 11668, "EXTVoiceNo": 13396, "traveltime": 0, "holidayTraveltime": 0}, {"Id": "2299", "pgp": 0, "GoBack": 1, "SID": 12480, "NameZh": "Sipu", "RouteId": 8009, "SeqNo": 37, "Terminal": 0, "DistrictId": 1, "Latitude": 22.73201, "Longitude": 120.44736, "IVRNo": 133, "EXTVoiceNo": 32299, "traveltime": 0, "holidayTraveltime": 0}, {"Id": "0134", "pgp": 0, "GoBack": 1, "SID": 6653, "NameZh": "Sipu Police Station", "RouteId": 8009, "SeqNo": 38, "Terminal": 0, "DistrictId": 1, "Latitude": 22.72768, "Longitude": 120.4445, "IVRNo": 134, "EXTVoiceNo": 134, "traveltime": 0, "holidayTraveltime": 0}, {"Id": "0334", "pgp": 0, "GoBack": 1, "SID": 12482, "NameZh": "Sipu Elementary School", "RouteId": 8009, "SeqNo": 39, "Terminal": 0, "DistrictId": 1, "Latitude": 22.72261, "Longitude": 120.44332, "IVRNo": 334, "EXTVoiceNo": 334, "traveltime": 0, "holidayTraveltime": 0}, {"Id": "0077", "pgp": 0, "GoBack": 1, "SID": 12483, "NameZh": "Dakeng", "RouteId": 8009, "SeqNo": 40, "Terminal": 0, "DistrictId": 1, "Latitude": 22.71764, "Longitude": 120.44308, "IVRNo": 10159, "EXTVoiceNo": 20077, "traveltime": 0, "holidayTraveltime": 0}, {"Id": "1160", "pgp": 0, "GoBack": 1, "SID": 12484, "NameZh": "Jhouzai", "RouteId": 8009, "SeqNo": 41, "Terminal": 0, "DistrictId": 1, "Latitude": 22.71363, "Longitude": 120.44115, "IVRNo": 11160, "EXTVoiceNo": 11160, "traveltime": 0, "holidayTraveltime": 0}, {"Id": "6094", "pgp": 0, "GoBack": 1, "SID": 19258, "NameZh": "Gushan Warehouse Industrial Culture Park (Dakeng Rd.)", "RouteId": 8009, "SeqNo": 42, "Terminal": 0, "DistrictId": 1, "Latitude": 22.710952, "Longitude": 120.439831, "IVRNo": 1236, "EXTVoiceNo": 26094, "traveltime": 0, "holidayTraveltime": 0}, {"Id": "0894", "pgp": 0, "GoBack": 1, "SID": 12485, "NameZh": "Gu-Shan Elementary school", "RouteId": 8009, "SeqNo": 43, "Terminal": 0, "DistrictId": 1, "Latitude": 22.708283, "Longitude": 120.43823, "IVRNo": 10894, "EXTVoiceNo": 10894, "traveltime": 0, "holidayTraveltime": 0}, {"Id": "0896", "pgp": 0, "GoBack": 1, "SID": 12486, "NameZh": "Gupoliao", "RouteId": 8009, "SeqNo": 44, "Terminal": 0, "DistrictId": 1, "Latitude": 22.705085, "Longitude": 120.434216, "IVRNo": 10896, "EXTVoiceNo": 10896, "traveltime": 0, "holidayTraveltime": 0}, {"Id": "1368", "pgp": 0, "GoBack": 1, "SID": 12487, "NameZh": "Kunming Temple", "RouteId": 8009, "SeqNo": 45, "Terminal": 0, "DistrictId": 1, "Latitude": 22.7, "Longitude": 120.43332, "IVRNo": 11368, "EXTVoiceNo": 11368, "traveltime": 0, "holidayTraveltime": 0}, {"Id": "0335", "pgp": 0, "GoBack": 1, "SID": 12488, "NameZh": "Dashu Community Center", "RouteId": 8009, "SeqNo": 46, "Terminal": 0, "DistrictId": 1, "Latitude": 22.69683, "Longitude": 120.43347, "IVRNo": 335, "EXTVoiceNo": 335, "traveltime": 0, "holidayTraveltime": 0}, {"Id": "0118", "pgp": 0, "GoBack": 1, "SID": 12489, "NameZh": "Dashu", "RouteId": 8009, "SeqNo": 47, "Terminal": 0, "DistrictId": 1, "Latitude": 22.69204, "Longitude": 120.43248, "IVRNo": 10233, "EXTVoiceNo": 20118, "traveltime": 0, "holidayTraveltime": 0}, {"Id": "9217", "pgp": 0, "GoBack": 1, "SID": 12490, "NameZh": "Dashu Farmer`s Association", "RouteId": 8009, "SeqNo": 48, "Terminal": 0, "DistrictId": 1, "Latitude": 22.69101, "Longitude": 120.43182, "IVRNo": 9770, "EXTVoiceNo": 9217, "traveltime": 0, "holidayTraveltime": 0}, {"Id": "1975", "pgp": 0, "GoBack": 1, "SID": 12491, "NameZh": "Singshan Village", "RouteId": 8009, "SeqNo": 49, "Terminal": 0, "DistrictId": 1, "Latitude": 22.69412, "Longitude": 120.42545, "IVRNo": 3265, "EXTVoiceNo": 11975, "traveltime": 0, "holidayTraveltime": 0}, {"Id": "0884", "pgp": 0, "GoBack": 1, "SID": 12492, "NameZh": "Heshan Village Intersection", "RouteId": 8009, "SeqNo": 50, "Terminal": 0, "DistrictId": 1, "Latitude": 22.69703, "Longitude": 120.4205, "IVRNo": 3266, "EXTVoiceNo": 10884, "traveltime": 0, "holidayTraveltime": 0}, {"Id": "1184", "pgp": 0, "GoBack": 1, "SID": 12493, "NameZh": "Shanding Cijiao", "RouteId": 8009, "SeqNo": 51, "Terminal": 0, "DistrictId": 1, "Latitude": 22.69652, "Longitude": 120.4097, "IVRNo": 10253, "EXTVoiceNo": 21184, "traveltime": 0, "holidayTraveltime": 0}, {"Id": "1201", "pgp": 0, "GoBack": 1, "SID": 12494, "NameZh": "Wucha Rd. Intersection", "RouteId": 8009, "SeqNo": 52, "Terminal": 0, "DistrictId": 1, "Latitude": 22.69958, "Longitude": 120.40542, "IVRNo": 10329, "EXTVoiceNo": 21201, "traveltime": 0, "holidayTraveltime": 0}, {"Id": "1360", "pgp": 0, "GoBack": 1, "SID": 12495, "NameZh": "Ciding", "RouteId": 8009, "SeqNo": 53, "Terminal": 0, "DistrictId": 1, "Latitude": 22.7016, "Longitude": 120.39617, "IVRNo": 11360, "EXTVoiceNo": 11360, "traveltime": 0, "holidayTraveltime": 0}, {"Id": "9042", "pgp": 0, "GoBack": 1, "SID": 12496, "NameZh": "Cingjing Temple (A) (Renlin Rd.)", "RouteId": 8009, "SeqNo": 54, "Terminal": 0, "DistrictId": 1, "Latitude": 22.70116, "Longitude": 120.39069, "IVRNo": 9042, "EXTVoiceNo": 9042, "traveltime": 0, "holidayTraveltime": 0}, {"Id": "9016", "pgp": 0, "GoBack": 1, "SID": 12497, "NameZh": "Oil Depots", "RouteId": 8009, "SeqNo": 55, "Terminal": 0, "DistrictId": 1, "Latitude": 22.70118, "Longitude": 120.38797, "IVRNo": 9015, "EXTVoiceNo": 9016, "traveltime": 0, "holidayTraveltime": 0}, {"Id": "1001", "pgp": 0, "GoBack": 1, "SID": 12498, "NameZh": "Brick Factory", "RouteId": 8009, "SeqNo": 56, "Terminal": 0, "DistrictId": 1, "Latitude": 22.69877, "Longitude": 120.37955, "IVRNo": 9279, "EXTVoiceNo": 21001, "traveltime": 0, "holidayTraveltime": 0}, {"Id": "9028", "pgp": 0, "GoBack": 1, "SID": 8387, "NameZh": "Wulin Village", "RouteId": 8009, "SeqNo": 57, "Terminal": 0, "DistrictId": 1, "Latitude": 22.69656, "Longitude": 120.3755, "IVRNo": 9028, "EXTVoiceNo": 9028, "traveltime": 0, "holidayTraveltime": 0}, {"Id": "0055", "pgp": 0, "GoBack": 1, "SID": 12500, "NameZh": "Jioubaosiang Company", "RouteId": 8009, "SeqNo": 58, "Terminal": 0, "DistrictId": 1, "Latitude": 22.69233, "Longitude": 120.37029, "IVRNo": 8906, "EXTVoiceNo": 20055, "traveltime": 0, "holidayTraveltime": 0}, {"Id": "8995", "pgp": 0, "GoBack": 1, "SID": 12501, "NameZh": "Dongya Paint Factory", "RouteId": 8009, "SeqNo": 59, "Terminal": 0, "DistrictId": 1, "Latitude": 22.68861, "Longitude": 120.36691, "IVRNo": 8994, "EXTVoiceNo": 8995, "traveltime": 0, "holidayTraveltime": 0}, {"Id": "8990", "pgp": 0, "GoBack": 1, "SID": 12502, "NameZh": "Jhongshan Pharmaceutical Factory", "RouteId": 8009, "SeqNo": 60, "Terminal": 0, "DistrictId": 1, "Latitude": 22.68588, "Longitude": 120.36411, "IVRNo": 8989, "EXTVoiceNo": 8990, "traveltime": 0, "holidayTraveltime": 0}, {"Id": "0482", "pgp": 0, "GoBack": 1, "SID": 8383, "NameZh": "Mingshancihan House", "RouteId": 8009, "SeqNo": 61, "Terminal": 0, "DistrictId": 1, "Latitude": 22.68477, "Longitude": 120.36433, "IVRNo": 8991, "EXTVoiceNo": 20482, "traveltime": 0, "holidayTraveltime": 0}, {"Id": "0851", "pgp": 0, "GoBack": 1, "SID": 12503, "NameZh": "Bizih Lane", "RouteId": 8009, "SeqNo": 62, "Terminal": 0, "DistrictId": 1, "Latitude": 22.68266, "Longitude": 120.36427, "IVRNo": 851, "EXTVoiceNo": 851, "traveltime": 0, "holidayTraveltime": 0}, {"Id": "3232", "pgp": 0, "GoBack": 1, "SID": 12504, "NameZh": "Tianhou Temple (Chenggong Rd.)", "RouteId": 8009, "SeqNo": 63, "Terminal": 0, "DistrictId": 1, "Latitude": 22.68147, "Longitude": 120.36208, "IVRNo": 3232, "EXTVoiceNo": 3232, "traveltime": 0, "holidayTraveltime": 0}, {"Id": "0396", "pgp": 0, "GoBack": 1, "SID": 12505, "NameZh": "Kaotan Village", "RouteId": 8009, "SeqNo": 64, "Terminal": 0, "DistrictId": 1, "Latitude": 22.67932, "Longitude": 120.36192, "IVRNo": 8968, "EXTVoiceNo": 20396, "traveltime": 0, "holidayTraveltime": 0}, {"Id": "0946", "pgp": 0, "GoBack": 1, "SID": 12506, "NameZh": "Lyuyuan Villa", "RouteId": 8009, "SeqNo": 65, "Terminal": 0, "DistrictId": 1, "Latitude": 22.67683, "Longitude": 120.36291, "IVRNo": 9249, "EXTVoiceNo": 20946, "traveltime": 0, "holidayTraveltime": 0}, {"Id": "0985", "pgp": 0, "GoBack": 1, "SID": 12507, "NameZh": "Gongwei New Village", "RouteId": 8009, "SeqNo": 66, "Terminal": 0, "DistrictId": 1, "Latitude": 22.67441, "Longitude": 120.36356, "IVRNo": 9271, "EXTVoiceNo": 20985, "traveltime": 0, "holidayTraveltime": 0}, {"Id": "0024", "pgp": 0, "GoBack": 1, "SID": 12508, "NameZh": "Shihjiouwan", "RouteId": 8009, "SeqNo": 67, "Terminal": 0, "DistrictId": 1, "Latitude": 22.67089, "Longitude": 120.3611, "IVRNo": 4835, "EXTVoiceNo": 20024, "traveltime": 0, "holidayTraveltime": 0}, {"Id": "9246", "pgp": 0, "GoBack": 1, "SID": 8406, "NameZh": "Mengli Village", "RouteId": 8009, "SeqNo": 68, "Terminal": 0, "DistrictId": 1, "Latitude": 22.66741, "Longitude": 120.36263, "IVRNo": 9245, "EXTVoiceNo": 9246, "traveltime": 0, "holidayTraveltime": 0}, {"Id": "3370", "pgp": 0, "GoBack": 1, "SID": 8407, "NameZh": "Niaosong", "RouteId": 8009, "SeqNo": 69, "Terminal": 0, "DistrictId": 1, "Latitude": 22.66166, "Longitude": 120.36358, "IVRNo": 1463, "EXTVoiceNo": 13370, "traveltime": 0, "holidayTraveltime": 0}, {"Id": "7114", "pgp": 0, "GoBack": 1, "SID": 11867, "NameZh": "Niaosong District Office (Jhongjheng Rd.)", "RouteId": 8009, "SeqNo": 70, "Terminal": 0, "DistrictId": 1, "Latitude": 22.66013, "Longitude": 120.36381, "IVRNo": 4332, "EXTVoiceNo": 17114, "traveltime": 0, "holidayTraveltime": 0}, {"Id": "3537", "pgp": 0, "GoBack": 1, "SID": 13298, "NameZh": "Jhongcheng Rd. Intersection", "RouteId": 8009, "SeqNo": 71, "Terminal": 0, "DistrictId": 1, "Latitude": 22.658067, "Longitude": 120.360974, "IVRNo": 864, "EXTVoiceNo": 3537, "traveltime": 0, "holidayTraveltime": 0}, {"Id": "1912", "pgp": 0, "GoBack": 1, "SID": 11868, "NameZh": "Chengcing Lake Baseball Field", "RouteId": 8009, "SeqNo": 72, "Terminal": 0, "DistrictId": 1, "Latitude": 22.65516, "Longitude": 120.35994, "IVRNo": 11912, "EXTVoiceNo": 11912, "traveltime": 0, "holidayTraveltime": 0}, {"Id": "3534", "pgp": 0, "GoBack": 1, "SID": 12512, "NameZh": "Chang Gung Memorial Hospital", "RouteId": 8009, "SeqNo": 73, "Terminal": 0, "DistrictId": 1, "Latitude": 22.650933, "Longitude": 120.356409, "IVRNo": 3534, "EXTVoiceNo": 3534, "traveltime": 0, "holidayTraveltime": 0}, {"Id": "0636", "pgp": 0, "GoBack": 1, "SID": 12513, "NameZh": "Cheng Shiu University (Chengcing Lake)", "RouteId": 8009, "SeqNo": 74, "Terminal": 0, "DistrictId": 1, "Latitude": 22.65152, "Longitude": 120.3487, "IVRNo": 3533, "EXTVoiceNo": 10636, "traveltime": 0, "holidayTraveltime": 0}, {"Id": "1170", "pgp": 0, "GoBack": 1, "SID": 17939, "NameZh": "Dahua Village", "RouteId": 8009, "SeqNo": 75, "Terminal": 0, "DistrictId": 1, "Latitude": 22.64825, "Longitude": 120.34613, "IVRNo": 32356, "EXTVoiceNo": 21170, "traveltime": 0, "holidayTraveltime": 0}, {"Id": "0289", "pgp": 0, "GoBack": 1, "SID": 12516, "NameZh": "Jhengde Buddha Hall", "RouteId": 8009, "SeqNo": 76, "Terminal": 0, "DistrictId": 1, "Latitude": 22.65077, "Longitude": 120.3426, "IVRNo": 289, "EXTVoiceNo": 289, "traveltime": 0, "holidayTraveltime": 0}, {"Id": "0227", "pgp": 0, "GoBack": 1, "SID": 12517, "NameZh": "Wunming Lane", "RouteId": 8009, "SeqNo": 77, "Terminal": 0, "DistrictId": 1, "Latitude": 22.65375, "Longitude": 120.338416, "IVRNo": 10445, "EXTVoiceNo": 20227, "traveltime": 0, "holidayTraveltime": 0}, {"Id": "0225", "pgp": 0, "GoBack": 1, "SID": 17056, "NameZh": "Benguan Rd. Intersection", "RouteId": 8009, "SeqNo": 78, "Terminal": 0, "DistrictId": 1, "Latitude": 22.655326, "Longitude": 120.335421, "IVRNo": 225, "EXTVoiceNo": 225, "traveltime": 0, "holidayTraveltime": 0}, {"Id": "0226", "pgp": 0, "GoBack": 1, "SID": 12519, "NameZh": "Dafong 1st Rd. Intersection", "RouteId": 8009, "SeqNo": 79, "Terminal": 0, "DistrictId": 1, "Latitude": 22.6529, "Longitude": 120.3311, "IVRNo": 226, "EXTVoiceNo": 226, "traveltime": 0, "holidayTraveltime": 0}, {"Id": "0227", "pgp": 0, "GoBack": 1, "SID": 12520, "NameZh": "National Kaohsiung University of Science and Technology(Jiangong)", "RouteId": 8009, "SeqNo": 80, "Terminal": 0, "DistrictId": 1, "Latitude": 22.65178, "Longitude": 120.32799, "IVRNo": 227, "EXTVoiceNo": 227, "traveltime": 0, "holidayTraveltime": 0}, {"Id": "0228", "pgp": 0, "GoBack": 1, "SID": 1411, "NameZh": "Kaohsiung Municipal Industrial High School", "RouteId": 8009, "SeqNo": 81, "Terminal": 0, "DistrictId": 1, "Latitude": 22.65084, "Longitude": 120.326173, "IVRNo": 228, "EXTVoiceNo": 228, "traveltime": 0, "holidayTraveltime": 0}, {"Id": "0247", "pgp": 0, "GoBack": 1, "SID": 17059, "NameZh": "Dashun Rd. Intersection (Jiangong Rd.)", "RouteId": 8009, "SeqNo": 82, "Terminal": 0, "DistrictId": 1, "Latitude": 22.649167, "Longitude": 120.322766, "IVRNo": 229, "EXTVoiceNo": 247, "traveltime": 0, "holidayTraveltime": 0}, {"Id": "0230", "pgp": 0, "GoBack": 1, "SID": 1791, "NameZh": "Jiangong Rd.", "RouteId": 8009, "SeqNo": 83, "Terminal": 0, "DistrictId": 1, "Latitude": 22.648231, "Longitude": 120.318824, "IVRNo": 230, "EXTVoiceNo": 230, "traveltime": 0, "holidayTraveltime": 0}, {"Id": "0231", "pgp": 0, "GoBack": 1, "SID": 1456, "NameZh": "Minzu Police Station", "RouteId": 8009, "SeqNo": 84, "Terminal": 0, "DistrictId": 1, "Latitude": 22.648124, "Longitude": 120.31715, "IVRNo": 231, "EXTVoiceNo": 231, "traveltime": 0, "holidayTraveltime": 0}, {"Id": "7377", "pgp": 0, "GoBack": 1, "SID": 1474, "NameZh": "Vegetable & Fruit Company", "RouteId": 8009, "SeqNo": 85, "Terminal": 0, "DistrictId": 1, "Latitude": 22.644961, "Longitude": 120.314312, "IVRNo": 232, "EXTVoiceNo": 7377, "traveltime": 0, "holidayTraveltime": 0}, {"Id": "0234", "pgp": 0, "GoBack": 1, "SID": 18225, "NameZh": "Gaoyi, Kaohsiung Medical University (Shihcyuan Rd.)", "RouteId": 8009, "SeqNo": 86, "Terminal": 0, "DistrictId": 1, "Latitude": 22.64503, "Longitude": 120.30943, "IVRNo": 234, "EXTVoiceNo": 234, "traveltime": 0, "holidayTraveltime": 0}, {"Id": "0235", "pgp": 0, "GoBack": 1, "SID": 1554, "NameZh": "Sanmin Junior High School", "RouteId": 8009, "SeqNo": 87, "Terminal": 0, "DistrictId": 1, "Latitude": 22.64525, "Longitude": 120.305916, "IVRNo": 235, "EXTVoiceNo": 235, "traveltime": 0, "holidayTraveltime": 0}, {"Id": "2839", "pgp": 0, "GoBack": 1, "SID": 1563, "NameZh": "Sanmin Park (Boai Rd. Intersection)", "RouteId": 8009, "SeqNo": 88, "Terminal": 0, "DistrictId": 1, "Latitude": 22.645442, "Longitude": 120.304389, "IVRNo": 236, "EXTVoiceNo": 2839, "traveltime": 0, "holidayTraveltime": 0}, {"Id": "1445", "pgp": 0, "GoBack": 1, "SID": 17721, "NameZh": "Jhongshan 1st Rd. Intersection", "RouteId": 8009, "SeqNo": 89, "Terminal": 0, "DistrictId": 1, "Latitude": 22.63422, "Longitude": 120.3036, "IVRNo": 1445, "EXTVoiceNo": 1445, "traveltime": 0, "holidayTraveltime": 0}, {"Id": "9368", "pgp": 0, "GoBack": 1, "SID": 2146, "NameZh": "Kaohsiung Station (Nanhua Rd.)", "RouteId": 8009, "SeqNo": 90, "Terminal": 1, "DistrictId": 1, "Latitude": 22.638135, "Longitude": 120.303514, "IVRNo": 9034, "EXTVoiceNo": 9368, "traveltime": 0, "holidayTraveltime": 0}, {"Id": "9368", "pgp": 0, "GoBack": 2, "SID": 2716, "NameZh": "Kaohsiung Station (Nanhua Rd.)", "RouteId": 8009, "SeqNo": 1, "Terminal": 0, "DistrictId": 1, "Latitude": 22.638135, "Longitude": 120.303514, "IVRNo": 9034, "EXTVoiceNo": 9368, "traveltime": 0, "holidayTraveltime": 0}, {"Id": "1445", "pgp": 0, "GoBack": 2, "SID": 5116, "NameZh": "Jhongshan 1st Rd. Intersection", "RouteId": 8009, "SeqNo": 2, "Terminal": 0, "DistrictId": 1, "Latitude": 22.6346, "Longitude": 120.30358, "IVRNo": 1445, "EXTVoiceNo": 1445, "traveltime": 0, "holidayTraveltime": 0}, {"Id": "2839", "pgp": 0, "GoBack": 2, "SID": 2776, "NameZh": "Sanmin Park (Boai Rd. Intersection)", "RouteId": 8009, "SeqNo": 3, "Terminal": 0, "DistrictId": 1, "Latitude": 22.645369, "Longitude": 120.303658, "IVRNo": 236, "EXTVoiceNo": 2839, "traveltime": 0, "holidayTraveltime": 0}, {"Id": "0235", "pgp": 0, "GoBack": 2, "SID": 1729, "NameZh": "Sanmin Junior High School", "RouteId": 8009, "SeqNo": 4, "Terminal": 0, "DistrictId": 1, "Latitude": 22.645219, "Longitude": 120.305816, "IVRNo": 235, "EXTVoiceNo": 235, "traveltime": 0, "holidayTraveltime": 0}, {"Id": "0234", "pgp": 0, "GoBack": 2, "SID": 15832, "NameZh": "Gaoyi, Kaohsiung Medical University (Shihcyuan Rd.)", "RouteId": 8009, "SeqNo": 5, "Terminal": 0, "DistrictId": 1, "Latitude": 22.64487, "Longitude": 120.31066, "IVRNo": 234, "EXTVoiceNo": 234, "traveltime": 0, "holidayTraveltime": 0}, {"Id": "7377", "pgp": 0, "GoBack": 2, "SID": 1476, "NameZh": "Vegetable & Fruit Company", "RouteId": 8009, "SeqNo": 6, "Terminal": 0, "DistrictId": 1, "Latitude": 22.645044, "Longitude": 120.314582, "IVRNo": 232, "EXTVoiceNo": 7377, "traveltime": 0, "holidayTraveltime": 0}, {"Id": "0231", "pgp": 0, "GoBack": 2, "SID": 1785, "NameZh": "Minzu Police Station", "RouteId": 8009, "SeqNo": 7, "Terminal": 0, "DistrictId": 1, "Latitude": 22.647803, "Longitude": 120.316367, "IVRNo": 231, "EXTVoiceNo": 231, "traveltime": 0, "holidayTraveltime": 0}, {"Id": "0230", "pgp": 0, "GoBack": 2, "SID": 1423, "NameZh": "Jiangong Rd.", "RouteId": 8009, "SeqNo": 8, "Terminal": 0, "DistrictId": 1, "Latitude": 22.64845, "Longitude": 120.31914, "IVRNo": 230, "EXTVoiceNo": 230, "traveltime": 0, "holidayTraveltime": 0}, {"Id": "0247", "pgp": 0, "GoBack": 2, "SID": 17210, "NameZh": "Dashun Rd. Intersection (Jiangong Rd.)", "RouteId": 8009, "SeqNo": 9, "Terminal": 0, "DistrictId": 1, "Latitude": 22.649092, "Longitude": 120.322798, "IVRNo": 229, "EXTVoiceNo": 247, "traveltime": 0, "holidayTraveltime": 0}, {"Id": "0228", "pgp": 0, "GoBack": 2, "SID": 1824, "NameZh": "Kaohsiung Municipal Industrial High School", "RouteId": 8009, "SeqNo": 10, "Terminal": 0, "DistrictId": 1, "Latitude": 22.650615, "Longitude": 120.326121, "IVRNo": 228, "EXTVoiceNo": 228, "traveltime": 0, "holidayTraveltime": 0}, {"Id": "0227", "pgp": 0, "GoBack": 2, "SID": 12537, "NameZh": "National Kaohsiung University of Science and Technology(Jiangong)", "RouteId": 8009, "SeqNo": 11, "Terminal": 0, "DistrictId": 1, "Latitude": 22.65145, "Longitude": 120.32781, "IVRNo": 227, "EXTVoiceNo": 227, "traveltime": 0, "holidayTraveltime": 0}, {"Id": "0226", "pgp": 0, "GoBack": 2, "SID": 12538, "NameZh": "Dafong 1st Rd. Intersection", "RouteId": 8009, "SeqNo": 12, "Terminal": 0, "DistrictId": 1, "Latitude": 22.6529, "Longitude": 120.3311, "IVRNo": 226, "EXTVoiceNo": 226, "traveltime": 0, "holidayTraveltime": 0}, {"Id": "0225", "pgp": 0, "GoBack": 2, "SID": 17213, "NameZh": "Benguan Rd. Intersection", "RouteId": 8009, "SeqNo": 13, "Terminal": 0, "DistrictId": 1, "Latitude": 22.655102, "Longitude": 120.335102, "IVRNo": 225, "EXTVoiceNo": 225, "traveltime": 0, "holidayTraveltime": 0}, {"Id": "0227", "pgp": 0, "GoBack": 2, "SID": 12540, "NameZh": "Wunming Lane", "RouteId": 8009, "SeqNo": 14, "Terminal": 0, "DistrictId": 1, "Latitude": 22.65364, "Longitude": 120.33833, "IVRNo": 10445, "EXTVoiceNo": 20227, "traveltime": 0, "holidayTraveltime": 0}, {"Id": "0289", "pgp": 0, "GoBack": 2, "SID": 12541, "NameZh": "Jhengde Buddha Hall", "RouteId": 8009, "SeqNo": 15, "Terminal": 0, "DistrictId": 1, "Latitude": 22.6506, "Longitude": 120.34258, "IVRNo": 289, "EXTVoiceNo": 289, "traveltime": 0, "holidayTraveltime": 0}, {"Id": "1170", "pgp": 0, "GoBack": 2, "SID": 17940, "NameZh": "Dahua Village", "RouteId": 8009, "SeqNo": 16, "Terminal": 0, "DistrictId": 1, "Latitude": 22.64812, "Longitude": 120.34611, "IVRNo": 32356, "EXTVoiceNo": 21170, "traveltime": 0, "holidayTraveltime": 0}, {"Id": "0636", "pgp": 0, "GoBack": 2, "SID": 12544, "NameZh": "Cheng Shiu University (Chengcing Lake)", "RouteId": 8009, "SeqNo": 17, "Terminal": 0, "DistrictId": 1, "Latitude": 22.65143, "Longitude": 120.34914, "IVRNo": 3533, "EXTVoiceNo": 10636, "traveltime": 0, "holidayTraveltime": 0}, {"Id": "3546", "pgp": 0, "GoBack": 2, "SID": 17203, "NameZh": "Chang Gung Rehabilitation buil Ding", "RouteId": 8009, "SeqNo": 18, "Terminal": 0, "DistrictId": 1, "Latitude": 22.650536, "Longitude": 120.352873, "IVRNo": 3546, "EXTVoiceNo": 3546, "traveltime": 0, "holidayTraveltime": 0}, {"Id": "3534", "pgp": 0, "GoBack": 2, "SID": 12545, "NameZh": "Chang Gung Memorial Hospital", "RouteId": 8009, "SeqNo": 19, "Terminal": 0, "DistrictId": 1, "Latitude": 22.650933, "Longitude": 120.356409, "IVRNo": 3534, "EXTVoiceNo": 3534, "traveltime": 0, "holidayTraveltime": 0}, {"Id": "1912", "pgp": 0, "GoBack": 2, "SID": 12056, "NameZh": "Chengcing Lake Baseball Field", "RouteId": 8009, "SeqNo": 20, "Terminal": 0, "DistrictId": 1, "Latitude": 22.6558, "Longitude": 120.36001, "IVRNo": 11912, "EXTVoiceNo": 11912, "traveltime": 0, "holidayTraveltime": 0}, {"Id": "3537", "pgp": 0, "GoBack": 2, "SID": 13302, "NameZh": "Jhongcheng Rd. Intersection", "RouteId": 8009, "SeqNo": 21, "Terminal": 0, "DistrictId": 1, "Latitude": 22.658001, "Longitude": 120.360904, "IVRNo": 864, "EXTVoiceNo": 3537, "traveltime": 0, "holidayTraveltime": 0}, {"Id": "7114", "pgp": 0, "GoBack": 2, "SID": 10769, "NameZh": "Niaosong District Office (Jhongjheng Rd.)", "RouteId": 8009, "SeqNo": 22, "Terminal": 0, "DistrictId": 1, "Latitude": 22.65969, "Longitude": 120.3643, "IVRNo": 4332, "EXTVoiceNo": 17114, "traveltime": 0, "holidayTraveltime": 0}, {"Id": "3370", "pgp": 0, "GoBack": 2, "SID": 8375, "NameZh": "Niaosong", "RouteId": 8009, "SeqNo": 23, "Terminal": 0, "DistrictId": 1, "Latitude": 22.66286, "Longitude": 120.36361, "IVRNo": 1463, "EXTVoiceNo": 13370, "traveltime": 0, "holidayTraveltime": 0}, {"Id": "9246", "pgp": 0, "GoBack": 2, "SID": 8376, "NameZh": "Mengli Village", "RouteId": 8009, "SeqNo": 24, "Terminal": 0, "DistrictId": 1, "Latitude": 22.66743, "Longitude": 120.3628, "IVRNo": 9245, "EXTVoiceNo": 9246, "traveltime": 0, "holidayTraveltime": 0}, {"Id": "0024", "pgp": 0, "GoBack": 2, "SID": 12549, "NameZh": "Shihjiouwan", "RouteId": 8009, "SeqNo": 25, "Terminal": 0, "DistrictId": 1, "Latitude": 22.67097, "Longitude": 120.36138, "IVRNo": 4835, "EXTVoiceNo": 20024, "traveltime": 0, "holidayTraveltime": 0}, {"Id": "0985", "pgp": 0, "GoBack": 2, "SID": 12550, "NameZh": "Gongwei New Village", "RouteId": 8009, "SeqNo": 26, "Terminal": 0, "DistrictId": 1, "Latitude": 22.67431, "Longitude": 120.36374, "IVRNo": 9271, "EXTVoiceNo": 20985, "traveltime": 0, "holidayTraveltime": 0}, {"Id": "0946", "pgp": 0, "GoBack": 2, "SID": 12551, "NameZh": "Lyuyuan Villa", "RouteId": 8009, "SeqNo": 27, "Terminal": 0, "DistrictId": 1, "Latitude": 22.676895, "Longitude": 120.363027, "IVRNo": 9249, "EXTVoiceNo": 20946, "traveltime": 0, "holidayTraveltime": 0}, {"Id": "0396", "pgp": 0, "GoBack": 2, "SID": 12552, "NameZh": "Kaotan Village", "RouteId": 8009, "SeqNo": 28, "Terminal": 0, "DistrictId": 1, "Latitude": 22.67931, "Longitude": 120.362, "IVRNo": 8968, "EXTVoiceNo": 20396, "traveltime": 0, "holidayTraveltime": 0}, {"Id": "3232", "pgp": 0, "GoBack": 2, "SID": 12553, "NameZh": "Tianhou Temple (Chenggong Rd.)", "RouteId": 8009, "SeqNo": 29, "Terminal": 0, "DistrictId": 1, "Latitude": 22.68139, "Longitude": 120.362127, "IVRNo": 3232, "EXTVoiceNo": 3232, "traveltime": 0, "holidayTraveltime": 0}, {"Id": "0851", "pgp": 0, "GoBack": 2, "SID": 12554, "NameZh": "Bizih Lane", "RouteId": 8009, "SeqNo": 30, "Terminal": 0, "DistrictId": 1, "Latitude": 22.68268, "Longitude": 120.36448, "IVRNo": 851, "EXTVoiceNo": 851, "traveltime": 0, "holidayTraveltime": 0}, {"Id": "0482", "pgp": 0, "GoBack": 2, "SID": 8399, "NameZh": "Mingshancihan House", "RouteId": 8009, "SeqNo": 31, "Terminal": 0, "DistrictId": 1, "Latitude": 22.68476, "Longitude": 120.36428, "IVRNo": 8991, "EXTVoiceNo": 20482, "traveltime": 0, "holidayTraveltime": 0}, {"Id": "8990", "pgp": 0, "GoBack": 2, "SID": 12555, "NameZh": "Jhongshan Pharmaceutical Factory", "RouteId": 8009, "SeqNo": 32, "Terminal": 0, "DistrictId": 1, "Latitude": 22.68618, "Longitude": 120.36458, "IVRNo": 8989, "EXTVoiceNo": 8990, "traveltime": 0, "holidayTraveltime": 0}, {"Id": "8995", "pgp": 0, "GoBack": 2, "SID": 12556, "NameZh": "Dongya Paint Factory", "RouteId": 8009, "SeqNo": 33, "Terminal": 0, "DistrictId": 1, "Latitude": 22.6888, "Longitude": 120.36701, "IVRNo": 8994, "EXTVoiceNo": 8995, "traveltime": 0, "holidayTraveltime": 0}, {"Id": "0055", "pgp": 0, "GoBack": 2, "SID": 12557, "NameZh": "Jioubaosiang Company", "RouteId": 8009, "SeqNo": 34, "Terminal": 0, "DistrictId": 1, "Latitude": 22.69178, "Longitude": 120.36979, "IVRNo": 8906, "EXTVoiceNo": 20055, "traveltime": 0, "holidayTraveltime": 0}, {"Id": "9028", "pgp": 0, "GoBack": 2, "SID": 8395, "NameZh": "Wulin Village", "RouteId": 8009, "SeqNo": 35, "Terminal": 0, "DistrictId": 1, "Latitude": 22.69663, "Longitude": 120.37551, "IVRNo": 9028, "EXTVoiceNo": 9028, "traveltime": 0, "holidayTraveltime": 0}, {"Id": "1001", "pgp": 0, "GoBack": 2, "SID": 12559, "NameZh": "Brick Factory", "RouteId": 8009, "SeqNo": 36, "Terminal": 0, "DistrictId": 1, "Latitude": 22.69875, "Longitude": 120.37967, "IVRNo": 9279, "EXTVoiceNo": 21001, "traveltime": 0, "holidayTraveltime": 0}, {"Id": "9016", "pgp": 0, "GoBack": 2, "SID": 12560, "NameZh": "Oil Depots", "RouteId": 8009, "SeqNo": 37, "Terminal": 0, "DistrictId": 1, "Latitude": 22.70101, "Longitude": 120.38787, "IVRNo": 9015, "EXTVoiceNo": 9016, "traveltime": 0, "holidayTraveltime": 0}, {"Id": "9042", "pgp": 0, "GoBack": 2, "SID": 12561, "NameZh": "Cingjing Temple (A) (Renlin Rd.)", "RouteId": 8009, "SeqNo": 38, "Terminal": 0, "DistrictId": 1, "Latitude": 22.70097, "Longitude": 120.39034, "IVRNo": 9042, "EXTVoiceNo": 9042, "traveltime": 0, "holidayTraveltime": 0}, {"Id": "1360", "pgp": 0, "GoBack": 2, "SID": 12562, "NameZh": "Ciding", "RouteId": 8009, "SeqNo": 39, "Terminal": 0, "DistrictId": 1, "Latitude": 22.70149, "Longitude": 120.39629, "IVRNo": 11360, "EXTVoiceNo": 11360, "traveltime": 0, "holidayTraveltime": 0}, {"Id": "1201", "pgp": 0, "GoBack": 2, "SID": 12563, "NameZh": "Wucha Rd. Intersection", "RouteId": 8009, "SeqNo": 40, "Terminal": 0, "DistrictId": 1, "Latitude": 22.69954, "Longitude": 120.40524, "IVRNo": 10329, "EXTVoiceNo": 21201, "traveltime": 0, "holidayTraveltime": 0}, {"Id": "1184", "pgp": 0, "GoBack": 2, "SID": 12564, "NameZh": "Shanding Cijiao", "RouteId": 8009, "SeqNo": 41, "Terminal": 0, "DistrictId": 1, "Latitude": 22.69636, "Longitude": 120.40964, "IVRNo": 10253, "EXTVoiceNo": 21184, "traveltime": 0, "holidayTraveltime": 0}, {"Id": "0884", "pgp": 0, "GoBack": 2, "SID": 12565, "NameZh": "Heshan Village Intersection", "RouteId": 8009, "SeqNo": 42, "Terminal": 0, "DistrictId": 1, "Latitude": 22.69684, "Longitude": 120.42041, "IVRNo": 3266, "EXTVoiceNo": 10884, "traveltime": 0, "holidayTraveltime": 0}, {"Id": "1975", "pgp": 0, "GoBack": 2, "SID": 12566, "NameZh": "Singshan Village", "RouteId": 8009, "SeqNo": 43, "Terminal": 0, "DistrictId": 1, "Latitude": 22.69402, "Longitude": 120.42539, "IVRNo": 3265, "EXTVoiceNo": 11975, "traveltime": 0, "holidayTraveltime": 0}, {"Id": "9217", "pgp": 0, "GoBack": 2, "SID": 12567, "NameZh": "Dashu Farmer`s Association", "RouteId": 8009, "SeqNo": 44, "Terminal": 0, "DistrictId": 1, "Latitude": 22.69083, "Longitude": 120.431801, "IVRNo": 9770, "EXTVoiceNo": 9217, "traveltime": 0, "holidayTraveltime": 0}, {"Id": "0118", "pgp": 0, "GoBack": 2, "SID": 12568, "NameZh": "Dashu", "RouteId": 8009, "SeqNo": 45, "Terminal": 0, "DistrictId": 1, "Latitude": 22.69196, "Longitude": 120.43243, "IVRNo": 10233, "EXTVoiceNo": 20118, "traveltime": 0, "holidayTraveltime": 0}, {"Id": "0335", "pgp": 0, "GoBack": 2, "SID": 12569, "NameZh": "Dashu Community Center", "RouteId": 8009, "SeqNo": 46, "Terminal": 0, "DistrictId": 1, "Latitude": 22.69704, "Longitude": 120.43359, "IVRNo": 335, "EXTVoiceNo": 335, "traveltime": 0, "holidayTraveltime": 0}, {"Id": "1368", "pgp": 0, "GoBack": 2, "SID": 12570, "NameZh": "Kunming Temple", "RouteId": 8009, "SeqNo": 47, "Terminal": 0, "DistrictId": 1, "Latitude": 22.69995, "Longitude": 120.43349, "IVRNo": 11368, "EXTVoiceNo": 11368, "traveltime": 0, "holidayTraveltime": 0}, {"Id": "0896", "pgp": 0, "GoBack": 2, "SID": 12571, "NameZh": "Gupoliao", "RouteId": 8009, "SeqNo": 48, "Terminal": 0, "DistrictId": 1, "Latitude": 22.70501, "Longitude": 120.43433, "IVRNo": 10896, "EXTVoiceNo": 10896, "traveltime": 0, "holidayTraveltime": 0}, {"Id": "0894", "pgp": 0, "GoBack": 2, "SID": 12572, "NameZh": "Gu-Shan Elementary school", "RouteId": 8009, "SeqNo": 49, "Terminal": 0, "DistrictId": 1, "Latitude": 22.70834, "Longitude": 120.43815, "IVRNo": 10894, "EXTVoiceNo": 10894, "traveltime": 0, "holidayTraveltime": 0}, {"Id": "6094", "pgp": 0, "GoBack": 2, "SID": 19257, "NameZh": "Gushan Warehouse Industrial Culture Park (Dakeng Rd.)", "RouteId": 8009, "SeqNo": 50, "Terminal": 0, "DistrictId": 1, "Latitude": 22.710007, "Longitude": 120.439367, "IVRNo": 1236, "EXTVoiceNo": 26094, "traveltime": 0, "holidayTraveltime": 0}, {"Id": "1160", "pgp": 0, "GoBack": 2, "SID": 12573, "NameZh": "Jhouzai", "RouteId": 8009, "SeqNo": 51, "Terminal": 0, "DistrictId": 1, "Latitude": 22.71374, "Longitude": 120.44133, "IVRNo": 11160, "EXTVoiceNo": 11160, "traveltime": 0, "holidayTraveltime": 0}, {"Id": "0077", "pgp": 0, "GoBack": 2, "SID": 12574, "NameZh": "Dakeng", "RouteId": 8009, "SeqNo": 52, "Terminal": 0, "DistrictId": 1, "Latitude": 22.71778, "Longitude": 120.44321, "IVRNo": 10159, "EXTVoiceNo": 20077, "traveltime": 0, "holidayTraveltime": 0}, {"Id": "0334", "pgp": 0, "GoBack": 2, "SID": 12575, "NameZh": "Sipu Elementary School", "RouteId": 8009, "SeqNo": 53, "Terminal": 0, "DistrictId": 1, "Latitude": 22.72246, "Longitude": 120.44344, "IVRNo": 334, "EXTVoiceNo": 334, "traveltime": 0, "holidayTraveltime": 0}, {"Id": "0134", "pgp": 0, "GoBack": 2, "SID": 6785, "NameZh": "Sipu Police Station", "RouteId": 8009, "SeqNo": 54, "Terminal": 0, "DistrictId": 1, "Latitude": 22.72764, "Longitude": 120.44455, "IVRNo": 134, "EXTVoiceNo": 134, "traveltime": 0, "holidayTraveltime": 0}, {"Id": "2299", "pgp": 0, "GoBack": 2, "SID": 12577, "NameZh": "Sipu", "RouteId": 8009, "SeqNo": 55, "Terminal": 0, "DistrictId": 1, "Latitude": 22.732023, "Longitude": 120.447211, "IVRNo": 133, "EXTVoiceNo": 32299, "traveltime": 0, "holidayTraveltime": 0}, {"Id": "3396", "pgp": 0, "GoBack": 2, "SID": 12578, "NameZh": "Sinsing (Dashu)", "RouteId": 8009, "SeqNo": 56, "Terminal": 0, "DistrictId": 1, "Latitude": 22.73734, "Longitude": 120.44775, "IVRNo": 11668, "EXTVoiceNo": 13396, "traveltime": 0, "holidayTraveltime": 0}, {"Id": "1981", "pgp": 0, "GoBack": 2, "SID": 12579, "NameZh": "Singtian", "RouteId": 8009, "SeqNo": 57, "Terminal": 0, "DistrictId": 1, "Latitude": 22.742011, "Longitude": 120.448161, "IVRNo": 11981, "EXTVoiceNo": 11981, "traveltime": 0, "holidayTraveltime": 0}, {"Id": "2298", "pgp": 0, "GoBack": 2, "SID": 12580, "NameZh": "Majhuyuan", "RouteId": 8009, "SeqNo": 58, "Terminal": 0, "DistrictId": 1, "Latitude": 22.74623, "Longitude": 120.44717, "IVRNo": 3263, "EXTVoiceNo": 32298, "traveltime": 0, "holidayTraveltime": 0}, {"Id": "0395", "pgp": 0, "GoBack": 2, "SID": 12581, "NameZh": "Fo Guang Shan", "RouteId": 8009, "SeqNo": 59, "Terminal": 0, "DistrictId": 1, "Latitude": 22.74929, "Longitude": 120.44749, "IVRNo": 395, "EXTVoiceNo": 395, "traveltime": 0, "holidayTraveltime": 0}, {"Id": "0396", "pgp": 0, "GoBack": 2, "SID": 12362, "NameZh": "Fo Guang Shan Buddha Museum", "RouteId": 8009, "SeqNo": 60, "Terminal": 0, "DistrictId": 1, "Latitude": 22.754891, "Longitude": 120.447555, "IVRNo": 396, "EXTVoiceNo": 396, "traveltime": 0, "holidayTraveltime": 0}, {"Id": "0790", "pgp": 0, "GoBack": 2, "SID": 12582, "NameZh": "Tonglingkeng", "RouteId": 8009, "SeqNo": 61, "Terminal": 0, "DistrictId": 1, "Latitude": 22.75629, "Longitude": 120.44778, "IVRNo": 790, "EXTVoiceNo": 790, "traveltime": 0, "holidayTraveltime": 0}, {"Id": "0421", "pgp": 0, "GoBack": 2, "SID": 12583, "NameZh": "Fangkan", "RouteId": 8009, "SeqNo": 62, "Terminal": 0, "DistrictId": 1, "Latitude": 22.76152, "Longitude": 120.44691, "IVRNo": 131, "EXTVoiceNo": 20421, "traveltime": 0, "holidayTraveltime": 0}, {"Id": "2018", "pgp": 0, "GoBack": 2, "SID": 12584, "NameZh": "Lingkou", "RouteId": 8009, "SeqNo": 63, "Terminal": 0, "DistrictId": 1, "Latitude": 22.773651, "Longitude": 120.44934, "IVRNo": 12018, "EXTVoiceNo": 12018, "traveltime": 0, "holidayTraveltime": 0}, {"Id": "1184", "pgp": 0, "GoBack": 2, "SID": 12585, "NameZh": "Gravel Pits", "RouteId": 8009, "SeqNo": 64, "Terminal": 0, "DistrictId": 1, "Latitude": 22.79026, "Longitude": 120.45628, "IVRNo": 11184, "EXTVoiceNo": 11184, "traveltime": 0, "holidayTraveltime": 0}, {"Id": "1904", "pgp": 0, "GoBack": 2, "SID": 12586, "NameZh": "Desheng Lane", "RouteId": 8009, "SeqNo": 65, "Terminal": 0, "DistrictId": 1, "Latitude": 22.79692, "Longitude": 120.4582, "IVRNo": 11904, "EXTVoiceNo": 11904, "traveltime": 0, "holidayTraveltime": 0}, {"Id": "3333", "pgp": 0, "GoBack": 2, "SID": 12587, "NameZh": "Nansheng Lake", "RouteId": 8009, "SeqNo": 66, "Terminal": 0, "DistrictId": 1, "Latitude": 22.79993, "Longitude": 120.45915, "IVRNo": 11086, "EXTVoiceNo": 13333, "traveltime": 0, "holidayTraveltime": 0}, {"Id": "3434", "pgp": 0, "GoBack": 2, "SID": 13859, "NameZh": "Congzaikeng", "RouteId": 8009, "SeqNo": 67, "Terminal": 0, "DistrictId": 1, "Latitude": 22.80932, "Longitude": 120.461573, "IVRNo": 13434, "EXTVoiceNo": 13434, "traveltime": 0, "holidayTraveltime": 0}, {"Id": "0900", "pgp": 0, "GoBack": 2, "SID": 12589, "NameZh": "Shanghe", "RouteId": 8009, "SeqNo": 68, "Terminal": 0, "DistrictId": 1, "Latitude": 22.81476, "Longitude": 120.46171, "IVRNo": 10900, "EXTVoiceNo": 10900, "traveltime": 0, "holidayTraveltime": 0}, {"Id": "0076", "pgp": 0, "GoBack": 2, "SID": 7649, "NameZh": "Dajhuwei", "RouteId": 8009, "SeqNo": 69, "Terminal": 0, "DistrictId": 1, "Latitude": 22.82826, "Longitude": 120.46246, "IVRNo": 9148, "EXTVoiceNo": 20076, "traveltime": 0, "holidayTraveltime": 0}, {"Id": "1606", "pgp": 0, "GoBack": 2, "SID": 12591, "NameZh": "Singuang Village", "RouteId": 8009, "SeqNo": 70, "Terminal": 0, "DistrictId": 1, "Latitude": 22.83239, "Longitude": 120.46272, "IVRNo": 11606, "EXTVoiceNo": 11606, "traveltime": 0, "holidayTraveltime": 0}, {"Id": "0095", "pgp": 0, "GoBack": 2, "SID": 12592, "NameZh": "Dajhou Junior High School", "RouteId": 8009, "SeqNo": 71, "Terminal": 0, "DistrictId": 1, "Latitude": 22.83587, "Longitude": 120.46255, "IVRNo": 10183, "EXTVoiceNo": 20095, "traveltime": 0, "holidayTraveltime": 0}, {"Id": "0208", "pgp": 0, "GoBack": 2, "SID": 12593, "NameZh": "Gongyuanzih", "RouteId": 8009, "SeqNo": 72, "Terminal": 0, "DistrictId": 1, "Latitude": 22.83776, "Longitude": 120.46278, "IVRNo": 10402, "EXTVoiceNo": 20208, "traveltime": 0, "holidayTraveltime": 0}, {"Id": "0129", "pgp": 0, "GoBack": 2, "SID": 12594, "NameZh": "7-11 Sijhou Store", "RouteId": 8009, "SeqNo": 73, "Terminal": 0, "DistrictId": 1, "Latitude": 22.8399, "Longitude": 120.46332, "IVRNo": 129, "EXTVoiceNo": 129, "traveltime": 0, "holidayTraveltime": 0}, {"Id": "1702", "pgp": 0, "GoBack": 2, "SID": 12595, "NameZh": "Sijhou", "RouteId": 8009, "SeqNo": 74, "Terminal": 0, "DistrictId": 1, "Latitude": 22.8439, "Longitude": 120.46453, "IVRNo": 11702, "EXTVoiceNo": 11702, "traveltime": 0, "holidayTraveltime": 0}, {"Id": "1704", "pgp": 0, "GoBack": 2, "SID": 12596, "NameZh": "Sijhou Elementary School", "RouteId": 8009, "SeqNo": 75, "Terminal": 0, "DistrictId": 1, "Latitude": 22.84751, "Longitude": 120.46574, "IVRNo": 11704, "EXTVoiceNo": 11704, "traveltime": 0, "holidayTraveltime": 0}, {"Id": "3460", "pgp": 0, "GoBack": 2, "SID": 12597, "NameZh": "Cingshuei Temple (Sijhou)", "RouteId": 8009, "SeqNo": 76, "Terminal": 0, "DistrictId": 1, "Latitude": 22.85048, "Longitude": 120.46702, "IVRNo": 803, "EXTVoiceNo": 13460, "traveltime": 0, "holidayTraveltime": 0}, {"Id": "0062", "pgp": 0, "GoBack": 2, "SID": 12598, "NameZh": "Dashan", "RouteId": 8009, "SeqNo": 77, "Terminal": 0, "DistrictId": 1, "Latitude": 22.85342, "Longitude": 120.46804, "IVRNo": 10136, "EXTVoiceNo": 20062, "traveltime": 0, "holidayTraveltime": 0}, {"Id": "3423", "pgp": 0, "GoBack": 2, "SID": 12599, "NameZh": "Weiguang Village", "RouteId": 8009, "SeqNo": 78, "Terminal": 0, "DistrictId": 1, "Latitude": 22.85706, "Longitude": 120.46878, "IVRNo": 11935, "EXTVoiceNo": 13423, "traveltime": 0, "holidayTraveltime": 0}, {"Id": "0984", "pgp": 0, "GoBack": 2, "SID": 12600, "NameZh": "Wulu", "RouteId": 8009, "SeqNo": 79, "Terminal": 0, "DistrictId": 1, "Latitude": 22.86107, "Longitude": 120.46873, "IVRNo": 10984, "EXTVoiceNo": 10984, "traveltime": 0, "holidayTraveltime": 0}, {"Id": "3315", "pgp": 0, "GoBack": 2, "SID": 12601, "NameZh": "Hechang", "RouteId": 8009, "SeqNo": 80, "Terminal": 0, "DistrictId": 1, "Latitude": 22.86437, "Longitude": 120.47059, "IVRNo": 10888, "EXTVoiceNo": 13315, "traveltime": 0, "holidayTraveltime": 0}, {"Id": "3417", "pgp": 0, "GoBack": 2, "SID": 12602, "NameZh": "Cinan 1st Rd.", "RouteId": 8009, "SeqNo": 81, "Terminal": 0, "DistrictId": 1, "Latitude": 22.86966, "Longitude": 120.47298, "IVRNo": 11842, "EXTVoiceNo": 13417, "traveltime": 0, "holidayTraveltime": 0}, {"Id": "1000", "pgp": 0, "GoBack": 2, "SID": 12603, "NameZh": "Huaci Villa", "RouteId": 8009, "SeqNo": 82, "Terminal": 0, "DistrictId": 1, "Latitude": 22.87314, "Longitude": 120.47432, "IVRNo": 11000, "EXTVoiceNo": 11000, "traveltime": 0, "holidayTraveltime": 0}, {"Id": "3430", "pgp": 0, "GoBack": 2, "SID": 15228, "NameZh": "Toulin Lane Intersection", "RouteId": 8009, "SeqNo": 83, "Terminal": 0, "DistrictId": 1, "Latitude": 22.87662, "Longitude": 120.47539, "IVRNo": 3273, "EXTVoiceNo": 13430, "traveltime": 0, "holidayTraveltime": 0}, {"Id": "3337", "pgp": 0, "GoBack": 2, "SID": 12604, "NameZh": "Ciouliang Mountain", "RouteId": 8009, "SeqNo": 84, "Terminal": 0, "DistrictId": 1, "Latitude": 22.87951, "Longitude": 120.47678, "IVRNo": 3258, "EXTVoiceNo": 13337, "traveltime": 0, "holidayTraveltime": 0}, {"Id": "0168", "pgp": 0, "GoBack": 2, "SID": 12605, "NameZh": "Jhongsyue Rd.", "RouteId": 8009, "SeqNo": 85, "Terminal": 0, "DistrictId": 1, "Latitude": 22.882569, "Longitude": 120.479105, "IVRNo": 10321, "EXTVoiceNo": 20168, "traveltime": 0, "holidayTraveltime": 0}, {"Id": "2114", "pgp": 0, "GoBack": 2, "SID": 12606, "NameZh": "Dechang Rd. (Jhongsyue Rd. Intersection)", "RouteId": 8009, "SeqNo": 86, "Terminal": 0, "DistrictId": 1, "Latitude": 22.881665, "Longitude": 120.48212, "IVRNo": 2114, "EXTVoiceNo": 2114, "traveltime": 0, "holidayTraveltime": 0}, {"Id": "3412", "pgp": 0, "GoBack": 2, "SID": 12608, "NameZh": "Cishan Bus Transfer Station", "RouteId": 8009, "SeqNo": 87, "Terminal": 0, "DistrictId": 1, "Latitude": 22.883651, "Longitude": 120.484555, "IVRNo": 9717, "EXTVoiceNo": 13412, "traveltime": 0, "holidayTraveltime": 0}, {"Id": "9718", "pgp": 0, "GoBack": 2, "SID": 12609, "NameZh": "Yanping Rd. (Cishan District Office)", "RouteId": 8009, "SeqNo": 88, "Terminal": 0, "DistrictId": 1, "Latitude": 22.88761, "Longitude": 120.483247, "IVRNo": 9718, "EXTVoiceNo": 9718, "traveltime": 0, "holidayTraveltime": 0}, {"Id": "9374", "pgp": 0, "GoBack": 2, "SID": 2669, "NameZh": "Cishan Market", "RouteId": 8009, "SeqNo": 89, "Terminal": 0, "DistrictId": 1, "Latitude": 22.8899, "Longitude": 120.48332, "IVRNo": 9953, "EXTVoiceNo": 9374, "traveltime": 0, "holidayTraveltime": 0}, {"Id": "1197", "pgp": 0, "GoBack": 2, "SID": 17471, "NameZh": "Jhonghua Rd. Intersection (Ci)", "RouteId": 8009, "SeqNo": 90, "Terminal": 0, "DistrictId": 1, "Latitude": 22.89268, "Longitude": 120.48355, "IVRNo": 1180, "EXTVoiceNo": 21197, "traveltime": 0, "holidayTraveltime": 0}, {"Id": "1828", "pgp": 0, "GoBack": 2, "SID": 12612, "NameZh": "Cishan North Station", "RouteId": 8009, "SeqNo": 91, "Terminal": 1, "DistrictId": 1, "Latitude": 22.896043, "Longitude": 120.483457, "IVRNo": 9142, "EXTVoiceNo": 11828, "traveltime": 0, "holidayTraveltime": 0}], "zh": [{"Id": "1828", "pgp": 0, "GoBack": 1, "SID": 12445, "NameZh": "\u65d7\u5c71\u5317\u7ad9", "RouteId": 8009, "SeqNo": 1, "Terminal": 0, "DistrictId": 1, "Latitude": 22.896043, "Longitude": 120.483457, "IVRNo": 9142, "EXTVoiceNo": 11828, "traveltime": 0, "holidayTraveltime": 0}, {"Id": "1197", "pgp": 0, "GoBack": 1, "SID": 17276, "NameZh": "\u4e2d\u83ef\u8def\u53e3(\u65d7)", "RouteId": 8009, "SeqNo": 2, "Terminal": 0, "DistrictId": 1, "Latitude": 22.89278, "Longitude": 120.4833, "IVRNo": 1180, "EXTVoiceNo": 21197, "traveltime": 0, "holidayTraveltime": 0}, {"Id": "9374", "pgp": 0, "GoBack": 1, "SID": 2336, "NameZh": "\u65d7\u5c71\u5e02\u5834", "RouteId": 8009, "SeqNo": 3, "Terminal": 0, "DistrictId": 1, "Latitude": 22.889889, "Longitude": 120.483465, "IVRNo": 9953, "EXTVoiceNo": 9374, "traveltime": 0, "holidayTraveltime": 0}, {"Id": "9718", "pgp": 0, "GoBack": 1, "SID": 12448, "NameZh": "\u5ef6\u5e73\u8def(\u65d7\u5c71\u5340\u516c\u6240)", "RouteId": 8009, "SeqNo": 4, "Terminal": 0, "DistrictId": 1, "Latitude": 22.88762, "Longitude": 120.48313, "IVRNo": 9718, "EXTVoiceNo": 9718, "traveltime": 0, "holidayTraveltime": 0}, {"Id": "3412", "pgp": 0, "GoBack": 1, "SID": 12449, "NameZh": "\u65d7\u5c71\u8f49\u904b\u7ad9", "RouteId": 8009, "SeqNo": 5, "Terminal": 0, "DistrictId": 1, "Latitude": 22.883651, "Longitude": 120.484555, "IVRNo": 9717, "EXTVoiceNo": 13412, "traveltime": 0, "holidayTraveltime": 0}, {"Id": "2114", "pgp": 0, "GoBack": 1, "SID": 12451, "NameZh": "\u5fb7\u660c\u8def(\u4e2d\u5b78\u8def\u53e3)", "RouteId": 8009, "SeqNo": 6, "Terminal": 0, "DistrictId": 1, "Latitude": 22.88162, "Longitude": 120.48203, "IVRNo": 2114, "EXTVoiceNo": 2114, "traveltime": 0, "holidayTraveltime": 0}, {"Id": "0168", "pgp": 0, "GoBack": 1, "SID": 12452, "NameZh": "\u4e2d\u5b78\u8def", "RouteId": 8009, "SeqNo": 7, "Terminal": 0, "DistrictId": 1, "Latitude": 22.88282, "Longitude": 120.47867, "IVRNo": 10321, "EXTVoiceNo": 20168, "traveltime": 0, "holidayTraveltime": 0}, {"Id": "3337", "pgp": 0, "GoBack": 1, "SID": 12453, "NameZh": "\u79cb\u6dbc\u5c71", "RouteId": 8009, "SeqNo": 8, "Terminal": 0, "DistrictId": 1, "Latitude": 22.87956, "Longitude": 120.47664, "IVRNo": 3258, "EXTVoiceNo": 13337, "traveltime": 0, "holidayTraveltime": 0}, {"Id": "3430", "pgp": 0, "GoBack": 1, "SID": 12622, "NameZh": "\u982d\u6797\u5df7\u53e3", "RouteId": 8009, "SeqNo": 9, "Terminal": 0, "DistrictId": 1, "Latitude": 22.87667, "Longitude": 120.47531, "IVRNo": 3273, "EXTVoiceNo": 13430, "traveltime": 0, "holidayTraveltime": 0}, {"Id": "1000", "pgp": 0, "GoBack": 1, "SID": 12454, "NameZh": "\u82b1\u65d7\u5c71\u838a", "RouteId": 8009, "SeqNo": 10, "Terminal": 0, "DistrictId": 1, "Latitude": 22.873129, "Longitude": 120.474145, "IVRNo": 11000, "EXTVoiceNo": 11000, "traveltime": 0, "holidayTraveltime": 0}, {"Id": "3417", "pgp": 0, "GoBack": 1, "SID": 12455, "NameZh": "\u65d7\u5357\u4e00\u8def", "RouteId": 8009, "SeqNo": 11, "Terminal": 0, "DistrictId": 1, "Latitude": 22.86984, "Longitude": 120.47295, "IVRNo": 11842, "EXTVoiceNo": 13417, "traveltime": 0, "holidayTraveltime": 0}, {"Id": "3315", "pgp": 0, "GoBack": 1, "SID": 12456, "NameZh": "\u548c\u660c", "RouteId": 8009, "SeqNo": 12, "Terminal": 0, "DistrictId": 1, "Latitude": 22.86462, "Longitude": 120.47055, "IVRNo": 10888, "EXTVoiceNo": 13315, "traveltime": 0, "holidayTraveltime": 0}, {"Id": "0984", "pgp": 0, "GoBack": 1, "SID": 12457, "NameZh": "\u6b66\u9e7f", "RouteId": 8009, "SeqNo": 13, "Terminal": 0, "DistrictId": 1, "Latitude": 22.86116, "Longitude": 120.46857, "IVRNo": 10984, "EXTVoiceNo": 10984, "traveltime": 0, "holidayTraveltime": 0}, {"Id": "3423", "pgp": 0, "GoBack": 1, "SID": 12458, "NameZh": "\u885b\u5149\u6751", "RouteId": 8009, "SeqNo": 14, "Terminal": 0, "DistrictId": 1, "Latitude": 22.85679, "Longitude": 120.46857, "IVRNo": 11935, "EXTVoiceNo": 13423, "traveltime": 0, "holidayTraveltime": 0}, {"Id": "0062", "pgp": 0, "GoBack": 1, "SID": 12459, "NameZh": "\u5927\u5c71", "RouteId": 8009, "SeqNo": 15, "Terminal": 0, "DistrictId": 1, "Latitude": 22.85314, "Longitude": 120.46789, "IVRNo": 10136, "EXTVoiceNo": 20062, "traveltime": 0, "holidayTraveltime": 0}, {"Id": "3460", "pgp": 0, "GoBack": 1, "SID": 12460, "NameZh": "\u6e05\u6c34\u5bfa(\u6eaa\u6d32)", "RouteId": 8009, "SeqNo": 16, "Terminal": 0, "DistrictId": 1, "Latitude": 22.8506, "Longitude": 120.46688, "IVRNo": 803, "EXTVoiceNo": 13460, "traveltime": 0, "holidayTraveltime": 0}, {"Id": "1704", "pgp": 0, "GoBack": 1, "SID": 12461, "NameZh": "\u6eaa\u6d32\u570b\u5c0f", "RouteId": 8009, "SeqNo": 17, "Terminal": 0, "DistrictId": 1, "Latitude": 22.84735, "Longitude": 120.46552, "IVRNo": 11704, "EXTVoiceNo": 11704, "traveltime": 0, "holidayTraveltime": 0}, {"Id": "1702", "pgp": 0, "GoBack": 1, "SID": 12462, "NameZh": "\u6eaa\u6d32", "RouteId": 8009, "SeqNo": 18, "Terminal": 0, "DistrictId": 1, "Latitude": 22.84269, "Longitude": 120.46421, "IVRNo": 11702, "EXTVoiceNo": 11702, "traveltime": 0, "holidayTraveltime": 0}, {"Id": "0129", "pgp": 0, "GoBack": 1, "SID": 12463, "NameZh": "7-11\u6eaa\u6d32\u9580\u5e02", "RouteId": 8009, "SeqNo": 19, "Terminal": 0, "DistrictId": 1, "Latitude": 22.83974, "Longitude": 120.46319, "IVRNo": 129, "EXTVoiceNo": 129, "traveltime": 0, "holidayTraveltime": 0}, {"Id": "0208", "pgp": 0, "GoBack": 1, "SID": 12464, "NameZh": "\u516c\u5712\u4ed4", "RouteId": 8009, "SeqNo": 20, "Terminal": 0, "DistrictId": 1, "Latitude": 22.83775, "Longitude": 120.46265, "IVRNo": 10402, "EXTVoiceNo": 20208, "traveltime": 0, "holidayTraveltime": 0}, {"Id": "0095", "pgp": 0, "GoBack": 1, "SID": 12465, "NameZh": "\u5927\u6d32\u570b\u4e2d", "RouteId": 8009, "SeqNo": 21, "Terminal": 0, "DistrictId": 1, "Latitude": 22.835888, "Longitude": 120.462384, "IVRNo": 10183, "EXTVoiceNo": 20095, "traveltime": 0, "holidayTraveltime": 0}, {"Id": "1606", "pgp": 0, "GoBack": 1, "SID": 12466, "NameZh": "\u65b0\u5149\u91cc", "RouteId": 8009, "SeqNo": 22, "Terminal": 0, "DistrictId": 1, "Latitude": 22.8323, "Longitude": 120.46258, "IVRNo": 11606, "EXTVoiceNo": 11606, "traveltime": 0, "holidayTraveltime": 0}, {"Id": "0076", "pgp": 0, "GoBack": 1, "SID": 7854, "NameZh": "\u5927\u7af9\u570d", "RouteId": 8009, "SeqNo": 23, "Terminal": 0, "DistrictId": 1, "Latitude": 22.82444, "Longitude": 120.46229, "IVRNo": 9148, "EXTVoiceNo": 20076, "traveltime": 0, "holidayTraveltime": 0}, {"Id": "0900", "pgp": 0, "GoBack": 1, "SID": 12468, "NameZh": "\u5c1a\u548c", "RouteId": 8009, "SeqNo": 24, "Terminal": 0, "DistrictId": 1, "Latitude": 22.8148, "Longitude": 120.46155, "IVRNo": 10900, "EXTVoiceNo": 10900, "traveltime": 0, "holidayTraveltime": 0}, {"Id": "3434", "pgp": 0, "GoBack": 1, "SID": 13859, "NameZh": "\u53e2\u4ed4\u5751", "RouteId": 8009, "SeqNo": 25, "Terminal": 0, "DistrictId": 1, "Latitude": 22.80932, "Longitude": 120.461573, "IVRNo": 13434, "EXTVoiceNo": 13434, "traveltime": 0, "holidayTraveltime": 0}, {"Id": "3333", "pgp": 0, "GoBack": 1, "SID": 12470, "NameZh": "\u5357\u52dd\u6e56", "RouteId": 8009, "SeqNo": 26, "Terminal": 0, "DistrictId": 1, "Latitude": 22.79996, "Longitude": 120.45902, "IVRNo": 11086, "EXTVoiceNo": 13333, "traveltime": 0, "holidayTraveltime": 0}, {"Id": "1904", "pgp": 0, "GoBack": 1, "SID": 12471, "NameZh": "\u5fb7\u52dd\u5df7", "RouteId": 8009, "SeqNo": 27, "Terminal": 0, "DistrictId": 1, "Latitude": 22.796983, "Longitude": 120.458014, "IVRNo": 11904, "EXTVoiceNo": 11904, "traveltime": 0, "holidayTraveltime": 0}, {"Id": "1184", "pgp": 0, "GoBack": 1, "SID": 12472, "NameZh": "\u7802\u77f3\u5834", "RouteId": 8009, "SeqNo": 28, "Terminal": 0, "DistrictId": 1, "Latitude": 22.79031, "Longitude": 120.45608, "IVRNo": 11184, "EXTVoiceNo": 11184, "traveltime": 0, "holidayTraveltime": 0}, {"Id": "2018", "pgp": 0, "GoBack": 1, "SID": 12473, "NameZh": "\u5dba\u53e3", "RouteId": 8009, "SeqNo": 29, "Terminal": 0, "DistrictId": 1, "Latitude": 22.77376, "Longitude": 120.44926, "IVRNo": 12018, "EXTVoiceNo": 12018, "traveltime": 0, "holidayTraveltime": 0}, {"Id": "0421", "pgp": 0, "GoBack": 1, "SID": 12474, "NameZh": "\u574a\u5d01", "RouteId": 8009, "SeqNo": 30, "Terminal": 0, "DistrictId": 1, "Latitude": 22.76136, "Longitude": 120.44675, "IVRNo": 131, "EXTVoiceNo": 20421, "traveltime": 0, "holidayTraveltime": 0}, {"Id": "0790", "pgp": 0, "GoBack": 1, "SID": 12475, "NameZh": "\u7d71\u5dba\u5751", "RouteId": 8009, "SeqNo": 31, "Terminal": 0, "DistrictId": 1, "Latitude": 22.75593, "Longitude": 120.44765, "IVRNo": 790, "EXTVoiceNo": 790, "traveltime": 0, "holidayTraveltime": 0}, {"Id": "0396", "pgp": 0, "GoBack": 1, "SID": 12722, "NameZh": "\u4f5b\u9640\u7d00\u5ff5\u9928", "RouteId": 8009, "SeqNo": 32, "Terminal": 0, "DistrictId": 1, "Latitude": 22.75497, "Longitude": 120.44615, "IVRNo": 396, "EXTVoiceNo": 396, "traveltime": 0, "holidayTraveltime": 0}, {"Id": "0395", "pgp": 0, "GoBack": 1, "SID": 12476, "NameZh": "\u4f5b\u5149\u5c71", "RouteId": 8009, "SeqNo": 33, "Terminal": 0, "DistrictId": 1, "Latitude": 22.7495, "Longitude": 120.44706, "IVRNo": 395, "EXTVoiceNo": 395, "traveltime": 0, "holidayTraveltime": 0}, {"Id": "2298", "pgp": 0, "GoBack": 1, "SID": 12477, "NameZh": "\u9ebb\u7af9\u5712", "RouteId": 8009, "SeqNo": 34, "Terminal": 0, "DistrictId": 1, "Latitude": 22.74639, "Longitude": 120.447, "IVRNo": 3263, "EXTVoiceNo": 32298, "traveltime": 0, "holidayTraveltime": 0}, {"Id": "1981", "pgp": 0, "GoBack": 1, "SID": 12478, "NameZh": "\u8208\u7530", "RouteId": 8009, "SeqNo": 35, "Terminal": 0, "DistrictId": 1, "Latitude": 22.74199, "Longitude": 120.44826, "IVRNo": 11981, "EXTVoiceNo": 11981, "traveltime": 0, "holidayTraveltime": 0}, {"Id": "3396", "pgp": 0, "GoBack": 1, "SID": 12479, "NameZh": "\u65b0\u8208(\u5927\u6a39)", "RouteId": 8009, "SeqNo": 36, "Terminal": 0, "DistrictId": 1, "Latitude": 22.73735, "Longitude": 120.44769, "IVRNo": 11668, "EXTVoiceNo": 13396, "traveltime": 0, "holidayTraveltime": 0}, {"Id": "2299", "pgp": 0, "GoBack": 1, "SID": 12480, "NameZh": "\u6eaa\u57d4", "RouteId": 8009, "SeqNo": 37, "Terminal": 0, "DistrictId": 1, "Latitude": 22.73201, "Longitude": 120.44736, "IVRNo": 133, "EXTVoiceNo": 32299, "traveltime": 0, "holidayTraveltime": 0}, {"Id": "0134", "pgp": 0, "GoBack": 1, "SID": 6653, "NameZh": "\u6eaa\u57d4\u6d3e\u51fa\u6240", "RouteId": 8009, "SeqNo": 38, "Terminal": 0, "DistrictId": 1, "Latitude": 22.72768, "Longitude": 120.4445, "IVRNo": 134, "EXTVoiceNo": 134, "traveltime": 0, "holidayTraveltime": 0}, {"Id": "0334", "pgp": 0, "GoBack": 1, "SID": 12482, "NameZh": "\u6eaa\u57d4\u570b\u5c0f", "RouteId": 8009, "SeqNo": 39, "Terminal": 0, "DistrictId": 1, "Latitude": 22.72261, "Longitude": 120.44332, "IVRNo": 334, "EXTVoiceNo": 334, "traveltime": 0, "holidayTraveltime": 0}, {"Id": "0077", "pgp": 0, "GoBack": 1, "SID": 12483, "NameZh": "\u5927\u5751", "RouteId": 8009, "SeqNo": 40, "Terminal": 0, "DistrictId": 1, "Latitude": 22.71764, "Longitude": 120.44308, "IVRNo": 10159, "EXTVoiceNo": 20077, "traveltime": 0, "holidayTraveltime": 0}, {"Id": "1160", "pgp": 0, "GoBack": 1, "SID": 12484, "NameZh": "\u6d32\u4ed4", "RouteId": 8009, "SeqNo": 41, "Terminal": 0, "DistrictId": 1, "Latitude": 22.71363, "Longitude": 120.44115, "IVRNo": 11160, "EXTVoiceNo": 11160, "traveltime": 0, "holidayTraveltime": 0}, {"Id": "6094", "pgp": 0, "GoBack": 1, "SID": 19258, "NameZh": "\u59d1\u5c71\u5009\u5eab(\u5927\u5751\u8def)", "RouteId": 8009, "SeqNo": 42, "Terminal": 0, "DistrictId": 1, "Latitude": 22.710952, "Longitude": 120.439831, "IVRNo": 1236, "EXTVoiceNo": 26094, "traveltime": 0, "holidayTraveltime": 0}, {"Id": "0894", "pgp": 0, "GoBack": 1, "SID": 12485, "NameZh": "\u59d1\u5c71\u570b\u5c0f", "RouteId": 8009, "SeqNo": 43, "Terminal": 0, "DistrictId": 1, "Latitude": 22.708283, "Longitude": 120.43823, "IVRNo": 10894, "EXTVoiceNo": 10894, "traveltime": 0, "holidayTraveltime": 0}, {"Id": "0896", "pgp": 0, "GoBack": 1, "SID": 12486, "NameZh": "\u59d1\u5a46\u5bee", "RouteId": 8009, "SeqNo": 44, "Terminal": 0, "DistrictId": 1, "Latitude": 22.705085, "Longitude": 120.434216, "IVRNo": 10896, "EXTVoiceNo": 10896, "traveltime": 0, "holidayTraveltime": 0}, {"Id": "1368", "pgp": 0, "GoBack": 1, "SID": 12487, "NameZh": "\u5d11\u660e\u5bfa", "RouteId": 8009, "SeqNo": 45, "Terminal": 0, "DistrictId": 1, "Latitude": 22.7, "Longitude": 120.43332, "IVRNo": 11368, "EXTVoiceNo": 11368, "traveltime": 0, "holidayTraveltime": 0}, {"Id": "0335", "pgp": 0, "GoBack": 1, "SID": 12488, "NameZh": "\u5927\u6a39\u6d3b\u52d5\u4e2d\u5fc3", "RouteId": 8009, "SeqNo": 46, "Terminal": 0, "DistrictId": 1, "Latitude": 22.69683, "Longitude": 120.43347, "IVRNo": 335, "EXTVoiceNo": 335, "traveltime": 0, "holidayTraveltime": 0}, {"Id": "0118", "pgp": 0, "GoBack": 1, "SID": 12489, "NameZh": "\u5927\u6a39", "RouteId": 8009, "SeqNo": 47, "Terminal": 0, "DistrictId": 1, "Latitude": 22.69204, "Longitude": 120.43248, "IVRNo": 10233, "EXTVoiceNo": 20118, "traveltime": 0, "holidayTraveltime": 0}, {"Id": "9217", "pgp": 0, "GoBack": 1, "SID": 12490, "NameZh": "\u5927\u6a39\u8fb2\u6703", "RouteId": 8009, "SeqNo": 48, "Terminal": 0, "DistrictId": 1, "Latitude": 22.69101, "Longitude": 120.43182, "IVRNo": 9770, "EXTVoiceNo": 9217, "traveltime": 0, "holidayTraveltime": 0}, {"Id": "1975", "pgp": 0, "GoBack": 1, "SID": 12491, "NameZh": "\u8208\u5c71\u91cc", "RouteId": 8009, "SeqNo": 49, "Terminal": 0, "DistrictId": 1, "Latitude": 22.69412, "Longitude": 120.42545, "IVRNo": 3265, "EXTVoiceNo": 11975, "traveltime": 0, "holidayTraveltime": 0}, {"Id": "0884", "pgp": 0, "GoBack": 1, "SID": 12492, "NameZh": "\u548c\u5c71\u91cc\u53e3", "RouteId": 8009, "SeqNo": 50, "Terminal": 0, "DistrictId": 1, "Latitude": 22.69703, "Longitude": 120.4205, "IVRNo": 3266, "EXTVoiceNo": 10884, "traveltime": 0, "holidayTraveltime": 0}, {"Id": "1184", "pgp": 0, "GoBack": 1, "SID": 12493, "NameZh": "\u5c71\u9802\u5d0e\u8173", "RouteId": 8009, "SeqNo": 51, "Terminal": 0, "DistrictId": 1, "Latitude": 22.69652, "Longitude": 120.4097, "IVRNo": 10253, "EXTVoiceNo": 21184, "traveltime": 0, "holidayTraveltime": 0}, {"Id": "1201", "pgp": 0, "GoBack": 1, "SID": 12494, "NameZh": "\u4e94\u53c9\u8def\u53e3", "RouteId": 8009, "SeqNo": 52, "Terminal": 0, "DistrictId": 1, "Latitude": 22.69958, "Longitude": 120.40542, "IVRNo": 10329, "EXTVoiceNo": 21201, "traveltime": 0, "holidayTraveltime": 0}, {"Id": "1360", "pgp": 0, "GoBack": 1, "SID": 12495, "NameZh": "\u5d0e\u9802", "RouteId": 8009, "SeqNo": 53, "Terminal": 0, "DistrictId": 1, "Latitude": 22.7016, "Longitude": 120.39617, "IVRNo": 11360, "EXTVoiceNo": 11360, "traveltime": 0, "holidayTraveltime": 0}, {"Id": "9042", "pgp": 0, "GoBack": 1, "SID": 12496, "NameZh": "\u6e05\u6de8\u5bfaA(\u4ec1\u6797\u8def)", "RouteId": 8009, "SeqNo": 54, "Terminal": 0, "DistrictId": 1, "Latitude": 22.70116, "Longitude": 120.39069, "IVRNo": 9042, "EXTVoiceNo": 9042, "traveltime": 0, "holidayTraveltime": 0}, {"Id": "9016", "pgp": 0, "GoBack": 1, "SID": 12497, "NameZh": "\u6cb9\u5eab", "RouteId": 8009, "SeqNo": 55, "Terminal": 0, "DistrictId": 1, "Latitude": 22.70118, "Longitude": 120.38797, "IVRNo": 9015, "EXTVoiceNo": 9016, "traveltime": 0, "holidayTraveltime": 0}, {"Id": "1001", "pgp": 0, "GoBack": 1, "SID": 12498, "NameZh": "\u78da\u5ee0", "RouteId": 8009, "SeqNo": 56, "Terminal": 0, "DistrictId": 1, "Latitude": 22.69877, "Longitude": 120.37955, "IVRNo": 9279, "EXTVoiceNo": 21001, "traveltime": 0, "holidayTraveltime": 0}, {"Id": "9028", "pgp": 0, "GoBack": 1, "SID": 8387, "NameZh": "\u70cf\u6797\u91cc", "RouteId": 8009, "SeqNo": 57, "Terminal": 0, "DistrictId": 1, "Latitude": 22.69656, "Longitude": 120.3755, "IVRNo": 9028, "EXTVoiceNo": 9028, "traveltime": 0, "holidayTraveltime": 0}, {"Id": "0055", "pgp": 0, "GoBack": 1, "SID": 12500, "NameZh": "\u4e45\u4fdd\u7965\u516c\u53f8", "RouteId": 8009, "SeqNo": 58, "Terminal": 0, "DistrictId": 1, "Latitude": 22.69233, "Longitude": 120.37029, "IVRNo": 8906, "EXTVoiceNo": 20055, "traveltime": 0, "holidayTraveltime": 0}, {"Id": "8995", "pgp": 0, "GoBack": 1, "SID": 12501, "NameZh": "\u6771\u4e9e\u6f06\u5ee0", "RouteId": 8009, "SeqNo": 59, "Terminal": 0, "DistrictId": 1, "Latitude": 22.68861, "Longitude": 120.36691, "IVRNo": 8994, "EXTVoiceNo": 8995, "traveltime": 0, "holidayTraveltime": 0}, {"Id": "8990", "pgp": 0, "GoBack": 1, "SID": 12502, "NameZh": "\u5fe0\u5c71\u85e5\u5ee0", "RouteId": 8009, "SeqNo": 60, "Terminal": 0, "DistrictId": 1, "Latitude": 22.68588, "Longitude": 120.36411, "IVRNo": 8989, "EXTVoiceNo": 8990, "traveltime": 0, "holidayTraveltime": 0}, {"Id": "0482", "pgp": 0, "GoBack": 1, "SID": 8383, "NameZh": "\u660e\u5c71\u6148\u5b89\u5c45", "RouteId": 8009, "SeqNo": 61, "Terminal": 0, "DistrictId": 1, "Latitude": 22.68477, "Longitude": 120.36433, "IVRNo": 8991, "EXTVoiceNo": 20482, "traveltime": 0, "holidayTraveltime": 0}, {"Id": "0851", "pgp": 0, "GoBack": 1, "SID": 12503, "NameZh": "\u57e4\u5167\u5df7", "RouteId": 8009, "SeqNo": 62, "Terminal": 0, "DistrictId": 1, "Latitude": 22.68266, "Longitude": 120.36427, "IVRNo": 851, "EXTVoiceNo": 851, "traveltime": 0, "holidayTraveltime": 0}, {"Id": "3232", "pgp": 0, "GoBack": 1, "SID": 12504, "NameZh": "\u5929\u540e\u5bae(\u6210\u529f\u8def)", "RouteId": 8009, "SeqNo": 63, "Terminal": 0, "DistrictId": 1, "Latitude": 22.68147, "Longitude": 120.36208, "IVRNo": 3232, "EXTVoiceNo": 3232, "traveltime": 0, "holidayTraveltime": 0}, {"Id": "0396", "pgp": 0, "GoBack": 1, "SID": 12505, "NameZh": "\u8003\u6f6d\u91cc", "RouteId": 8009, "SeqNo": 64, "Terminal": 0, "DistrictId": 1, "Latitude": 22.67932, "Longitude": 120.36192, "IVRNo": 8968, "EXTVoiceNo": 20396, "traveltime": 0, "holidayTraveltime": 0}, {"Id": "0946", "pgp": 0, "GoBack": 1, "SID": 12506, "NameZh": "\u7da0\u5712\u5c71\u838a", "RouteId": 8009, "SeqNo": 65, "Terminal": 0, "DistrictId": 1, "Latitude": 22.67683, "Longitude": 120.36291, "IVRNo": 9249, "EXTVoiceNo": 20946, "traveltime": 0, "holidayTraveltime": 0}, {"Id": "0985", "pgp": 0, "GoBack": 1, "SID": 12507, "NameZh": "\u978f\u5a01\u65b0\u6751", "RouteId": 8009, "SeqNo": 66, "Terminal": 0, "DistrictId": 1, "Latitude": 22.67441, "Longitude": 120.36356, "IVRNo": 9271, "EXTVoiceNo": 20985, "traveltime": 0, "holidayTraveltime": 0}, {"Id": "0024", "pgp": 0, "GoBack": 1, "SID": 12508, "NameZh": "\u5341\u4e5d\u7063", "RouteId": 8009, "SeqNo": 67, "Terminal": 0, "DistrictId": 1, "Latitude": 22.67089, "Longitude": 120.3611, "IVRNo": 4835, "EXTVoiceNo": 20024, "traveltime": 0, "holidayTraveltime": 0}, {"Id": "9246", "pgp": 0, "GoBack": 1, "SID": 8406, "NameZh": "\u5922\u88e1\u91cc", "RouteId": 8009, "SeqNo": 68, "Terminal": 0, "DistrictId": 1, "Latitude": 22.66741, "Longitude": 120.36263, "IVRNo": 9245, "EXTVoiceNo": 9246, "traveltime": 0, "holidayTraveltime": 0}, {"Id": "3370", "pgp": 0, "GoBack": 1, "SID": 8407, "NameZh": "\u9ce5\u677e", "RouteId": 8009, "SeqNo": 69, "Terminal": 0, "DistrictId": 1, "Latitude": 22.66166, "Longitude": 120.36358, "IVRNo": 1463, "EXTVoiceNo": 13370, "traveltime": 0, "holidayTraveltime": 0}, {"Id": "7114", "pgp": 0, "GoBack": 1, "SID": 11867, "NameZh": "\u9ce5\u677e\u5340\u516c\u6240(\u4e2d\u6b63\u8def)", "RouteId": 8009, "SeqNo": 70, "Terminal": 0, "DistrictId": 1, "Latitude": 22.66013, "Longitude": 120.36381, "IVRNo": 4332, "EXTVoiceNo": 17114, "traveltime": 0, "holidayTraveltime": 0}, {"Id": "3537", "pgp": 0, "GoBack": 1, "SID": 13298, "NameZh": "\u5fe0\u8aa0\u8def\u53e3", "RouteId": 8009, "SeqNo": 71, "Terminal": 0, "DistrictId": 1, "Latitude": 22.658067, "Longitude": 120.360974, "IVRNo": 864, "EXTVoiceNo": 3537, "traveltime": 0, "holidayTraveltime": 0}, {"Id": "1912", "pgp": 0, "GoBack": 1, "SID": 11868, "NameZh": "\u6f84\u6e05\u6e56\u68d2\u7403\u5834", "RouteId": 8009, "SeqNo": 72, "Terminal": 0, "DistrictId": 1, "Latitude": 22.65516, "Longitude": 120.35994, "IVRNo": 11912, "EXTVoiceNo": 11912, "traveltime": 0, "holidayTraveltime": 0}, {"Id": "3534", "pgp": 0, "GoBack": 1, "SID": 12512, "NameZh": "\u9577\u5e9a\u91ab\u9662", "RouteId": 8009, "SeqNo": 73, "Terminal": 0, "DistrictId": 1, "Latitude": 22.650933, "Longitude": 120.356409, "IVRNo": 3534, "EXTVoiceNo": 3534, "traveltime": 0, "holidayTraveltime": 0}, {"Id": "0636", "pgp": 0, "GoBack": 1, "SID": 12513, "NameZh": "\u6b63\u4fee\u79d1\u5927(\u6f84\u6e05\u6e56)", "RouteId": 8009, "SeqNo": 74, "Terminal": 0, "DistrictId": 1, "Latitude": 22.65152, "Longitude": 120.3487, "IVRNo": 3533, "EXTVoiceNo": 10636, "traveltime": 0, "holidayTraveltime": 0}, {"Id": "1170", "pgp": 0, "GoBack": 1, "SID": 17939, "NameZh": "\u5927\u83ef\u91cc", "RouteId": 8009, "SeqNo": 75, "Terminal": 0, "DistrictId": 1, "Latitude": 22.64825, "Longitude": 120.34613, "IVRNo": 32356, "EXTVoiceNo": 21170, "traveltime": 0, "holidayTraveltime": 0}, {"Id": "0289", "pgp": 0, "GoBack": 1, "SID": 12516, "NameZh": "\u6b63\u5fb7\u4f5b\u5802", "RouteId": 8009, "SeqNo": 76, "Terminal": 0, "DistrictId": 1, "Latitude": 22.65077, "Longitude": 120.3426, "IVRNo": 289, "EXTVoiceNo": 289, "traveltime": 0, "holidayTraveltime": 0}, {"Id": "0227", "pgp": 0, "GoBack": 1, "SID": 12517, "NameZh": "\u6587\u660e\u5df7", "RouteId": 8009, "SeqNo": 77, "Terminal": 0, "DistrictId": 1, "Latitude": 22.65375, "Longitude": 120.338416, "IVRNo": 10445, "EXTVoiceNo": 20227, "traveltime": 0, "holidayTraveltime": 0}, {"Id": "0225", "pgp": 0, "GoBack": 1, "SID": 17056, "NameZh": "\u672c\u9928\u8def\u53e3", "RouteId": 8009, "SeqNo": 78, "Terminal": 0, "DistrictId": 1, "Latitude": 22.655326, "Longitude": 120.335421, "IVRNo": 225, "EXTVoiceNo": 225, "traveltime": 0, "holidayTraveltime": 0}, {"Id": "0226", "pgp": 0, "GoBack": 1, "SID": 12519, "NameZh": "\u5927\u8c50\u4e00\u8def\u53e3", "RouteId": 8009, "SeqNo": 79, "Terminal": 0, "DistrictId": 1, "Latitude": 22.6529, "Longitude": 120.3311, "IVRNo": 226, "EXTVoiceNo": 226, "traveltime": 0, "holidayTraveltime": 0}, {"Id": "0227", "pgp": 0, "GoBack": 1, "SID": 12520, "NameZh": "\u9ad8\u96c4\u79d1\u5927(\u5efa\u5de5)", "RouteId": 8009, "SeqNo": 80, "Terminal": 0, "DistrictId": 1, "Latitude": 22.65178, "Longitude": 120.32799, "IVRNo": 227, "EXTVoiceNo": 227, "traveltime": 0, "holidayTraveltime": 0}, {"Id": "0228", "pgp": 0, "GoBack": 1, "SID": 1411, "NameZh": "\u9ad8\u96c4\u5de5\u8077", "RouteId": 8009, "SeqNo": 81, "Terminal": 0, "DistrictId": 1, "Latitude": 22.65084, "Longitude": 120.326173, "IVRNo": 228, "EXTVoiceNo": 228, "traveltime": 0, "holidayTraveltime": 0}, {"Id": "0247", "pgp": 0, "GoBack": 1, "SID": 17059, "NameZh": "\u5927\u9806\u8def\u53e3(\u5efa\u5de5\u8def)", "RouteId": 8009, "SeqNo": 82, "Terminal": 0, "DistrictId": 1, "Latitude": 22.649167, "Longitude": 120.322766, "IVRNo": 229, "EXTVoiceNo": 247, "traveltime": 0, "holidayTraveltime": 0}, {"Id": "0230", "pgp": 0, "GoBack": 1, "SID": 1791, "NameZh": "\u5efa\u5de5\u8def", "RouteId": 8009, "SeqNo": 83, "Terminal": 0, "DistrictId": 1, "Latitude": 22.648231, "Longitude": 120.318824, "IVRNo": 230, "EXTVoiceNo": 230, "traveltime": 0, "holidayTraveltime": 0}, {"Id": "0231", "pgp": 0, "GoBack": 1, "SID": 1456, "NameZh": "\u6c11\u65cf\u6d3e\u51fa\u6240", "RouteId": 8009, "SeqNo": 84, "Terminal": 0, "DistrictId": 1, "Latitude": 22.648124, "Longitude": 120.31715, "IVRNo": 231, "EXTVoiceNo": 231, "traveltime": 0, "holidayTraveltime": 0}, {"Id": "7377", "pgp": 0, "GoBack": 1, "SID": 1474, "NameZh": "\u679c\u83dc\u516c\u53f8", "RouteId": 8009, "SeqNo": 85, "Terminal": 0, "DistrictId": 1, "Latitude": 22.644961, "Longitude": 120.314312, "IVRNo": 232, "EXTVoiceNo": 7377, "traveltime": 0, "holidayTraveltime": 0}, {"Id": "0234", "pgp": 0, "GoBack": 1, "SID": 18225, "NameZh": "\u9ad8\u91ab(\u5341\u5168\u8def)", "RouteId": 8009, "SeqNo": 86, "Terminal": 0, "DistrictId": 1, "Latitude": 22.64503, "Longitude": 120.30943, "IVRNo": 234, "EXTVoiceNo": 234, "traveltime": 0, "holidayTraveltime": 0}, {"Id": "0235", "pgp": 0, "GoBack": 1, "SID": 1554, "NameZh": "\u4e09\u6c11\u570b\u4e2d", "RouteId": 8009, "SeqNo": 87, "Terminal": 0, "DistrictId": 1, "Latitude": 22.64525, "Longitude": 120.305916, "IVRNo": 235, "EXTVoiceNo": 235, "traveltime": 0, "holidayTraveltime": 0}, {"Id": "2839", "pgp": 0, "GoBack": 1, "SID": 1563, "NameZh": "\u4e09\u6c11\u516c\u5712(\u535a\u611b\u8def\u53e3)", "RouteId": 8009, "SeqNo": 88, "Terminal": 0, "DistrictId": 1, "Latitude": 22.645442, "Longitude": 120.304389, "IVRNo": 236, "EXTVoiceNo": 2839, "traveltime": 0, "holidayTraveltime": 0}, {"Id": "1445", "pgp": 0, "GoBack": 1, "SID": 17721, "NameZh": "\u4e2d\u5c71\u4e00\u8def\u53e3", "RouteId": 8009, "SeqNo": 89, "Terminal": 0, "DistrictId": 1, "Latitude": 22.63422, "Longitude": 120.3036, "IVRNo": 1445, "EXTVoiceNo": 1445, "traveltime": 0, "holidayTraveltime": 0}, {"Id": "9368", "pgp": 0, "GoBack": 1, "SID": 2146, "NameZh": "\u9ad8\u96c4\u7ad9(\u5357\u83ef\u8def)", "RouteId": 8009, "SeqNo": 90, "Terminal": 1, "DistrictId": 1, "Latitude": 22.638135, "Longitude": 120.303514, "IVRNo": 9034, "EXTVoiceNo": 9368, "traveltime": 0, "holidayTraveltime": 0}, {"Id": "9368", "pgp": 0, "GoBack": 2, "SID": 2716, "NameZh": "\u9ad8\u96c4\u7ad9(\u5357\u83ef\u8def)", "RouteId": 8009, "SeqNo": 1, "Terminal": 0, "DistrictId": 1, "Latitude": 22.638135, "Longitude": 120.303514, "IVRNo": 9034, "EXTVoiceNo": 9368, "traveltime": 0, "holidayTraveltime": 0}, {"Id": "1445", "pgp": 0, "GoBack": 2, "SID": 5116, "NameZh": "\u4e2d\u5c71\u4e00\u8def\u53e3", "RouteId": 8009, "SeqNo": 2, "Terminal": 0, "DistrictId": 1, "Latitude": 22.6346, "Longitude": 120.30358, "IVRNo": 1445, "EXTVoiceNo": 1445, "traveltime": 0, "holidayTraveltime": 0}, {"Id": "2839", "pgp": 0, "GoBack": 2, "SID": 2776, "NameZh": "\u4e09\u6c11\u516c\u5712(\u535a\u611b\u8def\u53e3)", "RouteId": 8009, "SeqNo": 3, "Terminal": 0, "DistrictId": 1, "Latitude": 22.645369, "Longitude": 120.303658, "IVRNo": 236, "EXTVoiceNo": 2839, "traveltime": 0, "holidayTraveltime": 0}, {"Id": "0235", "pgp": 0, "GoBack": 2, "SID": 1729, "NameZh": "\u4e09\u6c11\u570b\u4e2d", "RouteId": 8009, "SeqNo": 4, "Terminal": 0, "DistrictId": 1, "Latitude": 22.645219, "Longitude": 120.305816, "IVRNo": 235, "EXTVoiceNo": 235, "traveltime": 0, "holidayTraveltime": 0}, {"Id": "0234", "pgp": 0, "GoBack": 2, "SID": 15832, "NameZh": "\u9ad8\u91ab(\u5341\u5168\u8def)", "RouteId": 8009, "SeqNo": 5, "Terminal": 0, "DistrictId": 1, "Latitude": 22.64487, "Longitude": 120.31066, "IVRNo": 234, "EXTVoiceNo": 234, "traveltime": 0, "holidayTraveltime": 0}, {"Id": "7377", "pgp": 0, "GoBack": 2, "SID": 1476, "NameZh": "\u679c\u83dc\u516c\u53f8", "RouteId": 8009, "SeqNo": 6, "Terminal": 0, "DistrictId": 1, "Latitude": 22.645044, "Longitude": 120.314582, "IVRNo": 232, "EXTVoiceNo": 7377, "traveltime": 0, "holidayTraveltime": 0}, {"Id": "0231", "pgp": 0, "GoBack": 2, "SID": 1785, "NameZh": "\u6c11\u65cf\u6d3e\u51fa\u6240", "RouteId": 8009, "SeqNo": 7, "Terminal": 0, "DistrictId": 1, "Latitude": 22.647803, "Longitude": 120.316367, "IVRNo": 231, "EXTVoiceNo": 231, "traveltime": 0, "holidayTraveltime": 0}, {"Id": "0230", "pgp": 0, "GoBack": 2, "SID": 1423, "NameZh": "\u5efa\u5de5\u8def", "RouteId": 8009, "SeqNo": 8, "Terminal": 0, "DistrictId": 1, "Latitude": 22.64845, "Longitude": 120.31914, "IVRNo": 230, "EXTVoiceNo": 230, "traveltime": 0, "holidayTraveltime": 0}, {"Id": "0247", "pgp": 0, "GoBack": 2, "SID": 17210, "NameZh": "\u5927\u9806\u8def\u53e3(\u5efa\u5de5\u8def)", "RouteId": 8009, "SeqNo": 9, "Terminal": 0, "DistrictId": 1, "Latitude": 22.649092, "Longitude": 120.322798, "IVRNo": 229, "EXTVoiceNo": 247, "traveltime": 0, "holidayTraveltime": 0}, {"Id": "0228", "pgp": 0, "GoBack": 2, "SID": 1824, "NameZh": "\u9ad8\u96c4\u5de5\u8077", "RouteId": 8009, "SeqNo": 10, "Terminal": 0, "DistrictId": 1, "Latitude": 22.650615, "Longitude": 120.326121, "IVRNo": 228, "EXTVoiceNo": 228, "traveltime": 0, "holidayTraveltime": 0}, {"Id": "0227", "pgp": 0, "GoBack": 2, "SID": 12537, "NameZh": "\u9ad8\u96c4\u79d1\u5927(\u5efa\u5de5)", "RouteId": 8009, "SeqNo": 11, "Terminal": 0, "DistrictId": 1, "Latitude": 22.65145, "Longitude": 120.32781, "IVRNo": 227, "EXTVoiceNo": 227, "traveltime": 0, "holidayTraveltime": 0}, {"Id": "0226", "pgp": 0, "GoBack": 2, "SID": 12538, "NameZh": "\u5927\u8c50\u4e00\u8def\u53e3", "RouteId": 8009, "SeqNo": 12, "Terminal": 0, "DistrictId": 1, "Latitude": 22.6529, "Longitude": 120.3311, "IVRNo": 226, "EXTVoiceNo": 226, "traveltime": 0, "holidayTraveltime": 0}, {"Id": "0225", "pgp": 0, "GoBack": 2, "SID": 17213, "NameZh": "\u672c\u9928\u8def\u53e3", "RouteId": 8009, "SeqNo": 13, "Terminal": 0, "DistrictId": 1, "Latitude": 22.655102, "Longitude": 120.335102, "IVRNo": 225, "EXTVoiceNo": 225, "traveltime": 0, "holidayTraveltime": 0}, {"Id": "0227", "pgp": 0, "GoBack": 2, "SID": 12540, "NameZh": "\u6587\u660e\u5df7", "RouteId": 8009, "SeqNo": 14, "Terminal": 0, "DistrictId": 1, "Latitude": 22.65364, "Longitude": 120.33833, "IVRNo": 10445, "EXTVoiceNo": 20227, "traveltime": 0, "holidayTraveltime": 0}, {"Id": "0289", "pgp": 0, "GoBack": 2, "SID": 12541, "NameZh": "\u6b63\u5fb7\u4f5b\u5802", "RouteId": 8009, "SeqNo": 15, "Terminal": 0, "DistrictId": 1, "Latitude": 22.6506, "Longitude": 120.34258, "IVRNo": 289, "EXTVoiceNo": 289, "traveltime": 0, "holidayTraveltime": 0}, {"Id": "1170", "pgp": 0, "GoBack": 2, "SID": 17940, "NameZh": "\u5927\u83ef\u91cc", "RouteId": 8009, "SeqNo": 16, "Terminal": 0, "DistrictId": 1, "Latitude": 22.64812, "Longitude": 120.34611, "IVRNo": 32356, "EXTVoiceNo": 21170, "traveltime": 0, "holidayTraveltime": 0}, {"Id": "0636", "pgp": 0, "GoBack": 2, "SID": 12544, "NameZh": "\u6b63\u4fee\u79d1\u5927(\u6f84\u6e05\u6e56)", "RouteId": 8009, "SeqNo": 17, "Terminal": 0, "DistrictId": 1, "Latitude": 22.65143, "Longitude": 120.34914, "IVRNo": 3533, "EXTVoiceNo": 10636, "traveltime": 0, "holidayTraveltime": 0}, {"Id": "3546", "pgp": 0, "GoBack": 2, "SID": 17203, "NameZh": "\u9577\u5e9a\u5fa9\u5065\u5927\u6a13", "RouteId": 8009, "SeqNo": 18, "Terminal": 0, "DistrictId": 1, "Latitude": 22.650536, "Longitude": 120.352873, "IVRNo": 3546, "EXTVoiceNo": 3546, "traveltime": 0, "holidayTraveltime": 0}, {"Id": "3534", "pgp": 0, "GoBack": 2, "SID": 12545, "NameZh": "\u9577\u5e9a\u91ab\u9662", "RouteId": 8009, "SeqNo": 19, "Terminal": 0, "DistrictId": 1, "Latitude": 22.650933, "Longitude": 120.356409, "IVRNo": 3534, "EXTVoiceNo": 3534, "traveltime": 0, "holidayTraveltime": 0}, {"Id": "1912", "pgp": 0, "GoBack": 2, "SID": 12056, "NameZh": "\u6f84\u6e05\u6e56\u68d2\u7403\u5834", "RouteId": 8009, "SeqNo": 20, "Terminal": 0, "DistrictId": 1, "Latitude": 22.6558, "Longitude": 120.36001, "IVRNo": 11912, "EXTVoiceNo": 11912, "traveltime": 0, "holidayTraveltime": 0}, {"Id": "3537", "pgp": 0, "GoBack": 2, "SID": 13302, "NameZh": "\u5fe0\u8aa0\u8def\u53e3", "RouteId": 8009, "SeqNo": 21, "Terminal": 0, "DistrictId": 1, "Latitude": 22.658001, "Longitude": 120.360904, "IVRNo": 864, "EXTVoiceNo": 3537, "traveltime": 0, "holidayTraveltime": 0}, {"Id": "7114", "pgp": 0, "GoBack": 2, "SID": 10769, "NameZh": "\u9ce5\u677e\u5340\u516c\u6240(\u4e2d\u6b63\u8def)", "RouteId": 8009, "SeqNo": 22, "Terminal": 0, "DistrictId": 1, "Latitude": 22.65969, "Longitude": 120.3643, "IVRNo": 4332, "EXTVoiceNo": 17114, "traveltime": 0, "holidayTraveltime": 0}, {"Id": "3370", "pgp": 0, "GoBack": 2, "SID": 8375, "NameZh": "\u9ce5\u677e", "RouteId": 8009, "SeqNo": 23, "Terminal": 0, "DistrictId": 1, "Latitude": 22.66286, "Longitude": 120.36361, "IVRNo": 1463, "EXTVoiceNo": 13370, "traveltime": 0, "holidayTraveltime": 0}, {"Id": "9246", "pgp": 0, "GoBack": 2, "SID": 8376, "NameZh": "\u5922\u88e1\u91cc", "RouteId": 8009, "SeqNo": 24, "Terminal": 0, "DistrictId": 1, "Latitude": 22.66743, "Longitude": 120.3628, "IVRNo": 9245, "EXTVoiceNo": 9246, "traveltime": 0, "holidayTraveltime": 0}, {"Id": "0024", "pgp": 0, "GoBack": 2, "SID": 12549, "NameZh": "\u5341\u4e5d\u7063", "RouteId": 8009, "SeqNo": 25, "Terminal": 0, "DistrictId": 1, "Latitude": 22.67097, "Longitude": 120.36138, "IVRNo": 4835, "EXTVoiceNo": 20024, "traveltime": 0, "holidayTraveltime": 0}, {"Id": "0985", "pgp": 0, "GoBack": 2, "SID": 12550, "NameZh": "\u978f\u5a01\u65b0\u6751", "RouteId": 8009, "SeqNo": 26, "Terminal": 0, "DistrictId": 1, "Latitude": 22.67431, "Longitude": 120.36374, "IVRNo": 9271, "EXTVoiceNo": 20985, "traveltime": 0, "holidayTraveltime": 0}, {"Id": "0946", "pgp": 0, "GoBack": 2, "SID": 12551, "NameZh": "\u7da0\u5712\u5c71\u838a", "RouteId": 8009, "SeqNo": 27, "Terminal": 0, "DistrictId": 1, "Latitude": 22.676895, "Longitude": 120.363027, "IVRNo": 9249, "EXTVoiceNo": 20946, "traveltime": 0, "holidayTraveltime": 0}, {"Id": "0396", "pgp": 0, "GoBack": 2, "SID": 12552, "NameZh": "\u8003\u6f6d\u91cc", "RouteId": 8009, "SeqNo": 28, "Terminal": 0, "DistrictId": 1, "Latitude": 22.67931, "Longitude": 120.362, "IVRNo": 8968, "EXTVoiceNo": 20396, "traveltime": 0, "holidayTraveltime": 0}, {"Id": "3232", "pgp": 0, "GoBack": 2, "SID": 12553, "NameZh": "\u5929\u540e\u5bae(\u6210\u529f\u8def)", "RouteId": 8009, "SeqNo": 29, "Terminal": 0, "DistrictId": 1, "Latitude": 22.68139, "Longitude": 120.362127, "IVRNo": 3232, "EXTVoiceNo": 3232, "traveltime": 0, "holidayTraveltime": 0}, {"Id": "0851", "pgp": 0, "GoBack": 2, "SID": 12554, "NameZh": "\u57e4\u5167\u5df7", "RouteId": 8009, "SeqNo": 30, "Terminal": 0, "DistrictId": 1, "Latitude": 22.68268, "Longitude": 120.36448, "IVRNo": 851, "EXTVoiceNo": 851, "traveltime": 0, "holidayTraveltime": 0}, {"Id": "0482", "pgp": 0, "GoBack": 2, "SID": 8399, "NameZh": "\u660e\u5c71\u6148\u5b89\u5c45", "RouteId": 8009, "SeqNo": 31, "Terminal": 0, "DistrictId": 1, "Latitude": 22.68476, "Longitude": 120.36428, "IVRNo": 8991, "EXTVoiceNo": 20482, "traveltime": 0, "holidayTraveltime": 0}, {"Id": "8990", "pgp": 0, "GoBack": 2, "SID": 12555, "NameZh": "\u5fe0\u5c71\u85e5\u5ee0", "RouteId": 8009, "SeqNo": 32, "Terminal": 0, "DistrictId": 1, "Latitude": 22.68618, "Longitude": 120.36458, "IVRNo": 8989, "EXTVoiceNo": 8990, "traveltime": 0, "holidayTraveltime": 0}, {"Id": "8995", "pgp": 0, "GoBack": 2, "SID": 12556, "NameZh": "\u6771\u4e9e\u6f06\u5ee0", "RouteId": 8009, "SeqNo": 33, "Terminal": 0, "DistrictId": 1, "Latitude": 22.6888, "Longitude": 120.36701, "IVRNo": 8994, "EXTVoiceNo": 8995, "traveltime": 0, "holidayTraveltime": 0}, {"Id": "0055", "pgp": 0, "GoBack": 2, "SID": 12557, "NameZh": "\u4e45\u4fdd\u7965\u516c\u53f8", "RouteId": 8009, "SeqNo": 34, "Terminal": 0, "DistrictId": 1, "Latitude": 22.69178, "Longitude": 120.36979, "IVRNo": 8906, "EXTVoiceNo": 20055, "traveltime": 0, "holidayTraveltime": 0}, {"Id": "9028", "pgp": 0, "GoBack": 2, "SID": 8395, "NameZh": "\u70cf\u6797\u91cc", "RouteId": 8009, "SeqNo": 35, "Terminal": 0, "DistrictId": 1, "Latitude": 22.69663, "Longitude": 120.37551, "IVRNo": 9028, "EXTVoiceNo": 9028, "traveltime": 0, "holidayTraveltime": 0}, {"Id": "1001", "pgp": 0, "GoBack": 2, "SID": 12559, "NameZh": "\u78da\u5ee0", "RouteId": 8009, "SeqNo": 36, "Terminal": 0, "DistrictId": 1, "Latitude": 22.69875, "Longitude": 120.37967, "IVRNo": 9279, "EXTVoiceNo": 21001, "traveltime": 0, "holidayTraveltime": 0}, {"Id": "9016", "pgp": 0, "GoBack": 2, "SID": 12560, "NameZh": "\u6cb9\u5eab", "RouteId": 8009, "SeqNo": 37, "Terminal": 0, "DistrictId": 1, "Latitude": 22.70101, "Longitude": 120.38787, "IVRNo": 9015, "EXTVoiceNo": 9016, "traveltime": 0, "holidayTraveltime": 0}, {"Id": "9042", "pgp": 0, "GoBack": 2, "SID": 12561, "NameZh": "\u6e05\u6de8\u5bfaA(\u4ec1\u6797\u8def)", "RouteId": 8009, "SeqNo": 38, "Terminal": 0, "DistrictId": 1, "Latitude": 22.70097, "Longitude": 120.39034, "IVRNo": 9042, "EXTVoiceNo": 9042, "traveltime": 0, "holidayTraveltime": 0}, {"Id": "1360", "pgp": 0, "GoBack": 2, "SID": 12562, "NameZh": "\u5d0e\u9802", "RouteId": 8009, "SeqNo": 39, "Terminal": 0, "DistrictId": 1, "Latitude": 22.70149, "Longitude": 120.39629, "IVRNo": 11360, "EXTVoiceNo": 11360, "traveltime": 0, "holidayTraveltime": 0}, {"Id": "1201", "pgp": 0, "GoBack": 2, "SID": 12563, "NameZh": "\u4e94\u53c9\u8def\u53e3", "RouteId": 8009, "SeqNo": 40, "Terminal": 0, "DistrictId": 1, "Latitude": 22.69954, "Longitude": 120.40524, "IVRNo": 10329, "EXTVoiceNo": 21201, "traveltime": 0, "holidayTraveltime": 0}, {"Id": "1184", "pgp": 0, "GoBack": 2, "SID": 12564, "NameZh": "\u5c71\u9802\u5d0e\u8173", "RouteId": 8009, "SeqNo": 41, "Terminal": 0, "DistrictId": 1, "Latitude": 22.69636, "Longitude": 120.40964, "IVRNo": 10253, "EXTVoiceNo": 21184, "traveltime": 0, "holidayTraveltime": 0}, {"Id": "0884", "pgp": 0, "GoBack": 2, "SID": 12565, "NameZh": "\u548c\u5c71\u91cc\u53e3", "RouteId": 8009, "SeqNo": 42, "Terminal": 0, "DistrictId": 1, "Latitude": 22.69684, "Longitude": 120.42041, "IVRNo": 3266, "EXTVoiceNo": 10884, "traveltime": 0, "holidayTraveltime": 0}, {"Id": "1975", "pgp": 0, "GoBack": 2, "SID": 12566, "NameZh": "\u8208\u5c71\u91cc", "RouteId": 8009, "SeqNo": 43, "Terminal": 0, "DistrictId": 1, "Latitude": 22.69402, "Longitude": 120.42539, "IVRNo": 3265, "EXTVoiceNo": 11975, "traveltime": 0, "holidayTraveltime": 0}, {"Id": "9217", "pgp": 0, "GoBack": 2, "SID": 12567, "NameZh": "\u5927\u6a39\u8fb2\u6703", "RouteId": 8009, "SeqNo": 44, "Terminal": 0, "DistrictId": 1, "Latitude": 22.69083, "Longitude": 120.431801, "IVRNo": 9770, "EXTVoiceNo": 9217, "traveltime": 0, "holidayTraveltime": 0}, {"Id": "0118", "pgp": 0, "GoBack": 2, "SID": 12568, "NameZh": "\u5927\u6a39", "RouteId": 8009, "SeqNo": 45, "Terminal": 0, "DistrictId": 1, "Latitude": 22.69196, "Longitude": 120.43243, "IVRNo": 10233, "EXTVoiceNo": 20118, "traveltime": 0, "holidayTraveltime": 0}, {"Id": "0335", "pgp": 0, "GoBack": 2, "SID": 12569, "NameZh": "\u5927\u6a39\u6d3b\u52d5\u4e2d\u5fc3", "RouteId": 8009, "SeqNo": 46, "Terminal": 0, "DistrictId": 1, "Latitude": 22.69704, "Longitude": 120.43359, "IVRNo": 335, "EXTVoiceNo": 335, "traveltime": 0, "holidayTraveltime": 0}, {"Id": "1368", "pgp": 0, "GoBack": 2, "SID": 12570, "NameZh": "\u5d11\u660e\u5bfa", "RouteId": 8009, "SeqNo": 47, "Terminal": 0, "DistrictId": 1, "Latitude": 22.69995, "Longitude": 120.43349, "IVRNo": 11368, "EXTVoiceNo": 11368, "traveltime": 0, "holidayTraveltime": 0}, {"Id": "0896", "pgp": 0, "GoBack": 2, "SID": 12571, "NameZh": "\u59d1\u5a46\u5bee", "RouteId": 8009, "SeqNo": 48, "Terminal": 0, "DistrictId": 1, "Latitude": 22.70501, "Longitude": 120.43433, "IVRNo": 10896, "EXTVoiceNo": 10896, "traveltime": 0, "holidayTraveltime": 0}, {"Id": "0894", "pgp": 0, "GoBack": 2, "SID": 12572, "NameZh": "\u59d1\u5c71\u570b\u5c0f", "RouteId": 8009, "SeqNo": 49, "Terminal": 0, "DistrictId": 1, "Latitude": 22.70834, "Longitude": 120.43815, "IVRNo": 10894, "EXTVoiceNo": 10894, "traveltime": 0, "holidayTraveltime": 0}, {"Id": "6094", "pgp": 0, "GoBack": 2, "SID": 19257, "NameZh": "\u59d1\u5c71\u5009\u5eab(\u5927\u5751\u8def)", "RouteId": 8009, "SeqNo": 50, "Terminal": 0, "DistrictId": 1, "Latitude": 22.710007, "Longitude": 120.439367, "IVRNo": 1236, "EXTVoiceNo": 26094, "traveltime": 0, "holidayTraveltime": 0}, {"Id": "1160", "pgp": 0, "GoBack": 2, "SID": 12573, "NameZh": "\u6d32\u4ed4", "RouteId": 8009, "SeqNo": 51, "Terminal": 0, "DistrictId": 1, "Latitude": 22.71374, "Longitude": 120.44133, "IVRNo": 11160, "EXTVoiceNo": 11160, "traveltime": 0, "holidayTraveltime": 0}, {"Id": "0077", "pgp": 0, "GoBack": 2, "SID": 12574, "NameZh": "\u5927\u5751", "RouteId": 8009, "SeqNo": 52, "Terminal": 0, "DistrictId": 1, "Latitude": 22.71778, "Longitude": 120.44321, "IVRNo": 10159, "EXTVoiceNo": 20077, "traveltime": 0, "holidayTraveltime": 0}, {"Id": "0334", "pgp": 0, "GoBack": 2, "SID": 12575, "NameZh": "\u6eaa\u57d4\u570b\u5c0f", "RouteId": 8009, "SeqNo": 53, "Terminal": 0, "DistrictId": 1, "Latitude": 22.72246, "Longitude": 120.44344, "IVRNo": 334, "EXTVoiceNo": 334, "traveltime": 0, "holidayTraveltime": 0}, {"Id": "0134", "pgp": 0, "GoBack": 2, "SID": 6785, "NameZh": "\u6eaa\u57d4\u6d3e\u51fa\u6240", "RouteId": 8009, "SeqNo": 54, "Terminal": 0, "DistrictId": 1, "Latitude": 22.72764, "Longitude": 120.44455, "IVRNo": 134, "EXTVoiceNo": 134, "traveltime": 0, "holidayTraveltime": 0}, {"Id": "2299", "pgp": 0, "GoBack": 2, "SID": 12577, "NameZh": "\u6eaa\u57d4", "RouteId": 8009, "SeqNo": 55, "Terminal": 0, "DistrictId": 1, "Latitude": 22.732023, "Longitude": 120.447211, "IVRNo": 133, "EXTVoiceNo": 32299, "traveltime": 0, "holidayTraveltime": 0}, {"Id": "3396", "pgp": 0, "GoBack": 2, "SID": 12578, "NameZh": "\u65b0\u8208(\u5927\u6a39)", "RouteId": 8009, "SeqNo": 56, "Terminal": 0, "DistrictId": 1, "Latitude": 22.73734, "Longitude": 120.44775, "IVRNo": 11668, "EXTVoiceNo": 13396, "traveltime": 0, "holidayTraveltime": 0}, {"Id": "1981", "pgp": 0, "GoBack": 2, "SID": 12579, "NameZh": "\u8208\u7530", "RouteId": 8009, "SeqNo": 57, "Terminal": 0, "DistrictId": 1, "Latitude": 22.742011, "Longitude": 120.448161, "IVRNo": 11981, "EXTVoiceNo": 11981, "traveltime": 0, "holidayTraveltime": 0}, {"Id": "2298", "pgp": 0, "GoBack": 2, "SID": 12580, "NameZh": "\u9ebb\u7af9\u5712", "RouteId": 8009, "SeqNo": 58, "Terminal": 0, "DistrictId": 1, "Latitude": 22.74623, "Longitude": 120.44717, "IVRNo": 3263, "EXTVoiceNo": 32298, "traveltime": 0, "holidayTraveltime": 0}, {"Id": "0395", "pgp": 0, "GoBack": 2, "SID": 12581, "NameZh": "\u4f5b\u5149\u5c71", "RouteId": 8009, "SeqNo": 59, "Terminal": 0, "DistrictId": 1, "Latitude": 22.74929, "Longitude": 120.44749, "IVRNo": 395, "EXTVoiceNo": 395, "traveltime": 0, "holidayTraveltime": 0}, {"Id": "0396", "pgp": 0, "GoBack": 2, "SID": 12362, "NameZh": "\u4f5b\u9640\u7d00\u5ff5\u9928", "RouteId": 8009, "SeqNo": 60, "Terminal": 0, "DistrictId": 1, "Latitude": 22.754891, "Longitude": 120.447555, "IVRNo": 396, "EXTVoiceNo": 396, "traveltime": 0, "holidayTraveltime": 0}, {"Id": "0790", "pgp": 0, "GoBack": 2, "SID": 12582, "NameZh": "\u7d71\u5dba\u5751", "RouteId": 8009, "SeqNo": 61, "Terminal": 0, "DistrictId": 1, "Latitude": 22.75629, "Longitude": 120.44778, "IVRNo": 790, "EXTVoiceNo": 790, "traveltime": 0, "holidayTraveltime": 0}, {"Id": "0421", "pgp": 0, "GoBack": 2, "SID": 12583, "NameZh": "\u574a\u5d01", "RouteId": 8009, "SeqNo": 62, "Terminal": 0, "DistrictId": 1, "Latitude": 22.76152, "Longitude": 120.44691, "IVRNo": 131, "EXTVoiceNo": 20421, "traveltime": 0, "holidayTraveltime": 0}, {"Id": "2018", "pgp": 0, "GoBack": 2, "SID": 12584, "NameZh": "\u5dba\u53e3", "RouteId": 8009, "SeqNo": 63, "Terminal": 0, "DistrictId": 1, "Latitude": 22.773651, "Longitude": 120.44934, "IVRNo": 12018, "EXTVoiceNo": 12018, "traveltime": 0, "holidayTraveltime": 0}, {"Id": "1184", "pgp": 0, "GoBack": 2, "SID": 12585, "NameZh": "\u7802\u77f3\u5834", "RouteId": 8009, "SeqNo": 64, "Terminal": 0, "DistrictId": 1, "Latitude": 22.79026, "Longitude": 120.45628, "IVRNo": 11184, "EXTVoiceNo": 11184, "traveltime": 0, "holidayTraveltime": 0}, {"Id": "1904", "pgp": 0, "GoBack": 2, "SID": 12586, "NameZh": "\u5fb7\u52dd\u5df7", "RouteId": 8009, "SeqNo": 65, "Terminal": 0, "DistrictId": 1, "Latitude": 22.79692, "Longitude": 120.4582, "IVRNo": 11904, "EXTVoiceNo": 11904, "traveltime": 0, "holidayTraveltime": 0}, {"Id": "3333", "pgp": 0, "GoBack": 2, "SID": 12587, "NameZh": "\u5357\u52dd\u6e56", "RouteId": 8009, "SeqNo": 66, "Terminal": 0, "DistrictId": 1, "Latitude": 22.79993, "Longitude": 120.45915, "IVRNo": 11086, "EXTVoiceNo": 13333, "traveltime": 0, "holidayTraveltime": 0}, {"Id": "3434", "pgp": 0, "GoBack": 2, "SID": 13859, "NameZh": "\u53e2\u4ed4\u5751", "RouteId": 8009, "SeqNo": 67, "Terminal": 0, "DistrictId": 1, "Latitude": 22.80932, "Longitude": 120.461573, "IVRNo": 13434, "EXTVoiceNo": 13434, "traveltime": 0, "holidayTraveltime": 0}, {"Id": "0900", "pgp": 0, "GoBack": 2, "SID": 12589, "NameZh": "\u5c1a\u548c", "RouteId": 8009, "SeqNo": 68, "Terminal": 0, "DistrictId": 1, "Latitude": 22.81476, "Longitude": 120.46171, "IVRNo": 10900, "EXTVoiceNo": 10900, "traveltime": 0, "holidayTraveltime": 0}, {"Id": "0076", "pgp": 0, "GoBack": 2, "SID": 7649, "NameZh": "\u5927\u7af9\u570d", "RouteId": 8009, "SeqNo": 69, "Terminal": 0, "DistrictId": 1, "Latitude": 22.82826, "Longitude": 120.46246, "IVRNo": 9148, "EXTVoiceNo": 20076, "traveltime": 0, "holidayTraveltime": 0}, {"Id": "1606", "pgp": 0, "GoBack": 2, "SID": 12591, "NameZh": "\u65b0\u5149\u91cc", "RouteId": 8009, "SeqNo": 70, "Terminal": 0, "DistrictId": 1, "Latitude": 22.83239, "Longitude": 120.46272, "IVRNo": 11606, "EXTVoiceNo": 11606, "traveltime": 0, "holidayTraveltime": 0}, {"Id": "0095", "pgp": 0, "GoBack": 2, "SID": 12592, "NameZh": "\u5927\u6d32\u570b\u4e2d", "RouteId": 8009, "SeqNo": 71, "Terminal": 0, "DistrictId": 1, "Latitude": 22.83587, "Longitude": 120.46255, "IVRNo": 10183, "EXTVoiceNo": 20095, "traveltime": 0, "holidayTraveltime": 0}, {"Id": "0208", "pgp": 0, "GoBack": 2, "SID": 12593, "NameZh": "\u516c\u5712\u4ed4", "RouteId": 8009, "SeqNo": 72, "Terminal": 0, "DistrictId": 1, "Latitude": 22.83776, "Longitude": 120.46278, "IVRNo": 10402, "EXTVoiceNo": 20208, "traveltime": 0, "holidayTraveltime": 0}, {"Id": "0129", "pgp": 0, "GoBack": 2, "SID": 12594, "NameZh": "7-11\u6eaa\u6d32\u9580\u5e02", "RouteId": 8009, "SeqNo": 73, "Terminal": 0, "DistrictId": 1, "Latitude": 22.8399, "Longitude": 120.46332, "IVRNo": 129, "EXTVoiceNo": 129, "traveltime": 0, "holidayTraveltime": 0}, {"Id": "1702", "pgp": 0, "GoBack": 2, "SID": 12595, "NameZh": "\u6eaa\u6d32", "RouteId": 8009, "SeqNo": 74, "Terminal": 0, "DistrictId": 1, "Latitude": 22.8439, "Longitude": 120.46453, "IVRNo": 11702, "EXTVoiceNo": 11702, "traveltime": 0, "holidayTraveltime": 0}, {"Id": "1704", "pgp": 0, "GoBack": 2, "SID": 12596, "NameZh": "\u6eaa\u6d32\u570b\u5c0f", "RouteId": 8009, "SeqNo": 75, "Terminal": 0, "DistrictId": 1, "Latitude": 22.84751, "Longitude": 120.46574, "IVRNo": 11704, "EXTVoiceNo": 11704, "traveltime": 0, "holidayTraveltime": 0}, {"Id": "3460", "pgp": 0, "GoBack": 2, "SID": 12597, "NameZh": "\u6e05\u6c34\u5bfa(\u6eaa\u6d32)", "RouteId": 8009, "SeqNo": 76, "Terminal": 0, "DistrictId": 1, "Latitude": 22.85048, "Longitude": 120.46702, "IVRNo": 803, "EXTVoiceNo": 13460, "traveltime": 0, "holidayTraveltime": 0}, {"Id": "0062", "pgp": 0, "GoBack": 2, "SID": 12598, "NameZh": "\u5927\u5c71", "RouteId": 8009, "SeqNo": 77, "Terminal": 0, "DistrictId": 1, "Latitude": 22.85342, "Longitude": 120.46804, "IVRNo": 10136, "EXTVoiceNo": 20062, "traveltime": 0, "holidayTraveltime": 0}, {"Id": "3423", "pgp": 0, "GoBack": 2, "SID": 12599, "NameZh": "\u885b\u5149\u6751", "RouteId": 8009, "SeqNo": 78, "Terminal": 0, "DistrictId": 1, "Latitude": 22.85706, "Longitude": 120.46878, "IVRNo": 11935, "EXTVoiceNo": 13423, "traveltime": 0, "holidayTraveltime": 0}, {"Id": "0984", "pgp": 0, "GoBack": 2, "SID": 12600, "NameZh": "\u6b66\u9e7f", "RouteId": 8009, "SeqNo": 79, "Terminal": 0, "DistrictId": 1, "Latitude": 22.86107, "Longitude": 120.46873, "IVRNo": 10984, "EXTVoiceNo": 10984, "traveltime": 0, "holidayTraveltime": 0}, {"Id": "3315", "pgp": 0, "GoBack": 2, "SID": 12601, "NameZh": "\u548c\u660c", "RouteId": 8009, "SeqNo": 80, "Terminal": 0, "DistrictId": 1, "Latitude": 22.86437, "Longitude": 120.47059, "IVRNo": 10888, "EXTVoiceNo": 13315, "traveltime": 0, "holidayTraveltime": 0}, {"Id": "3417", "pgp": 0, "GoBack": 2, "SID": 12602, "NameZh": "\u65d7\u5357\u4e00\u8def", "RouteId": 8009, "SeqNo": 81, "Terminal": 0, "DistrictId": 1, "Latitude": 22.86966, "Longitude": 120.47298, "IVRNo": 11842, "EXTVoiceNo": 13417, "traveltime": 0, "holidayTraveltime": 0}, {"Id": "1000", "pgp": 0, "GoBack": 2, "SID": 12603, "NameZh": "\u82b1\u65d7\u5c71\u838a", "RouteId": 8009, "SeqNo": 82, "Terminal": 0, "DistrictId": 1, "Latitude": 22.87314, "Longitude": 120.47432, "IVRNo": 11000, "EXTVoiceNo": 11000, "traveltime": 0, "holidayTraveltime": 0}, {"Id": "3430", "pgp": 0, "GoBack": 2, "SID": 15228, "NameZh": "\u982d\u6797\u5df7\u53e3", "RouteId": 8009, "SeqNo": 83, "Terminal": 0, "DistrictId": 1, "Latitude": 22.87662, "Longitude": 120.47539, "IVRNo": 3273, "EXTVoiceNo": 13430, "traveltime": 0, "holidayTraveltime": 0}, {"Id": "3337", "pgp": 0, "GoBack": 2, "SID": 12604, "NameZh": "\u79cb\u6dbc\u5c71", "RouteId": 8009, "SeqNo": 84, "Terminal": 0, "DistrictId": 1, "Latitude": 22.87951, "Longitude": 120.47678, "IVRNo": 3258, "EXTVoiceNo": 13337, "traveltime": 0, "holidayTraveltime": 0}, {"Id": "0168", "pgp": 0, "GoBack": 2, "SID": 12605, "NameZh": "\u4e2d\u5b78\u8def", "RouteId": 8009, "SeqNo": 85, "Terminal": 0, "DistrictId": 1, "Latitude": 22.882569, "Longitude": 120.479105, "IVRNo": 10321, "EXTVoiceNo": 20168, "traveltime": 0, "holidayTraveltime": 0}, {"Id": "2114", "pgp": 0, "GoBack": 2, "SID": 12606, "NameZh": "\u5fb7\u660c\u8def(\u4e2d\u5b78\u8def\u53e3)", "RouteId": 8009, "SeqNo": 86, "Terminal": 0, "DistrictId": 1, "Latitude": 22.881665, "Longitude": 120.48212, "IVRNo": 2114, "EXTVoiceNo": 2114, "traveltime": 0, "holidayTraveltime": 0}, {"Id": "3412", "pgp": 0, "GoBack": 2, "SID": 12608, "NameZh": "\u65d7\u5c71\u8f49\u904b\u7ad9", "RouteId": 8009, "SeqNo": 87, "Terminal": 0, "DistrictId": 1, "Latitude": 22.883651, "Longitude": 120.484555, "IVRNo": 9717, "EXTVoiceNo": 13412, "traveltime": 0, "holidayTraveltime": 0}, {"Id": "9718", "pgp": 0, "GoBack": 2, "SID": 12609, "NameZh": "\u5ef6\u5e73\u8def(\u65d7\u5c71\u5340\u516c\u6240)", "RouteId": 8009, "SeqNo": 88, "Terminal": 0, "DistrictId": 1, "Latitude": 22.88761, "Longitude": 120.483247, "IVRNo": 9718, "EXTVoiceNo": 9718, "traveltime": 0, "holidayTraveltime": 0}, {"Id": "9374", "pgp": 0, "GoBack": 2, "SID": 2669, "NameZh": "\u65d7\u5c71\u5e02\u5834", "RouteId": 8009, "SeqNo": 89, "Terminal": 0, "DistrictId": 1, "Latitude": 22.8899, "Longitude": 120.48332, "IVRNo": 9953, "EXTVoiceNo": 9374, "traveltime": 0, "holidayTraveltime": 0}, {"Id": "1197", "pgp": 0, "GoBack": 2, "SID": 17471, "NameZh": "\u4e2d\u83ef\u8def\u53e3(\u65d7)", "RouteId": 8009, "SeqNo": 90, "Terminal": 0, "DistrictId": 1, "Latitude": 22.89268, "Longitude": 120.48355, "IVRNo": 1180, "EXTVoiceNo": 21197, "traveltime": 0, "holidayTraveltime": 0}, {"Id": "1828", "pgp": 0, "GoBack": 2, "SID": 12612, "NameZh": "\u65d7\u5c71\u5317\u7ad9", "RouteId": 8009, "SeqNo": 91, "Terminal": 1, "DistrictId": 1, "Latitude": 22.896043, "Longitude": 120.483457, "IVRNo": 9142, "EXTVoiceNo": 11828, "traveltime": 0, "holidayTraveltime": 0}]}