{"en": [{"Id": "9125", "pgp": 0, "GoBack": 1, "SID": 5339, "NameZh": "MRT Ciaotou Train Station", "RouteId": 8722, "SeqNo": 1, "Terminal": 0, "DistrictId": 1, "Latitude": 22.760615, "Longitude": 120.309235, "IVRNo": 7900, "EXTVoiceNo": 9125, "traveltime": 0, "holidayTraveltime": 0}, {"Id": "7902", "pgp": 0, "GoBack": 1, "SID": 5340, "NameZh": "Ciaotou Junior High School", "RouteId": 8722, "SeqNo": 2, "Terminal": 0, "DistrictId": 1, "Latitude": 22.75881, "Longitude": 120.30715, "IVRNo": 7902, "EXTVoiceNo": 7902, "traveltime": 0, "holidayTraveltime": 0}, {"Id": "7903", "pgp": 0, "GoBack": 1, "SID": 5341, "NameZh": "Ciaotou  District Office (Baishu Rd.)", "RouteId": 8722, "SeqNo": 3, "Terminal": 0, "DistrictId": 1, "Latitude": 22.75846, "Longitude": 120.30536, "IVRNo": 7706, "EXTVoiceNo": 7903, "traveltime": 0, "holidayTraveltime": 0}, {"Id": "9808", "pgp": 0, "GoBack": 1, "SID": 11402, "NameZh": "Meide St. Intersection", "RouteId": 8722, "SeqNo": 4, "Terminal": 0, "DistrictId": 1, "Latitude": 22.756777, "Longitude": 120.300614, "IVRNo": 9785, "EXTVoiceNo": 9808, "traveltime": 0, "holidayTraveltime": 0}, {"Id": "9112", "pgp": 0, "GoBack": 1, "SID": 5362, "NameZh": "Shihyuan Rd. Intersection", "RouteId": 8722, "SeqNo": 5, "Terminal": 0, "DistrictId": 1, "Latitude": 22.75595, "Longitude": 120.29723, "IVRNo": 7924, "EXTVoiceNo": 9112, "traveltime": 0, "holidayTraveltime": 0}, {"Id": "7904", "pgp": 0, "GoBack": 1, "SID": 5342, "NameZh": "Kao-Yuan Technology & Commerce", "RouteId": 8722, "SeqNo": 6, "Terminal": 0, "DistrictId": 1, "Latitude": 22.7575, "Longitude": 120.29215, "IVRNo": 7904, "EXTVoiceNo": 7904, "traveltime": 0, "holidayTraveltime": 0}, {"Id": "7925", "pgp": 0, "GoBack": 1, "SID": 5365, "NameZh": "Yuliao Rd.", "RouteId": 8722, "SeqNo": 7, "Terminal": 0, "DistrictId": 1, "Latitude": 22.76, "Longitude": 120.2863, "IVRNo": 7925, "EXTVoiceNo": 7925, "traveltime": 0, "holidayTraveltime": 0}, {"Id": "7905", "pgp": 0, "GoBack": 1, "SID": 5343, "NameZh": "Chung Hung Steel (Ciaotou)", "RouteId": 8722, "SeqNo": 8, "Terminal": 0, "DistrictId": 1, "Latitude": 22.76221, "Longitude": 120.27773, "IVRNo": 7905, "EXTVoiceNo": 7905, "traveltime": 0, "holidayTraveltime": 0}, {"Id": "9114", "pgp": 0, "GoBack": 1, "SID": 5366, "NameZh": "Jhonglun Rd.", "RouteId": 8722, "SeqNo": 9, "Terminal": 0, "DistrictId": 1, "Latitude": 22.76173, "Longitude": 120.27306, "IVRNo": 7926, "EXTVoiceNo": 9114, "traveltime": 0, "holidayTraveltime": 0}, {"Id": "9115", "pgp": 0, "GoBack": 1, "SID": 5368, "NameZh": "Zihyi 3rd Park", "RouteId": 8722, "SeqNo": 10, "Terminal": 0, "DistrictId": 1, "Latitude": 22.76118, "Longitude": 120.26965, "IVRNo": 32343, "EXTVoiceNo": 9115, "traveltime": 0, "holidayTraveltime": 0}, {"Id": "1397", "pgp": 0, "GoBack": 1, "SID": 7128, "NameZh": "Zihguan", "RouteId": 8722, "SeqNo": 11, "Terminal": 0, "DistrictId": 1, "Latitude": 22.75994, "Longitude": 120.26715, "IVRNo": 11397, "EXTVoiceNo": 11397, "traveltime": 0, "holidayTraveltime": 0}, {"Id": "1084", "pgp": 0, "GoBack": 1, "SID": 7129, "NameZh": "Nanzihguan", "RouteId": 8722, "SeqNo": 12, "Terminal": 0, "DistrictId": 1, "Latitude": 22.75765, "Longitude": 120.267398, "IVRNo": 11084, "EXTVoiceNo": 11084, "traveltime": 0, "holidayTraveltime": 0}, {"Id": "0944", "pgp": 0, "GoBack": 1, "SID": 7130, "NameZh": "Tongan", "RouteId": 8722, "SeqNo": 13, "Terminal": 0, "DistrictId": 1, "Latitude": 22.75202, "Longitude": 120.26581, "IVRNo": 10944, "EXTVoiceNo": 10944, "traveltime": 0, "holidayTraveltime": 0}, {"Id": "0089", "pgp": 0, "GoBack": 1, "SID": 7131, "NameZh": "Dashejia", "RouteId": 8722, "SeqNo": 14, "Terminal": 0, "DistrictId": 1, "Latitude": 22.74805, "Longitude": 120.26321, "IVRNo": 10175, "EXTVoiceNo": 20089, "traveltime": 0, "holidayTraveltime": 0}, {"Id": "1159", "pgp": 0, "GoBack": 1, "SID": 7101, "NameZh": "Dashejia Farmers` Association (Dashe Office)", "RouteId": 8722, "SeqNo": 15, "Terminal": 0, "DistrictId": 1, "Latitude": 22.746742, "Longitude": 120.261685, "IVRNo": 863, "EXTVoiceNo": 21159, "traveltime": 0, "holidayTraveltime": 0}, {"Id": "0868", "pgp": 0, "GoBack": 1, "SID": 7142, "NameZh": "Subtropical", "RouteId": 8722, "SeqNo": 16, "Terminal": 0, "DistrictId": 1, "Latitude": 22.74318, "Longitude": 120.26279, "IVRNo": 8847, "EXTVoiceNo": 10868, "traveltime": 0, "holidayTraveltime": 0}, {"Id": "8848", "pgp": 0, "GoBack": 1, "SID": 15260, "NameZh": "Dashe S. Rd. (Dianbao Bridge)", "RouteId": 8722, "SeqNo": 17, "Terminal": 0, "DistrictId": 1, "Latitude": 22.738742, "Longitude": 120.264682, "IVRNo": 8848, "EXTVoiceNo": 8848, "traveltime": 0, "holidayTraveltime": 0}, {"Id": "0534", "pgp": 0, "GoBack": 1, "SID": 15307, "NameZh": "Dongbao Company", "RouteId": 8722, "SeqNo": 18, "Terminal": 0, "DistrictId": 1, "Latitude": 22.73452, "Longitude": 120.26794, "IVRNo": 534, "EXTVoiceNo": 534, "traveltime": 0, "holidayTraveltime": 0}, {"Id": "0043", "pgp": 0, "GoBack": 1, "SID": 15368, "NameZh": "Tonggang Rd.", "RouteId": 8722, "SeqNo": 19, "Terminal": 0, "DistrictId": 1, "Latitude": 22.726068, "Longitude": 120.258453, "IVRNo": 926, "EXTVoiceNo": 43, "traveltime": 0, "holidayTraveltime": 0}, {"Id": "8837", "pgp": 0, "GoBack": 1, "SID": 15415, "NameZh": "Kezailiao Fishing Port", "RouteId": 8722, "SeqNo": 20, "Terminal": 0, "DistrictId": 1, "Latitude": 22.726968, "Longitude": 120.2558, "IVRNo": 8837, "EXTVoiceNo": 8837, "traveltime": 0, "holidayTraveltime": 0}, {"Id": "1232", "pgp": 0, "GoBack": 1, "SID": 7918, "NameZh": "Baoan Temple (Zihguan)", "RouteId": 8722, "SeqNo": 21, "Terminal": 0, "DistrictId": 1, "Latitude": 22.729842, "Longitude": 120.255668, "IVRNo": 1232, "EXTVoiceNo": 1232, "traveltime": 0, "holidayTraveltime": 0}, {"Id": "1240", "pgp": 0, "GoBack": 1, "SID": 8041, "NameZh": "Jhongjheng Rd. (Tongan Rd. Intersection)", "RouteId": 8722, "SeqNo": 22, "Terminal": 0, "DistrictId": 1, "Latitude": 22.731354, "Longitude": 120.254237, "IVRNo": 1240, "EXTVoiceNo": 1240, "traveltime": 0, "holidayTraveltime": 0}, {"Id": "0042", "pgp": 0, "GoBack": 1, "SID": 15847, "NameZh": "Tongan Rd.", "RouteId": 8722, "SeqNo": 23, "Terminal": 0, "DistrictId": 1, "Latitude": 22.733071, "Longitude": 120.254568, "IVRNo": 925, "EXTVoiceNo": 42, "traveltime": 0, "holidayTraveltime": 0}, {"Id": "8835", "pgp": 0, "GoBack": 1, "SID": 16147, "NameZh": "Jiahao Rd.", "RouteId": 8722, "SeqNo": 24, "Terminal": 0, "DistrictId": 1, "Latitude": 22.734857, "Longitude": 120.254673, "IVRNo": 8835, "EXTVoiceNo": 8835, "traveltime": 0, "holidayTraveltime": 0}, {"Id": "0870", "pgp": 0, "GoBack": 1, "SID": 17355, "NameZh": "Dianbao", "RouteId": 8722, "SeqNo": 25, "Terminal": 0, "DistrictId": 1, "Latitude": 22.73689, "Longitude": 120.258091, "IVRNo": 870, "EXTVoiceNo": 870, "traveltime": 0, "holidayTraveltime": 0}, {"Id": "0255", "pgp": 0, "GoBack": 1, "SID": 7917, "NameZh": "Daitian Temple", "RouteId": 8722, "SeqNo": 26, "Terminal": 0, "DistrictId": 1, "Latitude": 22.737274, "Longitude": 120.25924, "IVRNo": 8834, "EXTVoiceNo": 20255, "traveltime": 0, "holidayTraveltime": 0}, {"Id": "8833", "pgp": 0, "GoBack": 1, "SID": 8042, "NameZh": "Dianbao Bridge", "RouteId": 8722, "SeqNo": 27, "Terminal": 0, "DistrictId": 1, "Latitude": 22.738325, "Longitude": 120.264367, "IVRNo": 8833, "EXTVoiceNo": 8833, "traveltime": 0, "holidayTraveltime": 0}, {"Id": "8848", "pgp": 0, "GoBack": 1, "SID": 9711, "NameZh": "Dashe S. Rd. (Dianbao Bridge)", "RouteId": 8722, "SeqNo": 28, "Terminal": 0, "DistrictId": 1, "Latitude": 22.738652, "Longitude": 120.264902, "IVRNo": 8848, "EXTVoiceNo": 8848, "traveltime": 0, "holidayTraveltime": 0}, {"Id": "0868", "pgp": 0, "GoBack": 1, "SID": 9754, "NameZh": "Subtropical", "RouteId": 8722, "SeqNo": 29, "Terminal": 0, "DistrictId": 1, "Latitude": 22.7431, "Longitude": 120.26301, "IVRNo": 8847, "EXTVoiceNo": 10868, "traveltime": 0, "holidayTraveltime": 0}, {"Id": "1159", "pgp": 0, "GoBack": 1, "SID": 15846, "NameZh": "Dashejia Farmers` Association (Dashe Office)", "RouteId": 8722, "SeqNo": 30, "Terminal": 0, "DistrictId": 1, "Latitude": 22.74669, "Longitude": 120.261734, "IVRNo": 863, "EXTVoiceNo": 21159, "traveltime": 0, "holidayTraveltime": 0}, {"Id": "0950", "pgp": 0, "GoBack": 1, "SID": 549, "NameZh": "Dashe N. Rd.", "RouteId": 8722, "SeqNo": 31, "Terminal": 0, "DistrictId": 1, "Latitude": 22.748121, "Longitude": 120.261469, "IVRNo": 933, "EXTVoiceNo": 950, "traveltime": 0, "holidayTraveltime": 0}, {"Id": "0077", "pgp": 0, "GoBack": 1, "SID": 556, "NameZh": "Pingan St. Intersection", "RouteId": 8722, "SeqNo": 32, "Terminal": 0, "DistrictId": 1, "Latitude": 22.757203, "Longitude": 120.262313, "IVRNo": 934, "EXTVoiceNo": 77, "traveltime": 0, "holidayTraveltime": 0}, {"Id": "7908", "pgp": 0, "GoBack": 1, "SID": 5346, "NameZh": "Sinyi Rd.", "RouteId": 8722, "SeqNo": 33, "Terminal": 0, "DistrictId": 1, "Latitude": 22.76229, "Longitude": 120.26244, "IVRNo": 7908, "EXTVoiceNo": 7908, "traveltime": 0, "holidayTraveltime": 0}, {"Id": "7910", "pgp": 0, "GoBack": 1, "SID": 5348, "NameZh": "Mituo Junior High School (Jhongjheng S. Rd.)", "RouteId": 8722, "SeqNo": 34, "Terminal": 0, "DistrictId": 1, "Latitude": 22.77741, "Longitude": 120.25091, "IVRNo": 869, "EXTVoiceNo": 7910, "traveltime": 0, "holidayTraveltime": 0}, {"Id": "7911", "pgp": 0, "GoBack": 1, "SID": 5349, "NameZh": "Mituo District Office", "RouteId": 8722, "SeqNo": 35, "Terminal": 0, "DistrictId": 1, "Latitude": 22.780392, "Longitude": 120.249284, "IVRNo": 7911, "EXTVoiceNo": 7911, "traveltime": 0, "holidayTraveltime": 0}, {"Id": "7912", "pgp": 0, "GoBack": 1, "SID": 5350, "NameZh": "Mituo Elementary School", "RouteId": 8722, "SeqNo": 36, "Terminal": 1, "DistrictId": 1, "Latitude": 22.784147, "Longitude": 120.248042, "IVRNo": 7912, "EXTVoiceNo": 7912, "traveltime": 0, "holidayTraveltime": 0}, {"Id": "7912", "pgp": 0, "GoBack": 2, "SID": 5351, "NameZh": "Mituo Elementary School", "RouteId": 8722, "SeqNo": 1, "Terminal": 0, "DistrictId": 1, "Latitude": 22.784184, "Longitude": 120.247969, "IVRNo": 7912, "EXTVoiceNo": 7912, "traveltime": 0, "holidayTraveltime": 0}, {"Id": "7911", "pgp": 0, "GoBack": 2, "SID": 5352, "NameZh": "Mituo District Office", "RouteId": 8722, "SeqNo": 2, "Terminal": 0, "DistrictId": 1, "Latitude": 22.780392, "Longitude": 120.249284, "IVRNo": 7911, "EXTVoiceNo": 7911, "traveltime": 0, "holidayTraveltime": 0}, {"Id": "7910", "pgp": 0, "GoBack": 2, "SID": 5353, "NameZh": "Mituo Junior High School (Jhongjheng S. Rd.)", "RouteId": 8722, "SeqNo": 3, "Terminal": 0, "DistrictId": 1, "Latitude": 22.77741, "Longitude": 120.25091, "IVRNo": 869, "EXTVoiceNo": 7910, "traveltime": 0, "holidayTraveltime": 0}, {"Id": "7908", "pgp": 0, "GoBack": 2, "SID": 5355, "NameZh": "Sinyi Rd.", "RouteId": 8722, "SeqNo": 4, "Terminal": 0, "DistrictId": 1, "Latitude": 22.762279, "Longitude": 120.262347, "IVRNo": 7908, "EXTVoiceNo": 7908, "traveltime": 0, "holidayTraveltime": 0}, {"Id": "0077", "pgp": 0, "GoBack": 2, "SID": 673, "NameZh": "Pingan St. Intersection", "RouteId": 8722, "SeqNo": 5, "Terminal": 0, "DistrictId": 1, "Latitude": 22.757142, "Longitude": 120.262181, "IVRNo": 934, "EXTVoiceNo": 77, "traveltime": 0, "holidayTraveltime": 0}, {"Id": "0950", "pgp": 0, "GoBack": 2, "SID": 676, "NameZh": "Dashe N. Rd.", "RouteId": 8722, "SeqNo": 6, "Terminal": 0, "DistrictId": 1, "Latitude": 22.74811, "Longitude": 120.26135, "IVRNo": 933, "EXTVoiceNo": 950, "traveltime": 0, "holidayTraveltime": 0}, {"Id": "1159", "pgp": 0, "GoBack": 2, "SID": 4068, "NameZh": "Dashejia Farmers` Association (Dashe Office)", "RouteId": 8722, "SeqNo": 7, "Terminal": 0, "DistrictId": 1, "Latitude": 22.74663, "Longitude": 120.261662, "IVRNo": 863, "EXTVoiceNo": 21159, "traveltime": 0, "holidayTraveltime": 0}, {"Id": "0868", "pgp": 0, "GoBack": 2, "SID": 4072, "NameZh": "Subtropical", "RouteId": 8722, "SeqNo": 8, "Terminal": 0, "DistrictId": 1, "Latitude": 22.74318, "Longitude": 120.26279, "IVRNo": 8847, "EXTVoiceNo": 10868, "traveltime": 0, "holidayTraveltime": 0}, {"Id": "8848", "pgp": 0, "GoBack": 2, "SID": 8588, "NameZh": "Dashe S. Rd. (Dianbao Bridge)", "RouteId": 8722, "SeqNo": 9, "Terminal": 0, "DistrictId": 1, "Latitude": 22.739078, "Longitude": 120.26443, "IVRNo": 8848, "EXTVoiceNo": 8848, "traveltime": 0, "holidayTraveltime": 0}, {"Id": "8833", "pgp": 0, "GoBack": 2, "SID": 8642, "NameZh": "Dianbao Bridge", "RouteId": 8722, "SeqNo": 10, "Terminal": 0, "DistrictId": 1, "Latitude": 22.73835, "Longitude": 120.26434, "IVRNo": 8833, "EXTVoiceNo": 8833, "traveltime": 0, "holidayTraveltime": 0}, {"Id": "0255", "pgp": 0, "GoBack": 2, "SID": 10094, "NameZh": "Daitian Temple", "RouteId": 8722, "SeqNo": 11, "Terminal": 0, "DistrictId": 1, "Latitude": 22.737382, "Longitude": 120.259266, "IVRNo": 8834, "EXTVoiceNo": 20255, "traveltime": 0, "holidayTraveltime": 0}, {"Id": "0870", "pgp": 0, "GoBack": 2, "SID": 13778, "NameZh": "Dianbao", "RouteId": 8722, "SeqNo": 12, "Terminal": 0, "DistrictId": 1, "Latitude": 22.73699, "Longitude": 120.25813, "IVRNo": 870, "EXTVoiceNo": 870, "traveltime": 0, "holidayTraveltime": 0}, {"Id": "8835", "pgp": 0, "GoBack": 2, "SID": 13966, "NameZh": "Jiahao Rd.", "RouteId": 8722, "SeqNo": 13, "Terminal": 0, "DistrictId": 1, "Latitude": 22.733071, "Longitude": 120.254568, "IVRNo": 8835, "EXTVoiceNo": 8835, "traveltime": 0, "holidayTraveltime": 0}, {"Id": "0042", "pgp": 0, "GoBack": 2, "SID": 13993, "NameZh": "Tongan Rd.", "RouteId": 8722, "SeqNo": 14, "Terminal": 0, "DistrictId": 1, "Latitude": 22.733095, "Longitude": 120.254534, "IVRNo": 925, "EXTVoiceNo": 42, "traveltime": 0, "holidayTraveltime": 0}, {"Id": "1240", "pgp": 0, "GoBack": 2, "SID": 9489, "NameZh": "Jhongjheng Rd. (Tongan Rd. Intersection)", "RouteId": 8722, "SeqNo": 15, "Terminal": 0, "DistrictId": 1, "Latitude": 22.731381, "Longitude": 120.254158, "IVRNo": 1240, "EXTVoiceNo": 1240, "traveltime": 0, "holidayTraveltime": 0}, {"Id": "1232", "pgp": 0, "GoBack": 2, "SID": 9515, "NameZh": "Baoan Temple (Zihguan)", "RouteId": 8722, "SeqNo": 16, "Terminal": 0, "DistrictId": 1, "Latitude": 22.729444, "Longitude": 120.255873, "IVRNo": 1232, "EXTVoiceNo": 1232, "traveltime": 0, "holidayTraveltime": 0}, {"Id": "8837", "pgp": 0, "GoBack": 2, "SID": 15266, "NameZh": "Kezailiao Fishing Port", "RouteId": 8722, "SeqNo": 17, "Terminal": 0, "DistrictId": 1, "Latitude": 22.726948, "Longitude": 120.255777, "IVRNo": 8837, "EXTVoiceNo": 8837, "traveltime": 0, "holidayTraveltime": 0}, {"Id": "0043", "pgp": 0, "GoBack": 2, "SID": 15301, "NameZh": "Tonggang Rd.", "RouteId": 8722, "SeqNo": 18, "Terminal": 0, "DistrictId": 1, "Latitude": 22.726063, "Longitude": 120.258494, "IVRNo": 926, "EXTVoiceNo": 43, "traveltime": 0, "holidayTraveltime": 0}, {"Id": "0534", "pgp": 0, "GoBack": 2, "SID": 15374, "NameZh": "Dongbao Company", "RouteId": 8722, "SeqNo": 19, "Terminal": 0, "DistrictId": 1, "Latitude": 22.73458, "Longitude": 120.26815, "IVRNo": 534, "EXTVoiceNo": 534, "traveltime": 0, "holidayTraveltime": 0}, {"Id": "8848", "pgp": 0, "GoBack": 2, "SID": 15409, "NameZh": "Dashe S. Rd. (Dianbao Bridge)", "RouteId": 8722, "SeqNo": 20, "Terminal": 0, "DistrictId": 1, "Latitude": 22.739016, "Longitude": 120.264612, "IVRNo": 8848, "EXTVoiceNo": 8848, "traveltime": 0, "holidayTraveltime": 0}, {"Id": "0868", "pgp": 0, "GoBack": 2, "SID": 17738, "NameZh": "Subtropical", "RouteId": 8722, "SeqNo": 21, "Terminal": 0, "DistrictId": 1, "Latitude": 22.7431, "Longitude": 120.26301, "IVRNo": 8847, "EXTVoiceNo": 10868, "traveltime": 0, "holidayTraveltime": 0}, {"Id": "1159", "pgp": 0, "GoBack": 2, "SID": 3279, "NameZh": "Dashejia Farmers` Association (Dashe Office)", "RouteId": 8722, "SeqNo": 22, "Terminal": 0, "DistrictId": 1, "Latitude": 22.74669, "Longitude": 120.261734, "IVRNo": 863, "EXTVoiceNo": 21159, "traveltime": 0, "holidayTraveltime": 0}, {"Id": "0089", "pgp": 0, "GoBack": 2, "SID": 7112, "NameZh": "Dashejia", "RouteId": 8722, "SeqNo": 23, "Terminal": 0, "DistrictId": 1, "Latitude": 22.74836, "Longitude": 120.26322, "IVRNo": 10175, "EXTVoiceNo": 20089, "traveltime": 0, "holidayTraveltime": 0}, {"Id": "0944", "pgp": 0, "GoBack": 2, "SID": 7113, "NameZh": "Tongan", "RouteId": 8722, "SeqNo": 24, "Terminal": 0, "DistrictId": 1, "Latitude": 22.75182, "Longitude": 120.26575, "IVRNo": 10944, "EXTVoiceNo": 10944, "traveltime": 0, "holidayTraveltime": 0}, {"Id": "1084", "pgp": 0, "GoBack": 2, "SID": 7114, "NameZh": "Nanzihguan", "RouteId": 8722, "SeqNo": 25, "Terminal": 0, "DistrictId": 1, "Latitude": 22.75744, "Longitude": 120.2675, "IVRNo": 11084, "EXTVoiceNo": 11084, "traveltime": 0, "holidayTraveltime": 0}, {"Id": "1397", "pgp": 0, "GoBack": 2, "SID": 7115, "NameZh": "Zihguan", "RouteId": 8722, "SeqNo": 26, "Terminal": 0, "DistrictId": 1, "Latitude": 22.75997, "Longitude": 120.26709, "IVRNo": 11397, "EXTVoiceNo": 11397, "traveltime": 0, "holidayTraveltime": 0}, {"Id": "9115", "pgp": 0, "GoBack": 2, "SID": 5371, "NameZh": "Zihyi 3rd Park", "RouteId": 8722, "SeqNo": 27, "Terminal": 0, "DistrictId": 1, "Latitude": 22.76111, "Longitude": 120.26931, "IVRNo": 32343, "EXTVoiceNo": 9115, "traveltime": 0, "holidayTraveltime": 0}, {"Id": "9114", "pgp": 0, "GoBack": 2, "SID": 5372, "NameZh": "Jhonglun Rd.", "RouteId": 8722, "SeqNo": 28, "Terminal": 0, "DistrictId": 1, "Latitude": 22.76164, "Longitude": 120.273019, "IVRNo": 7926, "EXTVoiceNo": 9114, "traveltime": 0, "holidayTraveltime": 0}, {"Id": "7905", "pgp": 0, "GoBack": 2, "SID": 5358, "NameZh": "Chung Hung Steel (Ciaotou)", "RouteId": 8722, "SeqNo": 29, "Terminal": 0, "DistrictId": 1, "Latitude": 22.762149, "Longitude": 120.277725, "IVRNo": 7905, "EXTVoiceNo": 7905, "traveltime": 0, "holidayTraveltime": 0}, {"Id": "7925", "pgp": 0, "GoBack": 2, "SID": 5375, "NameZh": "Yuliao Rd.", "RouteId": 8722, "SeqNo": 30, "Terminal": 0, "DistrictId": 1, "Latitude": 22.76016, "Longitude": 120.28563, "IVRNo": 7925, "EXTVoiceNo": 7925, "traveltime": 0, "holidayTraveltime": 0}, {"Id": "7904", "pgp": 0, "GoBack": 2, "SID": 5359, "NameZh": "Kao-Yuan Technology & Commerce", "RouteId": 8722, "SeqNo": 31, "Terminal": 0, "DistrictId": 1, "Latitude": 22.757455, "Longitude": 120.291412, "IVRNo": 7904, "EXTVoiceNo": 7904, "traveltime": 0, "holidayTraveltime": 0}, {"Id": "9112", "pgp": 0, "GoBack": 2, "SID": 5376, "NameZh": "Shihyuan Rd. Intersection", "RouteId": 8722, "SeqNo": 32, "Terminal": 0, "DistrictId": 1, "Latitude": 22.75553, "Longitude": 120.29786, "IVRNo": 7924, "EXTVoiceNo": 9112, "traveltime": 0, "holidayTraveltime": 0}, {"Id": "9808", "pgp": 0, "GoBack": 2, "SID": 11443, "NameZh": "Meide St. Intersection", "RouteId": 8722, "SeqNo": 33, "Terminal": 0, "DistrictId": 1, "Latitude": 22.758223, "Longitude": 120.30292, "IVRNo": 9785, "EXTVoiceNo": 9808, "traveltime": 0, "holidayTraveltime": 0}, {"Id": "7903", "pgp": 0, "GoBack": 2, "SID": 5360, "NameZh": "Ciaotou  District Office (Baishu Rd.)", "RouteId": 8722, "SeqNo": 34, "Terminal": 0, "DistrictId": 1, "Latitude": 22.758417, "Longitude": 120.30536, "IVRNo": 7706, "EXTVoiceNo": 7903, "traveltime": 0, "holidayTraveltime": 0}, {"Id": "7902", "pgp": 0, "GoBack": 2, "SID": 5361, "NameZh": "Ciaotou Junior High School", "RouteId": 8722, "SeqNo": 35, "Terminal": 0, "DistrictId": 1, "Latitude": 22.75874, "Longitude": 120.307076, "IVRNo": 7902, "EXTVoiceNo": 7902, "traveltime": 0, "holidayTraveltime": 0}, {"Id": "9125", "pgp": 0, "GoBack": 2, "SID": 5338, "NameZh": "MRT Ciaotou Train Station", "RouteId": 8722, "SeqNo": 36, "Terminal": 1, "DistrictId": 1, "Latitude": 22.75962, "Longitude": 120.309805, "IVRNo": 7900, "EXTVoiceNo": 9125, "traveltime": 0, "holidayTraveltime": 0}], "zh": [{"Id": "9125", "pgp": 0, "GoBack": 1, "SID": 5339, "NameZh": "\u6377\u904b\u6a4b\u982d\u706b\u8eca\u7ad9", "RouteId": 8722, "SeqNo": 1, "Terminal": 0, "DistrictId": 1, "Latitude": 22.760615, "Longitude": 120.309235, "IVRNo": 7900, "EXTVoiceNo": 9125, "traveltime": 0, "holidayTraveltime": 0}, {"Id": "7902", "pgp": 0, "GoBack": 1, "SID": 5340, "NameZh": "\u6a4b\u982d\u570b\u4e2d", "RouteId": 8722, "SeqNo": 2, "Terminal": 0, "DistrictId": 1, "Latitude": 22.75881, "Longitude": 120.30715, "IVRNo": 7902, "EXTVoiceNo": 7902, "traveltime": 0, "holidayTraveltime": 0}, {"Id": "7903", "pgp": 0, "GoBack": 1, "SID": 5341, "NameZh": "\u6a4b\u982d\u5340\u516c\u6240(\u767d\u6a39\u8def)", "RouteId": 8722, "SeqNo": 3, "Terminal": 0, "DistrictId": 1, "Latitude": 22.75846, "Longitude": 120.30536, "IVRNo": 7706, "EXTVoiceNo": 7903, "traveltime": 0, "holidayTraveltime": 0}, {"Id": "9808", "pgp": 0, "GoBack": 1, "SID": 11402, "NameZh": "\u7f8e\u5fb7\u8857\u53e3", "RouteId": 8722, "SeqNo": 4, "Terminal": 0, "DistrictId": 1, "Latitude": 22.756777, "Longitude": 120.300614, "IVRNo": 9785, "EXTVoiceNo": 9808, "traveltime": 0, "holidayTraveltime": 0}, {"Id": "9112", "pgp": 0, "GoBack": 1, "SID": 5362, "NameZh": "\u4ed5\u5143\u8def\u53e3", "RouteId": 8722, "SeqNo": 5, "Terminal": 0, "DistrictId": 1, "Latitude": 22.75595, "Longitude": 120.29723, "IVRNo": 7924, "EXTVoiceNo": 9112, "traveltime": 0, "holidayTraveltime": 0}, {"Id": "7904", "pgp": 0, "GoBack": 1, "SID": 5342, "NameZh": "\u9ad8\u82d1\u5de5\u5546", "RouteId": 8722, "SeqNo": 6, "Terminal": 0, "DistrictId": 1, "Latitude": 22.7575, "Longitude": 120.29215, "IVRNo": 7904, "EXTVoiceNo": 7904, "traveltime": 0, "holidayTraveltime": 0}, {"Id": "7925", "pgp": 0, "GoBack": 1, "SID": 5365, "NameZh": "\u828b\u5bee\u8def", "RouteId": 8722, "SeqNo": 7, "Terminal": 0, "DistrictId": 1, "Latitude": 22.76, "Longitude": 120.2863, "IVRNo": 7925, "EXTVoiceNo": 7925, "traveltime": 0, "holidayTraveltime": 0}, {"Id": "7905", "pgp": 0, "GoBack": 1, "SID": 5343, "NameZh": "\u4e2d\u9d3b\u92fc\u9435(\u6a4b\u982d)", "RouteId": 8722, "SeqNo": 8, "Terminal": 0, "DistrictId": 1, "Latitude": 22.76221, "Longitude": 120.27773, "IVRNo": 7905, "EXTVoiceNo": 7905, "traveltime": 0, "holidayTraveltime": 0}, {"Id": "9114", "pgp": 0, "GoBack": 1, "SID": 5366, "NameZh": "\u4e2d\u5d19\u8def", "RouteId": 8722, "SeqNo": 9, "Terminal": 0, "DistrictId": 1, "Latitude": 22.76173, "Longitude": 120.27306, "IVRNo": 7926, "EXTVoiceNo": 9114, "traveltime": 0, "holidayTraveltime": 0}, {"Id": "9115", "pgp": 0, "GoBack": 1, "SID": 5368, "NameZh": "\u6893\u7fa9\u7b2c\u4e09\u516c\u5712", "RouteId": 8722, "SeqNo": 10, "Terminal": 0, "DistrictId": 1, "Latitude": 22.76118, "Longitude": 120.26965, "IVRNo": 32343, "EXTVoiceNo": 9115, "traveltime": 0, "holidayTraveltime": 0}, {"Id": "1397", "pgp": 0, "GoBack": 1, "SID": 7128, "NameZh": "\u6893\u5b98", "RouteId": 8722, "SeqNo": 11, "Terminal": 0, "DistrictId": 1, "Latitude": 22.75994, "Longitude": 120.26715, "IVRNo": 11397, "EXTVoiceNo": 11397, "traveltime": 0, "holidayTraveltime": 0}, {"Id": "1084", "pgp": 0, "GoBack": 1, "SID": 7129, "NameZh": "\u5357\u6893\u5b98", "RouteId": 8722, "SeqNo": 12, "Terminal": 0, "DistrictId": 1, "Latitude": 22.75765, "Longitude": 120.267398, "IVRNo": 11084, "EXTVoiceNo": 11084, "traveltime": 0, "holidayTraveltime": 0}, {"Id": "0944", "pgp": 0, "GoBack": 1, "SID": 7130, "NameZh": "\u540c\u5b89", "RouteId": 8722, "SeqNo": 13, "Terminal": 0, "DistrictId": 1, "Latitude": 22.75202, "Longitude": 120.26581, "IVRNo": 10944, "EXTVoiceNo": 10944, "traveltime": 0, "holidayTraveltime": 0}, {"Id": "0089", "pgp": 0, "GoBack": 1, "SID": 7131, "NameZh": "\u5927\u820d\u7532", "RouteId": 8722, "SeqNo": 14, "Terminal": 0, "DistrictId": 1, "Latitude": 22.74805, "Longitude": 120.26321, "IVRNo": 10175, "EXTVoiceNo": 20089, "traveltime": 0, "holidayTraveltime": 0}, {"Id": "1159", "pgp": 0, "GoBack": 1, "SID": 7101, "NameZh": "\u5927\u820d\u7532\u8fb2\u6703(\u5927\u820d\u8fa6\u4e8b\u8655)", "RouteId": 8722, "SeqNo": 15, "Terminal": 0, "DistrictId": 1, "Latitude": 22.746742, "Longitude": 120.261685, "IVRNo": 863, "EXTVoiceNo": 21159, "traveltime": 0, "holidayTraveltime": 0}, {"Id": "0868", "pgp": 0, "GoBack": 1, "SID": 7142, "NameZh": "\u4e9e\u71b1\u5e36", "RouteId": 8722, "SeqNo": 16, "Terminal": 0, "DistrictId": 1, "Latitude": 22.74318, "Longitude": 120.26279, "IVRNo": 8847, "EXTVoiceNo": 10868, "traveltime": 0, "holidayTraveltime": 0}, {"Id": "8848", "pgp": 0, "GoBack": 1, "SID": 15260, "NameZh": "\u5927\u820d\u5357\u8def(\u5178\u5bf6\u6a4b)", "RouteId": 8722, "SeqNo": 17, "Terminal": 0, "DistrictId": 1, "Latitude": 22.738742, "Longitude": 120.264682, "IVRNo": 8848, "EXTVoiceNo": 8848, "traveltime": 0, "holidayTraveltime": 0}, {"Id": "0534", "pgp": 0, "GoBack": 1, "SID": 15307, "NameZh": "\u6771\u5bf6\u516c\u53f8", "RouteId": 8722, "SeqNo": 18, "Terminal": 0, "DistrictId": 1, "Latitude": 22.73452, "Longitude": 120.26794, "IVRNo": 534, "EXTVoiceNo": 534, "traveltime": 0, "holidayTraveltime": 0}, {"Id": "0043", "pgp": 0, "GoBack": 1, "SID": 15368, "NameZh": "\u901a\u6e2f\u8def", "RouteId": 8722, "SeqNo": 19, "Terminal": 0, "DistrictId": 1, "Latitude": 22.726068, "Longitude": 120.258453, "IVRNo": 926, "EXTVoiceNo": 43, "traveltime": 0, "holidayTraveltime": 0}, {"Id": "8837", "pgp": 0, "GoBack": 1, "SID": 15415, "NameZh": "\u86b5\u4ed4\u5bee\u6f01\u6e2f", "RouteId": 8722, "SeqNo": 20, "Terminal": 0, "DistrictId": 1, "Latitude": 22.726968, "Longitude": 120.2558, "IVRNo": 8837, "EXTVoiceNo": 8837, "traveltime": 0, "holidayTraveltime": 0}, {"Id": "1232", "pgp": 0, "GoBack": 1, "SID": 7918, "NameZh": "\u4fdd\u5b89\u5bae(\u6893\u5b98)", "RouteId": 8722, "SeqNo": 21, "Terminal": 0, "DistrictId": 1, "Latitude": 22.729842, "Longitude": 120.255668, "IVRNo": 1232, "EXTVoiceNo": 1232, "traveltime": 0, "holidayTraveltime": 0}, {"Id": "1240", "pgp": 0, "GoBack": 1, "SID": 8041, "NameZh": "\u4e2d\u6b63\u8def(\u901a\u5b89\u8def\u53e3)", "RouteId": 8722, "SeqNo": 22, "Terminal": 0, "DistrictId": 1, "Latitude": 22.731354, "Longitude": 120.254237, "IVRNo": 1240, "EXTVoiceNo": 1240, "traveltime": 0, "holidayTraveltime": 0}, {"Id": "0042", "pgp": 0, "GoBack": 1, "SID": 15847, "NameZh": "\u901a\u5b89\u8def", "RouteId": 8722, "SeqNo": 23, "Terminal": 0, "DistrictId": 1, "Latitude": 22.733071, "Longitude": 120.254568, "IVRNo": 925, "EXTVoiceNo": 42, "traveltime": 0, "holidayTraveltime": 0}, {"Id": "8835", "pgp": 0, "GoBack": 1, "SID": 16147, "NameZh": "\u5609\u597d\u8def", "RouteId": 8722, "SeqNo": 24, "Terminal": 0, "DistrictId": 1, "Latitude": 22.734857, "Longitude": 120.254673, "IVRNo": 8835, "EXTVoiceNo": 8835, "traveltime": 0, "holidayTraveltime": 0}, {"Id": "0870", "pgp": 0, "GoBack": 1, "SID": 17355, "NameZh": "\u5178\u5bf6", "RouteId": 8722, "SeqNo": 25, "Terminal": 0, "DistrictId": 1, "Latitude": 22.73689, "Longitude": 120.258091, "IVRNo": 870, "EXTVoiceNo": 870, "traveltime": 0, "holidayTraveltime": 0}, {"Id": "0255", "pgp": 0, "GoBack": 1, "SID": 7917, "NameZh": "\u4ee3\u5929\u5e9c", "RouteId": 8722, "SeqNo": 26, "Terminal": 0, "DistrictId": 1, "Latitude": 22.737274, "Longitude": 120.25924, "IVRNo": 8834, "EXTVoiceNo": 20255, "traveltime": 0, "holidayTraveltime": 0}, {"Id": "8833", "pgp": 0, "GoBack": 1, "SID": 8042, "NameZh": "\u5178\u5bf6\u6a4b", "RouteId": 8722, "SeqNo": 27, "Terminal": 0, "DistrictId": 1, "Latitude": 22.738325, "Longitude": 120.264367, "IVRNo": 8833, "EXTVoiceNo": 8833, "traveltime": 0, "holidayTraveltime": 0}, {"Id": "8848", "pgp": 0, "GoBack": 1, "SID": 9711, "NameZh": "\u5927\u820d\u5357\u8def(\u5178\u5bf6\u6a4b)", "RouteId": 8722, "SeqNo": 28, "Terminal": 0, "DistrictId": 1, "Latitude": 22.738652, "Longitude": 120.264902, "IVRNo": 8848, "EXTVoiceNo": 8848, "traveltime": 0, "holidayTraveltime": 0}, {"Id": "0868", "pgp": 0, "GoBack": 1, "SID": 9754, "NameZh": "\u4e9e\u71b1\u5e36", "RouteId": 8722, "SeqNo": 29, "Terminal": 0, "DistrictId": 1, "Latitude": 22.7431, "Longitude": 120.26301, "IVRNo": 8847, "EXTVoiceNo": 10868, "traveltime": 0, "holidayTraveltime": 0}, {"Id": "1159", "pgp": 0, "GoBack": 1, "SID": 15846, "NameZh": "\u5927\u820d\u7532\u8fb2\u6703(\u5927\u820d\u8fa6\u4e8b\u8655)", "RouteId": 8722, "SeqNo": 30, "Terminal": 0, "DistrictId": 1, "Latitude": 22.74669, "Longitude": 120.261734, "IVRNo": 863, "EXTVoiceNo": 21159, "traveltime": 0, "holidayTraveltime": 0}, {"Id": "0950", "pgp": 0, "GoBack": 1, "SID": 549, "NameZh": "\u5927\u820d\u5317\u8def", "RouteId": 8722, "SeqNo": 31, "Terminal": 0, "DistrictId": 1, "Latitude": 22.748121, "Longitude": 120.261469, "IVRNo": 933, "EXTVoiceNo": 950, "traveltime": 0, "holidayTraveltime": 0}, {"Id": "0077", "pgp": 0, "GoBack": 1, "SID": 556, "NameZh": "\u5e73\u5b89\u8857\u53e3", "RouteId": 8722, "SeqNo": 32, "Terminal": 0, "DistrictId": 1, "Latitude": 22.757203, "Longitude": 120.262313, "IVRNo": 934, "EXTVoiceNo": 77, "traveltime": 0, "holidayTraveltime": 0}, {"Id": "7908", "pgp": 0, "GoBack": 1, "SID": 5346, "NameZh": "\u4fe1\u7fa9\u8def", "RouteId": 8722, "SeqNo": 33, "Terminal": 0, "DistrictId": 1, "Latitude": 22.76229, "Longitude": 120.26244, "IVRNo": 7908, "EXTVoiceNo": 7908, "traveltime": 0, "holidayTraveltime": 0}, {"Id": "7910", "pgp": 0, "GoBack": 1, "SID": 5348, "NameZh": "\u5f4c\u9640\u570b\u4e2d(\u4e2d\u6b63\u5357\u8def)", "RouteId": 8722, "SeqNo": 34, "Terminal": 0, "DistrictId": 1, "Latitude": 22.77741, "Longitude": 120.25091, "IVRNo": 869, "EXTVoiceNo": 7910, "traveltime": 0, "holidayTraveltime": 0}, {"Id": "7911", "pgp": 0, "GoBack": 1, "SID": 5349, "NameZh": "\u5f4c\u9640\u5340\u516c\u6240", "RouteId": 8722, "SeqNo": 35, "Terminal": 0, "DistrictId": 1, "Latitude": 22.780392, "Longitude": 120.249284, "IVRNo": 7911, "EXTVoiceNo": 7911, "traveltime": 0, "holidayTraveltime": 0}, {"Id": "7912", "pgp": 0, "GoBack": 1, "SID": 5350, "NameZh": "\u5f4c\u9640\u570b\u5c0f", "RouteId": 8722, "SeqNo": 36, "Terminal": 1, "DistrictId": 1, "Latitude": 22.784147, "Longitude": 120.248042, "IVRNo": 7912, "EXTVoiceNo": 7912, "traveltime": 0, "holidayTraveltime": 0}, {"Id": "7912", "pgp": 0, "GoBack": 2, "SID": 5351, "NameZh": "\u5f4c\u9640\u570b\u5c0f", "RouteId": 8722, "SeqNo": 1, "Terminal": 0, "DistrictId": 1, "Latitude": 22.784184, "Longitude": 120.247969, "IVRNo": 7912, "EXTVoiceNo": 7912, "traveltime": 0, "holidayTraveltime": 0}, {"Id": "7911", "pgp": 0, "GoBack": 2, "SID": 5352, "NameZh": "\u5f4c\u9640\u5340\u516c\u6240", "RouteId": 8722, "SeqNo": 2, "Terminal": 0, "DistrictId": 1, "Latitude": 22.780392, "Longitude": 120.249284, "IVRNo": 7911, "EXTVoiceNo": 7911, "traveltime": 0, "holidayTraveltime": 0}, {"Id": "7910", "pgp": 0, "GoBack": 2, "SID": 5353, "NameZh": "\u5f4c\u9640\u570b\u4e2d(\u4e2d\u6b63\u5357\u8def)", "RouteId": 8722, "SeqNo": 3, "Terminal": 0, "DistrictId": 1, "Latitude": 22.77741, "Longitude": 120.25091, "IVRNo": 869, "EXTVoiceNo": 7910, "traveltime": 0, "holidayTraveltime": 0}, {"Id": "7908", "pgp": 0, "GoBack": 2, "SID": 5355, "NameZh": "\u4fe1\u7fa9\u8def", "RouteId": 8722, "SeqNo": 4, "Terminal": 0, "DistrictId": 1, "Latitude": 22.762279, "Longitude": 120.262347, "IVRNo": 7908, "EXTVoiceNo": 7908, "traveltime": 0, "holidayTraveltime": 0}, {"Id": "0077", "pgp": 0, "GoBack": 2, "SID": 673, "NameZh": "\u5e73\u5b89\u8857\u53e3", "RouteId": 8722, "SeqNo": 5, "Terminal": 0, "DistrictId": 1, "Latitude": 22.757142, "Longitude": 120.262181, "IVRNo": 934, "EXTVoiceNo": 77, "traveltime": 0, "holidayTraveltime": 0}, {"Id": "0950", "pgp": 0, "GoBack": 2, "SID": 676, "NameZh": "\u5927\u820d\u5317\u8def", "RouteId": 8722, "SeqNo": 6, "Terminal": 0, "DistrictId": 1, "Latitude": 22.74811, "Longitude": 120.26135, "IVRNo": 933, "EXTVoiceNo": 950, "traveltime": 0, "holidayTraveltime": 0}, {"Id": "1159", "pgp": 0, "GoBack": 2, "SID": 4068, "NameZh": "\u5927\u820d\u7532\u8fb2\u6703(\u5927\u820d\u8fa6\u4e8b\u8655)", "RouteId": 8722, "SeqNo": 7, "Terminal": 0, "DistrictId": 1, "Latitude": 22.74663, "Longitude": 120.261662, "IVRNo": 863, "EXTVoiceNo": 21159, "traveltime": 0, "holidayTraveltime": 0}, {"Id": "0868", "pgp": 0, "GoBack": 2, "SID": 4072, "NameZh": "\u4e9e\u71b1\u5e36", "RouteId": 8722, "SeqNo": 8, "Terminal": 0, "DistrictId": 1, "Latitude": 22.74318, "Longitude": 120.26279, "IVRNo": 8847, "EXTVoiceNo": 10868, "traveltime": 0, "holidayTraveltime": 0}, {"Id": "8848", "pgp": 0, "GoBack": 2, "SID": 8588, "NameZh": "\u5927\u820d\u5357\u8def(\u5178\u5bf6\u6a4b)", "RouteId": 8722, "SeqNo": 9, "Terminal": 0, "DistrictId": 1, "Latitude": 22.739078, "Longitude": 120.26443, "IVRNo": 8848, "EXTVoiceNo": 8848, "traveltime": 0, "holidayTraveltime": 0}, {"Id": "8833", "pgp": 0, "GoBack": 2, "SID": 8642, "NameZh": "\u5178\u5bf6\u6a4b", "RouteId": 8722, "SeqNo": 10, "Terminal": 0, "DistrictId": 1, "Latitude": 22.73835, "Longitude": 120.26434, "IVRNo": 8833, "EXTVoiceNo": 8833, "traveltime": 0, "holidayTraveltime": 0}, {"Id": "0255", "pgp": 0, "GoBack": 2, "SID": 10094, "NameZh": "\u4ee3\u5929\u5e9c", "RouteId": 8722, "SeqNo": 11, "Terminal": 0, "DistrictId": 1, "Latitude": 22.737382, "Longitude": 120.259266, "IVRNo": 8834, "EXTVoiceNo": 20255, "traveltime": 0, "holidayTraveltime": 0}, {"Id": "0870", "pgp": 0, "GoBack": 2, "SID": 13778, "NameZh": "\u5178\u5bf6", "RouteId": 8722, "SeqNo": 12, "Terminal": 0, "DistrictId": 1, "Latitude": 22.73699, "Longitude": 120.25813, "IVRNo": 870, "EXTVoiceNo": 870, "traveltime": 0, "holidayTraveltime": 0}, {"Id": "8835", "pgp": 0, "GoBack": 2, "SID": 13966, "NameZh": "\u5609\u597d\u8def", "RouteId": 8722, "SeqNo": 13, "Terminal": 0, "DistrictId": 1, "Latitude": 22.733071, "Longitude": 120.254568, "IVRNo": 8835, "EXTVoiceNo": 8835, "traveltime": 0, "holidayTraveltime": 0}, {"Id": "0042", "pgp": 0, "GoBack": 2, "SID": 13993, "NameZh": "\u901a\u5b89\u8def", "RouteId": 8722, "SeqNo": 14, "Terminal": 0, "DistrictId": 1, "Latitude": 22.733095, "Longitude": 120.254534, "IVRNo": 925, "EXTVoiceNo": 42, "traveltime": 0, "holidayTraveltime": 0}, {"Id": "1240", "pgp": 0, "GoBack": 2, "SID": 9489, "NameZh": "\u4e2d\u6b63\u8def(\u901a\u5b89\u8def\u53e3)", "RouteId": 8722, "SeqNo": 15, "Terminal": 0, "DistrictId": 1, "Latitude": 22.731381, "Longitude": 120.254158, "IVRNo": 1240, "EXTVoiceNo": 1240, "traveltime": 0, "holidayTraveltime": 0}, {"Id": "1232", "pgp": 0, "GoBack": 2, "SID": 9515, "NameZh": "\u4fdd\u5b89\u5bae(\u6893\u5b98)", "RouteId": 8722, "SeqNo": 16, "Terminal": 0, "DistrictId": 1, "Latitude": 22.729444, "Longitude": 120.255873, "IVRNo": 1232, "EXTVoiceNo": 1232, "traveltime": 0, "holidayTraveltime": 0}, {"Id": "8837", "pgp": 0, "GoBack": 2, "SID": 15266, "NameZh": "\u86b5\u4ed4\u5bee\u6f01\u6e2f", "RouteId": 8722, "SeqNo": 17, "Terminal": 0, "DistrictId": 1, "Latitude": 22.726948, "Longitude": 120.255777, "IVRNo": 8837, "EXTVoiceNo": 8837, "traveltime": 0, "holidayTraveltime": 0}, {"Id": "0043", "pgp": 0, "GoBack": 2, "SID": 15301, "NameZh": "\u901a\u6e2f\u8def", "RouteId": 8722, "SeqNo": 18, "Terminal": 0, "DistrictId": 1, "Latitude": 22.726063, "Longitude": 120.258494, "IVRNo": 926, "EXTVoiceNo": 43, "traveltime": 0, "holidayTraveltime": 0}, {"Id": "0534", "pgp": 0, "GoBack": 2, "SID": 15374, "NameZh": "\u6771\u5bf6\u516c\u53f8", "RouteId": 8722, "SeqNo": 19, "Terminal": 0, "DistrictId": 1, "Latitude": 22.73458, "Longitude": 120.26815, "IVRNo": 534, "EXTVoiceNo": 534, "traveltime": 0, "holidayTraveltime": 0}, {"Id": "8848", "pgp": 0, "GoBack": 2, "SID": 15409, "NameZh": "\u5927\u820d\u5357\u8def(\u5178\u5bf6\u6a4b)", "RouteId": 8722, "SeqNo": 20, "Terminal": 0, "DistrictId": 1, "Latitude": 22.739016, "Longitude": 120.264612, "IVRNo": 8848, "EXTVoiceNo": 8848, "traveltime": 0, "holidayTraveltime": 0}, {"Id": "0868", "pgp": 0, "GoBack": 2, "SID": 17738, "NameZh": "\u4e9e\u71b1\u5e36", "RouteId": 8722, "SeqNo": 21, "Terminal": 0, "DistrictId": 1, "Latitude": 22.7431, "Longitude": 120.26301, "IVRNo": 8847, "EXTVoiceNo": 10868, "traveltime": 0, "holidayTraveltime": 0}, {"Id": "1159", "pgp": 0, "GoBack": 2, "SID": 3279, "NameZh": "\u5927\u820d\u7532\u8fb2\u6703(\u5927\u820d\u8fa6\u4e8b\u8655)", "RouteId": 8722, "SeqNo": 22, "Terminal": 0, "DistrictId": 1, "Latitude": 22.74669, "Longitude": 120.261734, "IVRNo": 863, "EXTVoiceNo": 21159, "traveltime": 0, "holidayTraveltime": 0}, {"Id": "0089", "pgp": 0, "GoBack": 2, "SID": 7112, "NameZh": "\u5927\u820d\u7532", "RouteId": 8722, "SeqNo": 23, "Terminal": 0, "DistrictId": 1, "Latitude": 22.74836, "Longitude": 120.26322, "IVRNo": 10175, "EXTVoiceNo": 20089, "traveltime": 0, "holidayTraveltime": 0}, {"Id": "0944", "pgp": 0, "GoBack": 2, "SID": 7113, "NameZh": "\u540c\u5b89", "RouteId": 8722, "SeqNo": 24, "Terminal": 0, "DistrictId": 1, "Latitude": 22.75182, "Longitude": 120.26575, "IVRNo": 10944, "EXTVoiceNo": 10944, "traveltime": 0, "holidayTraveltime": 0}, {"Id": "1084", "pgp": 0, "GoBack": 2, "SID": 7114, "NameZh": "\u5357\u6893\u5b98", "RouteId": 8722, "SeqNo": 25, "Terminal": 0, "DistrictId": 1, "Latitude": 22.75744, "Longitude": 120.2675, "IVRNo": 11084, "EXTVoiceNo": 11084, "traveltime": 0, "holidayTraveltime": 0}, {"Id": "1397", "pgp": 0, "GoBack": 2, "SID": 7115, "NameZh": "\u6893\u5b98", "RouteId": 8722, "SeqNo": 26, "Terminal": 0, "DistrictId": 1, "Latitude": 22.75997, "Longitude": 120.26709, "IVRNo": 11397, "EXTVoiceNo": 11397, "traveltime": 0, "holidayTraveltime": 0}, {"Id": "9115", "pgp": 0, "GoBack": 2, "SID": 5371, "NameZh": "\u6893\u7fa9\u7b2c\u4e09\u516c\u5712", "RouteId": 8722, "SeqNo": 27, "Terminal": 0, "DistrictId": 1, "Latitude": 22.76111, "Longitude": 120.26931, "IVRNo": 32343, "EXTVoiceNo": 9115, "traveltime": 0, "holidayTraveltime": 0}, {"Id": "9114", "pgp": 0, "GoBack": 2, "SID": 5372, "NameZh": "\u4e2d\u5d19\u8def", "RouteId": 8722, "SeqNo": 28, "Terminal": 0, "DistrictId": 1, "Latitude": 22.76164, "Longitude": 120.273019, "IVRNo": 7926, "EXTVoiceNo": 9114, "traveltime": 0, "holidayTraveltime": 0}, {"Id": "7905", "pgp": 0, "GoBack": 2, "SID": 5358, "NameZh": "\u4e2d\u9d3b\u92fc\u9435(\u6a4b\u982d)", "RouteId": 8722, "SeqNo": 29, "Terminal": 0, "DistrictId": 1, "Latitude": 22.762149, "Longitude": 120.277725, "IVRNo": 7905, "EXTVoiceNo": 7905, "traveltime": 0, "holidayTraveltime": 0}, {"Id": "7925", "pgp": 0, "GoBack": 2, "SID": 5375, "NameZh": "\u828b\u5bee\u8def", "RouteId": 8722, "SeqNo": 30, "Terminal": 0, "DistrictId": 1, "Latitude": 22.76016, "Longitude": 120.28563, "IVRNo": 7925, "EXTVoiceNo": 7925, "traveltime": 0, "holidayTraveltime": 0}, {"Id": "7904", "pgp": 0, "GoBack": 2, "SID": 5359, "NameZh": "\u9ad8\u82d1\u5de5\u5546", "RouteId": 8722, "SeqNo": 31, "Terminal": 0, "DistrictId": 1, "Latitude": 22.757455, "Longitude": 120.291412, "IVRNo": 7904, "EXTVoiceNo": 7904, "traveltime": 0, "holidayTraveltime": 0}, {"Id": "9112", "pgp": 0, "GoBack": 2, "SID": 5376, "NameZh": "\u4ed5\u5143\u8def\u53e3", "RouteId": 8722, "SeqNo": 32, "Terminal": 0, "DistrictId": 1, "Latitude": 22.75553, "Longitude": 120.29786, "IVRNo": 7924, "EXTVoiceNo": 9112, "traveltime": 0, "holidayTraveltime": 0}, {"Id": "9808", "pgp": 0, "GoBack": 2, "SID": 11443, "NameZh": "\u7f8e\u5fb7\u8857\u53e3", "RouteId": 8722, "SeqNo": 33, "Terminal": 0, "DistrictId": 1, "Latitude": 22.758223, "Longitude": 120.30292, "IVRNo": 9785, "EXTVoiceNo": 9808, "traveltime": 0, "holidayTraveltime": 0}, {"Id": "7903", "pgp": 0, "GoBack": 2, "SID": 5360, "NameZh": "\u6a4b\u982d\u5340\u516c\u6240(\u767d\u6a39\u8def)", "RouteId": 8722, "SeqNo": 34, "Terminal": 0, "DistrictId": 1, "Latitude": 22.758417, "Longitude": 120.30536, "IVRNo": 7706, "EXTVoiceNo": 7903, "traveltime": 0, "holidayTraveltime": 0}, {"Id": "7902", "pgp": 0, "GoBack": 2, "SID": 5361, "NameZh": "\u6a4b\u982d\u570b\u4e2d", "RouteId": 8722, "SeqNo": 35, "Terminal": 0, "DistrictId": 1, "Latitude": 22.75874, "Longitude": 120.307076, "IVRNo": 7902, "EXTVoiceNo": 7902, "traveltime": 0, "holidayTraveltime": 0}, {"Id": "9125", "pgp": 0, "GoBack": 2, "SID": 5338, "NameZh": "\u6377\u904b\u6a4b\u982d\u706b\u8eca\u7ad9", "RouteId": 8722, "SeqNo": 36, "Terminal": 1, "DistrictId": 1, "Latitude": 22.75962, "Longitude": 120.309805, "IVRNo": 7900, "EXTVoiceNo": 9125, "traveltime": 0, "holidayTraveltime": 0}]}