{"en": [{"Id": "2001", "pgp": 0, "GoBack": 1, "SID": 961, "NameZh": "Siaogang Station", "RouteId": 121, "SeqNo": 1, "Terminal": 0, "DistrictId": 1, "Latitude": 22.565339, "Longitude": 120.341004, "IVRNo": 2000, "EXTVoiceNo": 2001, "traveltime": 0, "holidayTraveltime": 0}, {"Id": "2002", "pgp": 0, "GoBack": 1, "SID": 971, "NameZh": "Siaogang Precinct", "RouteId": 121, "SeqNo": 2, "Terminal": 0, "DistrictId": 1, "Latitude": 22.565711, "Longitude": 120.34411, "IVRNo": 2002, "EXTVoiceNo": 2002, "traveltime": 0, "holidayTraveltime": 0}, {"Id": "2003", "pgp": 0, "GoBack": 1, "SID": 975, "NameZh": "Erling Rd.", "RouteId": 121, "SeqNo": 3, "Terminal": 0, "DistrictId": 1, "Latitude": 22.565503, "Longitude": 120.347028, "IVRNo": 2098, "EXTVoiceNo": 2003, "traveltime": 0, "holidayTraveltime": 0}, {"Id": "2004", "pgp": 0, "GoBack": 1, "SID": 976, "NameZh": "Minyi Rd.", "RouteId": 121, "SeqNo": 4, "Terminal": 0, "DistrictId": 1, "Latitude": 22.567222, "Longitude": 120.347919, "IVRNo": 2004, "EXTVoiceNo": 2004, "traveltime": 0, "holidayTraveltime": 0}, {"Id": "2005", "pgp": 0, "GoBack": 1, "SID": 977, "NameZh": "Aviation Police Bureau", "RouteId": 121, "SeqNo": 5, "Terminal": 0, "DistrictId": 1, "Latitude": 22.571211, "Longitude": 120.348625, "IVRNo": 2005, "EXTVoiceNo": 2005, "traveltime": 0, "holidayTraveltime": 0}, {"Id": "2006", "pgp": 0, "GoBack": 1, "SID": 978, "NameZh": "Shandong Village", "RouteId": 121, "SeqNo": 6, "Terminal": 0, "DistrictId": 1, "Latitude": 22.573261, "Longitude": 120.350877, "IVRNo": 2006, "EXTVoiceNo": 2006, "traveltime": 0, "holidayTraveltime": 0}, {"Id": "2007", "pgp": 0, "GoBack": 1, "SID": 979, "NameZh": "Cingdao Village", "RouteId": 121, "SeqNo": 7, "Terminal": 0, "DistrictId": 1, "Latitude": 22.573306, "Longitude": 120.35405, "IVRNo": 2007, "EXTVoiceNo": 2007, "traveltime": 0, "holidayTraveltime": 0}, {"Id": "2008", "pgp": 0, "GoBack": 1, "SID": 980, "NameZh": "Changbian 3rd Rd. Intersection (Feiji Rd.)", "RouteId": 121, "SeqNo": 8, "Terminal": 0, "DistrictId": 1, "Latitude": 22.57325, "Longitude": 120.35693, "IVRNo": 2019, "EXTVoiceNo": 2008, "traveltime": 0, "holidayTraveltime": 0}, {"Id": "2009", "pgp": 0, "GoBack": 1, "SID": 981, "NameZh": "Feiji Rd.", "RouteId": 121, "SeqNo": 9, "Terminal": 0, "DistrictId": 1, "Latitude": 22.573219, "Longitude": 120.359206, "IVRNo": 2009, "EXTVoiceNo": 2009, "traveltime": 0, "holidayTraveltime": 0}, {"Id": "2010", "pgp": 0, "GoBack": 1, "SID": 987, "NameZh": "Ching Shan Primary School", "RouteId": 121, "SeqNo": 10, "Terminal": 0, "DistrictId": 1, "Latitude": 22.573164, "Longitude": 120.361958, "IVRNo": 2010, "EXTVoiceNo": 2010, "traveltime": 0, "holidayTraveltime": 0}, {"Id": "2011", "pgp": 0, "GoBack": 1, "SID": 988, "NameZh": "Taishan Village", "RouteId": 121, "SeqNo": 11, "Terminal": 0, "DistrictId": 1, "Latitude": 22.573072, "Longitude": 120.36418, "IVRNo": 2011, "EXTVoiceNo": 2011, "traveltime": 0, "holidayTraveltime": 0}, {"Id": "2081", "pgp": 0, "GoBack": 1, "SID": 1192, "NameZh": "Hongping Rd. Intersection", "RouteId": 121, "SeqNo": 12, "Terminal": 0, "DistrictId": 1, "Latitude": 22.572855, "Longitude": 120.366816, "IVRNo": 2050, "EXTVoiceNo": 2081, "traveltime": 0, "holidayTraveltime": 0}, {"Id": "2082", "pgp": 0, "GoBack": 1, "SID": 1193, "NameZh": "Gaosong Rd.", "RouteId": 121, "SeqNo": 13, "Terminal": 0, "DistrictId": 1, "Latitude": 22.572739, "Longitude": 120.369676, "IVRNo": 32355, "EXTVoiceNo": 2082, "traveltime": 0, "holidayTraveltime": 0}, {"Id": "2316", "pgp": 0, "GoBack": 1, "SID": 9670, "NameZh": "Taiping Elementary School", "RouteId": 121, "SeqNo": 14, "Terminal": 0, "DistrictId": 1, "Latitude": 22.572676, "Longitude": 120.371843, "IVRNo": 2087, "EXTVoiceNo": 2316, "traveltime": 0, "holidayTraveltime": 0}, {"Id": "2317", "pgp": 0, "GoBack": 1, "SID": 1465, "NameZh": "Gaosong Viaduct", "RouteId": 121, "SeqNo": 15, "Terminal": 0, "DistrictId": 1, "Latitude": 22.569396, "Longitude": 120.378375, "IVRNo": 2317, "EXTVoiceNo": 2317, "traveltime": 0, "holidayTraveltime": 0}, {"Id": "2318", "pgp": 0, "GoBack": 1, "SID": 1466, "NameZh": "Dapingding Area", "RouteId": 121, "SeqNo": 16, "Terminal": 0, "DistrictId": 1, "Latitude": 22.564294, "Longitude": 120.387033, "IVRNo": 2318, "EXTVoiceNo": 2318, "traveltime": 0, "holidayTraveltime": 0}, {"Id": "0080", "pgp": 0, "GoBack": 1, "SID": 1470, "NameZh": "Daping Village", "RouteId": 121, "SeqNo": 17, "Terminal": 0, "DistrictId": 1, "Latitude": 22.564542, "Longitude": 120.388672, "IVRNo": 2319, "EXTVoiceNo": 20080, "traveltime": 0, "holidayTraveltime": 0}, {"Id": "2320", "pgp": 0, "GoBack": 1, "SID": 1479, "NameZh": "Shennong Temple(To Siaogang)", "RouteId": 121, "SeqNo": 18, "Terminal": 0, "DistrictId": 1, "Latitude": 22.5642, "Longitude": 120.389997, "IVRNo": 2320, "EXTVoiceNo": 2320, "traveltime": 0, "holidayTraveltime": 0}, {"Id": "0331", "pgp": 0, "GoBack": 1, "SID": 1480, "NameZh": "Yonghe St.", "RouteId": 121, "SeqNo": 19, "Terminal": 0, "DistrictId": 1, "Latitude": 22.563016, "Longitude": 120.390721, "IVRNo": 2321, "EXTVoiceNo": 20331, "traveltime": 0, "holidayTraveltime": 0}, {"Id": "2322", "pgp": 0, "GoBack": 1, "SID": 1483, "NameZh": "Pingding Elementary School (Gaoping 17th St.)", "RouteId": 121, "SeqNo": 20, "Terminal": 0, "DistrictId": 1, "Latitude": 22.561138, "Longitude": 120.39144, "IVRNo": 2351, "EXTVoiceNo": 2322, "traveltime": 0, "holidayTraveltime": 0}, {"Id": "3225", "pgp": 0, "GoBack": 1, "SID": 1484, "NameZh": "Telecom Office (Siaogang)", "RouteId": 121, "SeqNo": 21, "Terminal": 0, "DistrictId": 1, "Latitude": 22.559593, "Longitude": 120.391252, "IVRNo": 3225, "EXTVoiceNo": 3225, "traveltime": 0, "holidayTraveltime": 0}, {"Id": "2345", "pgp": 0, "GoBack": 1, "SID": 1547, "NameZh": "Gaoping 22nd Rd. Intersection", "RouteId": 121, "SeqNo": 22, "Terminal": 0, "DistrictId": 1, "Latitude": 22.559256, "Longitude": 120.388613, "IVRNo": 2343, "EXTVoiceNo": 2345, "traveltime": 0, "holidayTraveltime": 0}, {"Id": "2346", "pgp": 0, "GoBack": 1, "SID": 1487, "NameZh": "Gaoping 23rd Rd. II", "RouteId": 121, "SeqNo": 23, "Terminal": 0, "DistrictId": 1, "Latitude": 22.561327, "Longitude": 120.388661, "IVRNo": 2346, "EXTVoiceNo": 2346, "traveltime": 0, "holidayTraveltime": 0}, {"Id": "2325", "pgp": 0, "GoBack": 1, "SID": 1488, "NameZh": "Jioulong Temple", "RouteId": 121, "SeqNo": 24, "Terminal": 0, "DistrictId": 1, "Latitude": 22.562585, "Longitude": 120.388677, "IVRNo": 2325, "EXTVoiceNo": 2325, "traveltime": 0, "holidayTraveltime": 0}, {"Id": "2318", "pgp": 0, "GoBack": 1, "SID": 1491, "NameZh": "Dapingding Area", "RouteId": 121, "SeqNo": 25, "Terminal": 0, "DistrictId": 1, "Latitude": 22.564351, "Longitude": 120.387281, "IVRNo": 2318, "EXTVoiceNo": 2318, "traveltime": 0, "holidayTraveltime": 0}, {"Id": "2317", "pgp": 0, "GoBack": 1, "SID": 1494, "NameZh": "Gaosong Viaduct", "RouteId": 121, "SeqNo": 26, "Terminal": 0, "DistrictId": 1, "Latitude": 22.569502, "Longitude": 120.37864, "IVRNo": 2317, "EXTVoiceNo": 2317, "traveltime": 0, "holidayTraveltime": 0}, {"Id": "2316", "pgp": 0, "GoBack": 1, "SID": 1200, "NameZh": "Taiping Elementary School", "RouteId": 121, "SeqNo": 27, "Terminal": 0, "DistrictId": 1, "Latitude": 22.572755, "Longitude": 120.372264, "IVRNo": 2087, "EXTVoiceNo": 2316, "traveltime": 0, "holidayTraveltime": 0}, {"Id": "2082", "pgp": 0, "GoBack": 1, "SID": 1201, "NameZh": "Gaosong Rd.", "RouteId": 121, "SeqNo": 28, "Terminal": 0, "DistrictId": 1, "Latitude": 22.57282, "Longitude": 120.369515, "IVRNo": 32355, "EXTVoiceNo": 2082, "traveltime": 0, "holidayTraveltime": 0}, {"Id": "2081", "pgp": 0, "GoBack": 1, "SID": 1206, "NameZh": "Hongping Rd. Intersection", "RouteId": 121, "SeqNo": 29, "Terminal": 0, "DistrictId": 1, "Latitude": 22.572872, "Longitude": 120.366528, "IVRNo": 2050, "EXTVoiceNo": 2081, "traveltime": 0, "holidayTraveltime": 0}, {"Id": "2012", "pgp": 0, "GoBack": 1, "SID": 989, "NameZh": "Feiji Rd. Intersection", "RouteId": 121, "SeqNo": 30, "Terminal": 0, "DistrictId": 1, "Latitude": 22.57246, "Longitude": 120.3651, "IVRNo": 2012, "EXTVoiceNo": 2012, "traveltime": 0, "holidayTraveltime": 0}, {"Id": "2013", "pgp": 0, "GoBack": 1, "SID": 993, "NameZh": "Hongwun Rd. Intersection", "RouteId": 121, "SeqNo": 31, "Terminal": 0, "DistrictId": 1, "Latitude": 22.57153, "Longitude": 120.36376, "IVRNo": 2013, "EXTVoiceNo": 2013, "traveltime": 0, "holidayTraveltime": 0}, {"Id": "2014", "pgp": 0, "GoBack": 1, "SID": 994, "NameZh": "Songbo St. Intersection", "RouteId": 121, "SeqNo": 32, "Terminal": 0, "DistrictId": 1, "Latitude": 22.57031, "Longitude": 120.36201, "IVRNo": 2014, "EXTVoiceNo": 2014, "traveltime": 0, "holidayTraveltime": 0}, {"Id": "2015", "pgp": 0, "GoBack": 1, "SID": 996, "NameZh": "Shanming Rd. Intersection (Hongping Rd.)", "RouteId": 121, "SeqNo": 33, "Terminal": 0, "DistrictId": 1, "Latitude": 22.5699, "Longitude": 120.36013, "IVRNo": 2015, "EXTVoiceNo": 2015, "traveltime": 0, "holidayTraveltime": 0}, {"Id": "2008", "pgp": 0, "GoBack": 1, "SID": 999, "NameZh": "Changbian 3rd Rd. Intersection (Hongping Rd.)", "RouteId": 121, "SeqNo": 34, "Terminal": 0, "DistrictId": 1, "Latitude": 22.56998, "Longitude": 120.35783, "IVRNo": 2008, "EXTVoiceNo": 2008, "traveltime": 0, "holidayTraveltime": 0}, {"Id": "2017", "pgp": 0, "GoBack": 1, "SID": 1000, "NameZh": "Jinfu Rd. Intersection", "RouteId": 121, "SeqNo": 35, "Terminal": 0, "DistrictId": 1, "Latitude": 22.56996, "Longitude": 120.35523, "IVRNo": 2017, "EXTVoiceNo": 2017, "traveltime": 0, "holidayTraveltime": 0}, {"Id": "2018", "pgp": 0, "GoBack": 1, "SID": 1003, "NameZh": "Hongping Rd.", "RouteId": 121, "SeqNo": 36, "Terminal": 0, "DistrictId": 1, "Latitude": 22.569847, "Longitude": 120.35133, "IVRNo": 2018, "EXTVoiceNo": 2018, "traveltime": 0, "holidayTraveltime": 0}, {"Id": "2038", "pgp": 0, "GoBack": 1, "SID": 1072, "NameZh": "Kaohsiung Park (MRT Kaohsiung International Airport Station)", "RouteId": 121, "SeqNo": 37, "Terminal": 0, "DistrictId": 1, "Latitude": 22.56876, "Longitude": 120.34345, "IVRNo": 2038, "EXTVoiceNo": 12038, "traveltime": 0, "holidayTraveltime": 0}, {"Id": "2765", "pgp": 0, "GoBack": 1, "SID": 2007, "NameZh": "The Open University", "RouteId": 121, "SeqNo": 38, "Terminal": 0, "DistrictId": 1, "Latitude": 22.567023, "Longitude": 120.344898, "IVRNo": 2073, "EXTVoiceNo": 2765, "traveltime": 0, "holidayTraveltime": 0}, {"Id": "2002", "pgp": 0, "GoBack": 1, "SID": 1088, "NameZh": "Siaogang Precinct", "RouteId": 121, "SeqNo": 39, "Terminal": 0, "DistrictId": 1, "Latitude": 22.565721, "Longitude": 120.344464, "IVRNo": 2002, "EXTVoiceNo": 2002, "traveltime": 0, "holidayTraveltime": 0}, {"Id": "2001", "pgp": 0, "GoBack": 1, "SID": 1082, "NameZh": "Siaogang Station", "RouteId": 121, "SeqNo": 40, "Terminal": 0, "DistrictId": 1, "Latitude": 22.5652, "Longitude": 120.339136, "IVRNo": 2000, "EXTVoiceNo": 2001, "traveltime": 0, "holidayTraveltime": 0}, {"Id": "2021", "pgp": 0, "GoBack": 1, "SID": 1016, "NameZh": "Siaogang Administration Center", "RouteId": 121, "SeqNo": 41, "Terminal": 0, "DistrictId": 1, "Latitude": 22.565111, "Longitude": 120.338204, "IVRNo": 2021, "EXTVoiceNo": 2021, "traveltime": 0, "holidayTraveltime": 0}, {"Id": "2022", "pgp": 0, "GoBack": 1, "SID": 1019, "NameZh": "Public Service Station", "RouteId": 121, "SeqNo": 42, "Terminal": 0, "DistrictId": 1, "Latitude": 22.564301, "Longitude": 120.33641, "IVRNo": 2022, "EXTVoiceNo": 2022, "traveltime": 0, "holidayTraveltime": 0}, {"Id": "2023", "pgp": 0, "GoBack": 1, "SID": 1022, "NameZh": "Siaogang Rd. Intersection", "RouteId": 121, "SeqNo": 43, "Terminal": 0, "DistrictId": 1, "Latitude": 22.563869, "Longitude": 120.334471, "IVRNo": 2023, "EXTVoiceNo": 2023, "traveltime": 0, "holidayTraveltime": 0}, {"Id": "2024", "pgp": 0, "GoBack": 1, "SID": 1027, "NameZh": "Siaogang Catholic Church", "RouteId": 121, "SeqNo": 44, "Terminal": 0, "DistrictId": 1, "Latitude": 22.565411, "Longitude": 120.333428, "IVRNo": 2024, "EXTVoiceNo": 2024, "traveltime": 0, "holidayTraveltime": 0}, {"Id": "2025", "pgp": 0, "GoBack": 1, "SID": 1029, "NameZh": "Ganghou Rd. Intersection", "RouteId": 121, "SeqNo": 45, "Terminal": 0, "DistrictId": 1, "Latitude": 22.567113, "Longitude": 120.332146, "IVRNo": 2025, "EXTVoiceNo": 2025, "traveltime": 0, "holidayTraveltime": 0}, {"Id": "2026", "pgp": 0, "GoBack": 1, "SID": 1034, "NameZh": "Pinghan Rd.", "RouteId": 121, "SeqNo": 46, "Terminal": 0, "DistrictId": 1, "Latitude": 22.568566, "Longitude": 120.33093, "IVRNo": 2026, "EXTVoiceNo": 2026, "traveltime": 0, "holidayTraveltime": 0}, {"Id": "2027", "pgp": 0, "GoBack": 1, "SID": 1038, "NameZh": "Jinfu Rd. Intersection (Caoya 3rd Rd.)", "RouteId": 121, "SeqNo": 47, "Terminal": 0, "DistrictId": 1, "Latitude": 22.5701, "Longitude": 120.329713, "IVRNo": 2027, "EXTVoiceNo": 2027, "traveltime": 0, "holidayTraveltime": 0}, {"Id": "6176", "pgp": 0, "GoBack": 1, "SID": 1043, "NameZh": "Fogong", "RouteId": 121, "SeqNo": 48, "Terminal": 0, "DistrictId": 1, "Latitude": 22.575308, "Longitude": 120.32535, "IVRNo": 2028, "EXTVoiceNo": 26176, "traveltime": 0, "holidayTraveltime": 0}, {"Id": "2031", "pgp": 0, "GoBack": 1, "SID": 1054, "NameZh": "Caoya", "RouteId": 121, "SeqNo": 49, "Terminal": 0, "DistrictId": 1, "Latitude": 22.577058, "Longitude": 120.323755, "IVRNo": 2031, "EXTVoiceNo": 2031, "traveltime": 0, "holidayTraveltime": 0}, {"Id": "2032", "pgp": 0, "GoBack": 1, "SID": 1057, "NameZh": "Caoya Market", "RouteId": 121, "SeqNo": 50, "Terminal": 0, "DistrictId": 1, "Latitude": 22.578575, "Longitude": 120.322445, "IVRNo": 2032, "EXTVoiceNo": 2032, "traveltime": 0, "holidayTraveltime": 0}, {"Id": "2033", "pgp": 0, "GoBack": 1, "SID": 1060, "NameZh": "North Caoya", "RouteId": 121, "SeqNo": 51, "Terminal": 0, "DistrictId": 1, "Latitude": 22.580596, "Longitude": 120.32292, "IVRNo": 2033, "EXTVoiceNo": 2033, "traveltime": 0, "holidayTraveltime": 0}, {"Id": "2034", "pgp": 0, "GoBack": 1, "SID": 1062, "NameZh": "Cianjhen Junior High School", "RouteId": 121, "SeqNo": 52, "Terminal": 0, "DistrictId": 1, "Latitude": 22.58362, "Longitude": 120.322271, "IVRNo": 2034, "EXTVoiceNo": 2034, "traveltime": 0, "holidayTraveltime": 0}, {"Id": "2035", "pgp": 0, "GoBack": 1, "SID": 1063, "NameZh": "Kangding Rd.", "RouteId": 121, "SeqNo": 53, "Terminal": 0, "DistrictId": 1, "Latitude": 22.584164, "Longitude": 120.320638, "IVRNo": 2035, "EXTVoiceNo": 2035, "traveltime": 0, "holidayTraveltime": 0}, {"Id": "2036", "pgp": 0, "GoBack": 1, "SID": 1067, "NameZh": "Jhenjhong Rd. Intersection", "RouteId": 121, "SeqNo": 54, "Terminal": 0, "DistrictId": 1, "Latitude": 22.585901, "Longitude": 120.319779, "IVRNo": 2036, "EXTVoiceNo": 2036, "traveltime": 0, "holidayTraveltime": 0}, {"Id": "2037", "pgp": 0, "GoBack": 1, "SID": 1069, "NameZh": "Cianjhen Senior High School Station", "RouteId": 121, "SeqNo": 55, "Terminal": 0, "DistrictId": 1, "Latitude": 22.587032, "Longitude": 120.320283, "IVRNo": 2037, "EXTVoiceNo": 2037, "traveltime": 0, "holidayTraveltime": 0}, {"Id": "2709", "pgp": 0, "GoBack": 1, "SID": 1971, "NameZh": "Labor Administration Center (MRT Cianjhen Senior High School Station)", "RouteId": 121, "SeqNo": 56, "Terminal": 0, "DistrictId": 1, "Latitude": 22.588721, "Longitude": 120.321585, "IVRNo": 2059, "EXTVoiceNo": 2709, "traveltime": 0, "holidayTraveltime": 0}, {"Id": "2710", "pgp": 0, "GoBack": 1, "SID": 1975, "NameZh": "Beijiang St. Intersection", "RouteId": 121, "SeqNo": 57, "Terminal": 0, "DistrictId": 1, "Latitude": 22.589756, "Longitude": 120.320541, "IVRNo": 2058, "EXTVoiceNo": 2710, "traveltime": 0, "holidayTraveltime": 0}, {"Id": "2711", "pgp": 0, "GoBack": 1, "SID": 1976, "NameZh": "Cueiheng N. Rd.", "RouteId": 121, "SeqNo": 58, "Terminal": 0, "DistrictId": 1, "Latitude": 22.591643, "Longitude": 120.318972, "IVRNo": 2057, "EXTVoiceNo": 2711, "traveltime": 0, "holidayTraveltime": 0}, {"Id": "1156", "pgp": 0, "GoBack": 1, "SID": 201, "NameZh": "MRT Kaisyuan Station", "RouteId": 121, "SeqNo": 59, "Terminal": 0, "DistrictId": 1, "Latitude": 22.596836, "Longitude": 120.315635, "IVRNo": 1112, "EXTVoiceNo": 1156, "traveltime": 0, "holidayTraveltime": 0}, {"Id": "2712", "pgp": 0, "GoBack": 1, "SID": 1981, "NameZh": "Guanghua Rd. Intersection (Jhongshan 3rd Rd.)", "RouteId": 121, "SeqNo": 60, "Terminal": 0, "DistrictId": 1, "Latitude": 22.602515, "Longitude": 120.311047, "IVRNo": 2712, "EXTVoiceNo": 2712, "traveltime": 0, "holidayTraveltime": 0}, {"Id": "2044", "pgp": 0, "GoBack": 1, "SID": 1090, "NameZh": "Labor Park (MRT Shihjia Station)", "RouteId": 121, "SeqNo": 61, "Terminal": 0, "DistrictId": 1, "Latitude": 22.605608, "Longitude": 120.308575, "IVRNo": 1153, "EXTVoiceNo": 2044, "traveltime": 0, "holidayTraveltime": 0}, {"Id": "2045", "pgp": 0, "GoBack": 1, "SID": 1096, "NameZh": "Jhongshan 2nd Rd.", "RouteId": 121, "SeqNo": 62, "Terminal": 0, "DistrictId": 1, "Latitude": 22.60993, "Longitude": 120.3059, "IVRNo": 2045, "EXTVoiceNo": 2045, "traveltime": 0, "holidayTraveltime": 0}, {"Id": "2046", "pgp": 0, "GoBack": 1, "SID": 1097, "NameZh": "MRT Sanduo Shopping District Station (Jhongshan 2nd Rd.)", "RouteId": 121, "SeqNo": 63, "Terminal": 0, "DistrictId": 1, "Latitude": 22.61332, "Longitude": 120.30501, "IVRNo": 2043, "EXTVoiceNo": 2046, "traveltime": 0, "holidayTraveltime": 0}, {"Id": "2047", "pgp": 0, "GoBack": 1, "SID": 1101, "NameZh": "Singjhong 2nd Rd. Intersection", "RouteId": 121, "SeqNo": 64, "Terminal": 0, "DistrictId": 1, "Latitude": 22.616413, "Longitude": 120.303603, "IVRNo": 2047, "EXTVoiceNo": 2047, "traveltime": 0, "holidayTraveltime": 0}, {"Id": "2150", "pgp": 0, "GoBack": 1, "SID": 1102, "NameZh": "Lingya Rd. Intersection (Jhongshan 2nd Rd.)", "RouteId": 121, "SeqNo": 65, "Terminal": 0, "DistrictId": 1, "Latitude": 22.619574, "Longitude": 120.302582, "IVRNo": 2048, "EXTVoiceNo": 2150, "traveltime": 0, "holidayTraveltime": 0}, {"Id": "7268", "pgp": 0, "GoBack": 1, "SID": 1103, "NameZh": "Sintian Rd. Intersection (Jhongshan 2nd Rd.)", "RouteId": 121, "SeqNo": 66, "Terminal": 0, "DistrictId": 1, "Latitude": 22.622667, "Longitude": 120.301328, "IVRNo": 1520, "EXTVoiceNo": 7268, "traveltime": 0, "holidayTraveltime": 0}, {"Id": "0119", "pgp": 0, "GoBack": 1, "SID": 282, "NameZh": "MRT Central Park Station", "RouteId": 121, "SeqNo": 67, "Terminal": 0, "DistrictId": 1, "Latitude": 22.62468, "Longitude": 120.30125, "IVRNo": 119, "EXTVoiceNo": 119, "traveltime": 0, "holidayTraveltime": 0}, {"Id": "0120", "pgp": 0, "GoBack": 1, "SID": 303, "NameZh": "MRT Formosa Boulevard Station", "RouteId": 121, "SeqNo": 68, "Terminal": 0, "DistrictId": 1, "Latitude": 22.63014, "Longitude": 120.30193, "IVRNo": 120, "EXTVoiceNo": 120, "traveltime": 0, "holidayTraveltime": 0}, {"Id": "0121", "pgp": 0, "GoBack": 1, "SID": 332, "NameZh": "Liouhe Tourist Night Market (Dagangpu)", "RouteId": 121, "SeqNo": 69, "Terminal": 0, "DistrictId": 1, "Latitude": 22.633844, "Longitude": 120.302261, "IVRNo": 125, "EXTVoiceNo": 121, "traveltime": 0, "holidayTraveltime": 0}, {"Id": "1445", "pgp": 0, "GoBack": 1, "SID": 668, "NameZh": "Jhongshan 1st Rd. Intersection", "RouteId": 121, "SeqNo": 70, "Terminal": 0, "DistrictId": 1, "Latitude": 22.634431, "Longitude": 120.303516, "IVRNo": 1445, "EXTVoiceNo": 1445, "traveltime": 0, "holidayTraveltime": 0}, {"Id": "0411", "pgp": 0, "GoBack": 1, "SID": 2889, "NameZh": "Linsen Rd. Intersection", "RouteId": 121, "SeqNo": 71, "Terminal": 0, "DistrictId": 1, "Latitude": 22.637617, "Longitude": 120.304593, "IVRNo": 92, "EXTVoiceNo": 411, "traveltime": 0, "holidayTraveltime": 0}, {"Id": "0412", "pgp": 0, "GoBack": 1, "SID": 4466, "NameZh": "Kaohsiung Train Station (MRT Kaohsiung Main Station)", "RouteId": 121, "SeqNo": 72, "Terminal": 1, "DistrictId": 1, "Latitude": 22.637626, "Longitude": 120.302277, "IVRNo": 412, "EXTVoiceNo": 412, "traveltime": 0, "holidayTraveltime": 0}, {"Id": "0412", "pgp": 0, "GoBack": 2, "SID": 4463, "NameZh": "Kaohsiung Train Station (MRT Kaohsiung Main Station)", "RouteId": 121, "SeqNo": 1, "Terminal": 0, "DistrictId": 1, "Latitude": 22.636963, "Longitude": 120.302214, "IVRNo": 412, "EXTVoiceNo": 412, "traveltime": 0, "holidayTraveltime": 0}, {"Id": "0121", "pgp": 0, "GoBack": 2, "SID": 393, "NameZh": "Liouhe Tourist Night Market (Dagangpu)", "RouteId": 121, "SeqNo": 2, "Terminal": 0, "DistrictId": 1, "Latitude": 22.633986, "Longitude": 120.30207, "IVRNo": 125, "EXTVoiceNo": 121, "traveltime": 0, "holidayTraveltime": 0}, {"Id": "0120", "pgp": 0, "GoBack": 2, "SID": 404, "NameZh": "MRT Formosa Boulevard Station", "RouteId": 121, "SeqNo": 3, "Terminal": 0, "DistrictId": 1, "Latitude": 22.6304, "Longitude": 120.30162, "IVRNo": 120, "EXTVoiceNo": 120, "traveltime": 0, "holidayTraveltime": 0}, {"Id": "0119", "pgp": 0, "GoBack": 2, "SID": 405, "NameZh": "MRT Central Park Station", "RouteId": 121, "SeqNo": 4, "Terminal": 0, "DistrictId": 1, "Latitude": 22.6247, "Longitude": 120.30103, "IVRNo": 119, "EXTVoiceNo": 119, "traveltime": 0, "holidayTraveltime": 0}, {"Id": "7268", "pgp": 0, "GoBack": 2, "SID": 1108, "NameZh": "Sintian Rd. Intersection (Jhongshan 2nd Rd.)", "RouteId": 121, "SeqNo": 5, "Terminal": 0, "DistrictId": 1, "Latitude": 22.6221, "Longitude": 120.30125, "IVRNo": 1520, "EXTVoiceNo": 7268, "traveltime": 0, "holidayTraveltime": 0}, {"Id": "2150", "pgp": 0, "GoBack": 2, "SID": 1109, "NameZh": "Lingya Rd. Intersection (Jhongshan 2nd Rd.)", "RouteId": 121, "SeqNo": 6, "Terminal": 0, "DistrictId": 1, "Latitude": 22.618726, "Longitude": 120.302458, "IVRNo": 2048, "EXTVoiceNo": 2150, "traveltime": 0, "holidayTraveltime": 0}, {"Id": "2047", "pgp": 0, "GoBack": 2, "SID": 1110, "NameZh": "Singjhong 2nd Rd. Intersection", "RouteId": 121, "SeqNo": 7, "Terminal": 0, "DistrictId": 1, "Latitude": 22.61588, "Longitude": 120.30366, "IVRNo": 2047, "EXTVoiceNo": 2047, "traveltime": 0, "holidayTraveltime": 0}, {"Id": "2046", "pgp": 0, "GoBack": 2, "SID": 1115, "NameZh": "MRT Sanduo Shopping District Station (Jhongshan 2nd Rd.)", "RouteId": 121, "SeqNo": 8, "Terminal": 0, "DistrictId": 1, "Latitude": 22.61296, "Longitude": 120.30476, "IVRNo": 2043, "EXTVoiceNo": 2046, "traveltime": 0, "holidayTraveltime": 0}, {"Id": "2045", "pgp": 0, "GoBack": 2, "SID": 1116, "NameZh": "Jhongshan 2nd Rd.", "RouteId": 121, "SeqNo": 9, "Terminal": 0, "DistrictId": 1, "Latitude": 22.60993, "Longitude": 120.3059, "IVRNo": 2045, "EXTVoiceNo": 2045, "traveltime": 0, "holidayTraveltime": 0}, {"Id": "2044", "pgp": 0, "GoBack": 2, "SID": 1120, "NameZh": "Labor Park (MRT Shihjia Station)", "RouteId": 121, "SeqNo": 10, "Terminal": 0, "DistrictId": 1, "Latitude": 22.60578, "Longitude": 120.307961, "IVRNo": 1153, "EXTVoiceNo": 2044, "traveltime": 0, "holidayTraveltime": 0}, {"Id": "2712", "pgp": 0, "GoBack": 2, "SID": 1991, "NameZh": "Guanghua Rd. Intersection (Jhongshan 3rd Rd.)", "RouteId": 121, "SeqNo": 11, "Terminal": 0, "DistrictId": 1, "Latitude": 22.602577, "Longitude": 120.31048, "IVRNo": 2712, "EXTVoiceNo": 2712, "traveltime": 0, "holidayTraveltime": 0}, {"Id": "1156", "pgp": 0, "GoBack": 2, "SID": 262, "NameZh": "MRT Kaisyuan Station", "RouteId": 121, "SeqNo": 12, "Terminal": 0, "DistrictId": 1, "Latitude": 22.59803, "Longitude": 120.31415, "IVRNo": 1112, "EXTVoiceNo": 1156, "traveltime": 0, "holidayTraveltime": 0}, {"Id": "3458", "pgp": 0, "GoBack": 2, "SID": 265, "NameZh": "Kaisyuan 4th Rd. Intersection", "RouteId": 121, "SeqNo": 13, "Terminal": 0, "DistrictId": 1, "Latitude": 22.595188, "Longitude": 120.316191, "IVRNo": 1192, "EXTVoiceNo": 3458, "traveltime": 0, "holidayTraveltime": 0}, {"Id": "2711", "pgp": 0, "GoBack": 2, "SID": 1121, "NameZh": "Cueiheng N. Rd.", "RouteId": 121, "SeqNo": 14, "Terminal": 0, "DistrictId": 1, "Latitude": 22.591791, "Longitude": 120.318681, "IVRNo": 2057, "EXTVoiceNo": 2711, "traveltime": 0, "holidayTraveltime": 0}, {"Id": "2710", "pgp": 0, "GoBack": 2, "SID": 1124, "NameZh": "Beijiang St. Intersection", "RouteId": 121, "SeqNo": 15, "Terminal": 0, "DistrictId": 1, "Latitude": 22.590708, "Longitude": 120.319575, "IVRNo": 2058, "EXTVoiceNo": 2710, "traveltime": 0, "holidayTraveltime": 0}, {"Id": "2709", "pgp": 0, "GoBack": 2, "SID": 1125, "NameZh": "Labor Administration Center (MRT Cianjhen Senior High School Station)", "RouteId": 121, "SeqNo": 16, "Terminal": 0, "DistrictId": 1, "Latitude": 22.588957, "Longitude": 120.321232, "IVRNo": 2059, "EXTVoiceNo": 2709, "traveltime": 0, "holidayTraveltime": 0}, {"Id": "2037", "pgp": 0, "GoBack": 2, "SID": 1394, "NameZh": "Cianjhen Senior High School Station", "RouteId": 121, "SeqNo": 17, "Terminal": 0, "DistrictId": 1, "Latitude": 22.587188, "Longitude": 120.320322, "IVRNo": 2037, "EXTVoiceNo": 2037, "traveltime": 0, "holidayTraveltime": 0}, {"Id": "2036", "pgp": 0, "GoBack": 2, "SID": 1360, "NameZh": "Jhenjhong Rd. Intersection", "RouteId": 121, "SeqNo": 18, "Terminal": 0, "DistrictId": 1, "Latitude": 22.585569, "Longitude": 120.319863, "IVRNo": 2036, "EXTVoiceNo": 2036, "traveltime": 0, "holidayTraveltime": 0}, {"Id": "2035", "pgp": 0, "GoBack": 2, "SID": 1362, "NameZh": "Kangding Rd.", "RouteId": 121, "SeqNo": 19, "Terminal": 0, "DistrictId": 1, "Latitude": 22.584217, "Longitude": 120.320519, "IVRNo": 2035, "EXTVoiceNo": 2035, "traveltime": 0, "holidayTraveltime": 0}, {"Id": "2034", "pgp": 0, "GoBack": 2, "SID": 1131, "NameZh": "Cianjhen Junior High School", "RouteId": 121, "SeqNo": 20, "Terminal": 0, "DistrictId": 1, "Latitude": 22.583412, "Longitude": 120.322191, "IVRNo": 2034, "EXTVoiceNo": 2034, "traveltime": 0, "holidayTraveltime": 0}, {"Id": "2033", "pgp": 0, "GoBack": 2, "SID": 1132, "NameZh": "North Caoya", "RouteId": 121, "SeqNo": 21, "Terminal": 0, "DistrictId": 1, "Latitude": 22.581083, "Longitude": 120.322916, "IVRNo": 2033, "EXTVoiceNo": 2033, "traveltime": 0, "holidayTraveltime": 0}, {"Id": "2032", "pgp": 0, "GoBack": 2, "SID": 1137, "NameZh": "Caoya Market", "RouteId": 121, "SeqNo": 22, "Terminal": 0, "DistrictId": 1, "Latitude": 22.578486, "Longitude": 120.322336, "IVRNo": 2032, "EXTVoiceNo": 2032, "traveltime": 0, "holidayTraveltime": 0}, {"Id": "2031", "pgp": 0, "GoBack": 2, "SID": 1138, "NameZh": "Caoya", "RouteId": 121, "SeqNo": 23, "Terminal": 0, "DistrictId": 1, "Latitude": 22.577066, "Longitude": 120.323666, "IVRNo": 2031, "EXTVoiceNo": 2031, "traveltime": 0, "holidayTraveltime": 0}, {"Id": "6176", "pgp": 0, "GoBack": 2, "SID": 1146, "NameZh": "Fogong", "RouteId": 121, "SeqNo": 24, "Terminal": 0, "DistrictId": 1, "Latitude": 22.575197, "Longitude": 120.325327, "IVRNo": 2028, "EXTVoiceNo": 26176, "traveltime": 0, "holidayTraveltime": 0}, {"Id": "2027", "pgp": 0, "GoBack": 2, "SID": 1147, "NameZh": "Jinfu Rd. Intersection (Caoya 3rd Rd.)", "RouteId": 121, "SeqNo": 25, "Terminal": 0, "DistrictId": 1, "Latitude": 22.570252, "Longitude": 120.329494, "IVRNo": 2027, "EXTVoiceNo": 2027, "traveltime": 0, "holidayTraveltime": 0}, {"Id": "2026", "pgp": 0, "GoBack": 2, "SID": 1152, "NameZh": "Pinghan Rd.", "RouteId": 121, "SeqNo": 26, "Terminal": 0, "DistrictId": 1, "Latitude": 22.568235, "Longitude": 120.331108, "IVRNo": 2026, "EXTVoiceNo": 2026, "traveltime": 0, "holidayTraveltime": 0}, {"Id": "2025", "pgp": 0, "GoBack": 2, "SID": 1153, "NameZh": "Ganghou Rd. Intersection", "RouteId": 121, "SeqNo": 27, "Terminal": 0, "DistrictId": 1, "Latitude": 22.567141, "Longitude": 120.331986, "IVRNo": 2025, "EXTVoiceNo": 2025, "traveltime": 0, "holidayTraveltime": 0}, {"Id": "2024", "pgp": 0, "GoBack": 2, "SID": 1158, "NameZh": "Siaogang Catholic Church", "RouteId": 121, "SeqNo": 28, "Terminal": 0, "DistrictId": 1, "Latitude": 22.565091, "Longitude": 120.333483, "IVRNo": 2024, "EXTVoiceNo": 2024, "traveltime": 0, "holidayTraveltime": 0}, {"Id": "2023", "pgp": 0, "GoBack": 2, "SID": 1162, "NameZh": "Siaogang Rd. Intersection", "RouteId": 121, "SeqNo": 29, "Terminal": 0, "DistrictId": 1, "Latitude": 22.563917, "Longitude": 120.334283, "IVRNo": 2023, "EXTVoiceNo": 2023, "traveltime": 0, "holidayTraveltime": 0}, {"Id": "2022", "pgp": 0, "GoBack": 2, "SID": 1164, "NameZh": "Public Service Station", "RouteId": 121, "SeqNo": 30, "Terminal": 0, "DistrictId": 1, "Latitude": 22.56426, "Longitude": 120.33635, "IVRNo": 2022, "EXTVoiceNo": 2022, "traveltime": 0, "holidayTraveltime": 0}, {"Id": "2021", "pgp": 0, "GoBack": 2, "SID": 1167, "NameZh": "Siaogang Administration Center", "RouteId": 121, "SeqNo": 31, "Terminal": 0, "DistrictId": 1, "Latitude": 22.56503, "Longitude": 120.33831, "IVRNo": 2021, "EXTVoiceNo": 2021, "traveltime": 0, "holidayTraveltime": 0}, {"Id": "2001", "pgp": 0, "GoBack": 2, "SID": 1084, "NameZh": "Siaogang Station", "RouteId": 121, "SeqNo": 32, "Terminal": 0, "DistrictId": 1, "Latitude": 22.565111, "Longitude": 120.34081, "IVRNo": 2000, "EXTVoiceNo": 2001, "traveltime": 0, "holidayTraveltime": 0}, {"Id": "2002", "pgp": 0, "GoBack": 2, "SID": 1087, "NameZh": "Siaogang Precinct", "RouteId": 121, "SeqNo": 33, "Terminal": 0, "DistrictId": 1, "Latitude": 22.565731, "Longitude": 120.344228, "IVRNo": 2002, "EXTVoiceNo": 2002, "traveltime": 0, "holidayTraveltime": 0}, {"Id": "2765", "pgp": 0, "GoBack": 2, "SID": 1169, "NameZh": "The Open University", "RouteId": 121, "SeqNo": 34, "Terminal": 0, "DistrictId": 1, "Latitude": 22.56668, "Longitude": 120.3453, "IVRNo": 2073, "EXTVoiceNo": 2765, "traveltime": 0, "holidayTraveltime": 0}, {"Id": "2038", "pgp": 0, "GoBack": 2, "SID": 1077, "NameZh": "Kaohsiung Park (MRT Kaohsiung International Airport Station)", "RouteId": 121, "SeqNo": 35, "Terminal": 0, "DistrictId": 1, "Latitude": 22.5688, "Longitude": 120.34375, "IVRNo": 2038, "EXTVoiceNo": 12038, "traveltime": 0, "holidayTraveltime": 0}, {"Id": "2018", "pgp": 0, "GoBack": 2, "SID": 1172, "NameZh": "Hongping Rd.", "RouteId": 121, "SeqNo": 36, "Terminal": 0, "DistrictId": 1, "Latitude": 22.56975, "Longitude": 120.3514, "IVRNo": 2018, "EXTVoiceNo": 2018, "traveltime": 0, "holidayTraveltime": 0}, {"Id": "2017", "pgp": 0, "GoBack": 2, "SID": 1173, "NameZh": "Jinfu Rd. Intersection", "RouteId": 121, "SeqNo": 37, "Terminal": 0, "DistrictId": 1, "Latitude": 22.56976, "Longitude": 120.35528, "IVRNo": 2017, "EXTVoiceNo": 2017, "traveltime": 0, "holidayTraveltime": 0}, {"Id": "2008", "pgp": 0, "GoBack": 2, "SID": 1176, "NameZh": "Changbian 3rd Rd. Intersection (Hongping Rd.)", "RouteId": 121, "SeqNo": 38, "Terminal": 0, "DistrictId": 1, "Latitude": 22.56976, "Longitude": 120.35763, "IVRNo": 2008, "EXTVoiceNo": 2008, "traveltime": 0, "holidayTraveltime": 0}, {"Id": "2015", "pgp": 0, "GoBack": 2, "SID": 1177, "NameZh": "Shanming Rd. Intersection (Hongping Rd.)", "RouteId": 121, "SeqNo": 39, "Terminal": 0, "DistrictId": 1, "Latitude": 22.5697, "Longitude": 120.35975, "IVRNo": 2015, "EXTVoiceNo": 2015, "traveltime": 0, "holidayTraveltime": 0}, {"Id": "2014", "pgp": 0, "GoBack": 2, "SID": 1179, "NameZh": "Songbo St. Intersection", "RouteId": 121, "SeqNo": 40, "Terminal": 0, "DistrictId": 1, "Latitude": 22.57033, "Longitude": 120.36238, "IVRNo": 2014, "EXTVoiceNo": 2014, "traveltime": 0, "holidayTraveltime": 0}, {"Id": "2013", "pgp": 0, "GoBack": 2, "SID": 1183, "NameZh": "Hongwun Rd. Intersection", "RouteId": 121, "SeqNo": 41, "Terminal": 0, "DistrictId": 1, "Latitude": 22.57138, "Longitude": 120.3639, "IVRNo": 2013, "EXTVoiceNo": 2013, "traveltime": 0, "holidayTraveltime": 0}, {"Id": "2012", "pgp": 0, "GoBack": 2, "SID": 1188, "NameZh": "Feiji Rd. Intersection", "RouteId": 121, "SeqNo": 42, "Terminal": 0, "DistrictId": 1, "Latitude": 22.57221, "Longitude": 120.3651, "IVRNo": 2012, "EXTVoiceNo": 2012, "traveltime": 0, "holidayTraveltime": 0}, {"Id": "2081", "pgp": 0, "GoBack": 2, "SID": 1107, "NameZh": "Hongping Rd. Intersection", "RouteId": 121, "SeqNo": 43, "Terminal": 0, "DistrictId": 1, "Latitude": 22.572877, "Longitude": 120.366456, "IVRNo": 2050, "EXTVoiceNo": 2081, "traveltime": 0, "holidayTraveltime": 0}, {"Id": "2082", "pgp": 0, "GoBack": 2, "SID": 2080, "NameZh": "Gaosong Rd.", "RouteId": 121, "SeqNo": 44, "Terminal": 0, "DistrictId": 1, "Latitude": 22.572739, "Longitude": 120.369676, "IVRNo": 32355, "EXTVoiceNo": 2082, "traveltime": 0, "holidayTraveltime": 0}, {"Id": "2316", "pgp": 0, "GoBack": 2, "SID": 9670, "NameZh": "Taiping Elementary School", "RouteId": 121, "SeqNo": 45, "Terminal": 0, "DistrictId": 1, "Latitude": 22.572676, "Longitude": 120.371843, "IVRNo": 2087, "EXTVoiceNo": 2316, "traveltime": 0, "holidayTraveltime": 0}, {"Id": "2317", "pgp": 0, "GoBack": 2, "SID": 2084, "NameZh": "Gaosong Viaduct", "RouteId": 121, "SeqNo": 46, "Terminal": 0, "DistrictId": 1, "Latitude": 22.56958, "Longitude": 120.37851, "IVRNo": 2317, "EXTVoiceNo": 2317, "traveltime": 0, "holidayTraveltime": 0}, {"Id": "2318", "pgp": 0, "GoBack": 2, "SID": 2087, "NameZh": "Dapingding Area", "RouteId": 121, "SeqNo": 47, "Terminal": 0, "DistrictId": 1, "Latitude": 22.5643, "Longitude": 120.38766, "IVRNo": 2318, "EXTVoiceNo": 2318, "traveltime": 0, "holidayTraveltime": 0}, {"Id": "0080", "pgp": 0, "GoBack": 2, "SID": 2088, "NameZh": "Daping Village", "RouteId": 121, "SeqNo": 48, "Terminal": 0, "DistrictId": 1, "Latitude": 22.56468, "Longitude": 120.38853, "IVRNo": 2319, "EXTVoiceNo": 20080, "traveltime": 0, "holidayTraveltime": 0}, {"Id": "2320", "pgp": 0, "GoBack": 2, "SID": 2089, "NameZh": "Shen Nong Temple(To Siao Gang)", "RouteId": 121, "SeqNo": 49, "Terminal": 0, "DistrictId": 1, "Latitude": 22.56461, "Longitude": 120.38915, "IVRNo": 2320, "EXTVoiceNo": 2320, "traveltime": 0, "holidayTraveltime": 0}, {"Id": "0331", "pgp": 0, "GoBack": 2, "SID": 2090, "NameZh": "Yonghe St.", "RouteId": 121, "SeqNo": 50, "Terminal": 0, "DistrictId": 1, "Latitude": 22.563952, "Longitude": 120.3903, "IVRNo": 2321, "EXTVoiceNo": 20331, "traveltime": 0, "holidayTraveltime": 0}, {"Id": "2322", "pgp": 0, "GoBack": 2, "SID": 2091, "NameZh": "Pingding Elementary School (Gaoping 17th St.)", "RouteId": 121, "SeqNo": 51, "Terminal": 0, "DistrictId": 1, "Latitude": 22.56128, "Longitude": 120.39135, "IVRNo": 2351, "EXTVoiceNo": 2322, "traveltime": 0, "holidayTraveltime": 0}, {"Id": "3225", "pgp": 0, "GoBack": 2, "SID": 2092, "NameZh": "Telecom Office (Siaogang)", "RouteId": 121, "SeqNo": 52, "Terminal": 0, "DistrictId": 1, "Latitude": 22.5596, "Longitude": 120.39115, "IVRNo": 3225, "EXTVoiceNo": 3225, "traveltime": 0, "holidayTraveltime": 0}, {"Id": "2345", "pgp": 0, "GoBack": 2, "SID": 2099, "NameZh": "Gaoping 22nd Rd. Intersection", "RouteId": 121, "SeqNo": 53, "Terminal": 0, "DistrictId": 1, "Latitude": 22.55937, "Longitude": 120.38858, "IVRNo": 2343, "EXTVoiceNo": 2345, "traveltime": 0, "holidayTraveltime": 0}, {"Id": "2346", "pgp": 0, "GoBack": 2, "SID": 2093, "NameZh": "Gaoping 23rd Rd. II", "RouteId": 121, "SeqNo": 54, "Terminal": 0, "DistrictId": 1, "Latitude": 22.561403, "Longitude": 120.388658, "IVRNo": 2346, "EXTVoiceNo": 2346, "traveltime": 0, "holidayTraveltime": 0}, {"Id": "2325", "pgp": 0, "GoBack": 2, "SID": 2094, "NameZh": "Jioulong Temple", "RouteId": 121, "SeqNo": 55, "Terminal": 0, "DistrictId": 1, "Latitude": 22.56265, "Longitude": 120.3886, "IVRNo": 2325, "EXTVoiceNo": 2325, "traveltime": 0, "holidayTraveltime": 0}, {"Id": "2318", "pgp": 0, "GoBack": 2, "SID": 2095, "NameZh": "Dapingding Area", "RouteId": 121, "SeqNo": 56, "Terminal": 0, "DistrictId": 1, "Latitude": 22.5643, "Longitude": 120.38766, "IVRNo": 2318, "EXTVoiceNo": 2318, "traveltime": 0, "holidayTraveltime": 0}, {"Id": "2317", "pgp": 0, "GoBack": 2, "SID": 2096, "NameZh": "Gaosong Viaduct", "RouteId": 121, "SeqNo": 57, "Terminal": 0, "DistrictId": 1, "Latitude": 22.56958, "Longitude": 120.37851, "IVRNo": 2317, "EXTVoiceNo": 2317, "traveltime": 0, "holidayTraveltime": 0}, {"Id": "2316", "pgp": 0, "GoBack": 2, "SID": 2081, "NameZh": "Taiping Elementary School", "RouteId": 121, "SeqNo": 58, "Terminal": 0, "DistrictId": 1, "Latitude": 22.572755, "Longitude": 120.372264, "IVRNo": 2087, "EXTVoiceNo": 2316, "traveltime": 0, "holidayTraveltime": 0}, {"Id": "2082", "pgp": 0, "GoBack": 2, "SID": 2082, "NameZh": "Gaosong Rd.", "RouteId": 121, "SeqNo": 59, "Terminal": 0, "DistrictId": 1, "Latitude": 22.572829, "Longitude": 120.369515, "IVRNo": 32355, "EXTVoiceNo": 2082, "traveltime": 0, "holidayTraveltime": 0}, {"Id": "2081", "pgp": 0, "GoBack": 2, "SID": 2083, "NameZh": "Hongping Rd. Intersection", "RouteId": 121, "SeqNo": 60, "Terminal": 0, "DistrictId": 1, "Latitude": 22.572855, "Longitude": 120.366816, "IVRNo": 2050, "EXTVoiceNo": 2081, "traveltime": 0, "holidayTraveltime": 0}, {"Id": "2011", "pgp": 0, "GoBack": 2, "SID": 1209, "NameZh": "Taishan Village", "RouteId": 121, "SeqNo": 61, "Terminal": 0, "DistrictId": 1, "Latitude": 22.57316, "Longitude": 120.36438, "IVRNo": 2011, "EXTVoiceNo": 2011, "traveltime": 0, "holidayTraveltime": 0}, {"Id": "2010", "pgp": 0, "GoBack": 2, "SID": 1210, "NameZh": "Ching Shan Primary School", "RouteId": 121, "SeqNo": 62, "Terminal": 0, "DistrictId": 1, "Latitude": 22.57325, "Longitude": 120.36195, "IVRNo": 2010, "EXTVoiceNo": 2010, "traveltime": 0, "holidayTraveltime": 0}, {"Id": "2009", "pgp": 0, "GoBack": 2, "SID": 1211, "NameZh": "Feiji Rd.", "RouteId": 121, "SeqNo": 63, "Terminal": 0, "DistrictId": 1, "Latitude": 22.57333, "Longitude": 120.35886, "IVRNo": 2009, "EXTVoiceNo": 2009, "traveltime": 0, "holidayTraveltime": 0}, {"Id": "2008", "pgp": 0, "GoBack": 2, "SID": 1212, "NameZh": "Changbian 3rd Rd. Intersection (Feiji Rd.)", "RouteId": 121, "SeqNo": 64, "Terminal": 0, "DistrictId": 1, "Latitude": 22.57333, "Longitude": 120.35706, "IVRNo": 2019, "EXTVoiceNo": 2008, "traveltime": 0, "holidayTraveltime": 0}, {"Id": "2007", "pgp": 0, "GoBack": 2, "SID": 1213, "NameZh": "Cingdao Village", "RouteId": 121, "SeqNo": 65, "Terminal": 0, "DistrictId": 1, "Latitude": 22.57335, "Longitude": 120.35396, "IVRNo": 2007, "EXTVoiceNo": 2007, "traveltime": 0, "holidayTraveltime": 0}, {"Id": "2006", "pgp": 0, "GoBack": 2, "SID": 1214, "NameZh": "Shandong Village", "RouteId": 121, "SeqNo": 66, "Terminal": 0, "DistrictId": 1, "Latitude": 22.57346, "Longitude": 120.35106, "IVRNo": 2006, "EXTVoiceNo": 2006, "traveltime": 0, "holidayTraveltime": 0}, {"Id": "2005", "pgp": 0, "GoBack": 2, "SID": 1215, "NameZh": "Aviation Police Bureau", "RouteId": 121, "SeqNo": 67, "Terminal": 0, "DistrictId": 1, "Latitude": 22.57131, "Longitude": 120.34836, "IVRNo": 2005, "EXTVoiceNo": 2005, "traveltime": 0, "holidayTraveltime": 0}, {"Id": "2004", "pgp": 0, "GoBack": 2, "SID": 1216, "NameZh": "Minyi Rd.", "RouteId": 121, "SeqNo": 68, "Terminal": 0, "DistrictId": 1, "Latitude": 22.5673, "Longitude": 120.34793, "IVRNo": 2004, "EXTVoiceNo": 2004, "traveltime": 0, "holidayTraveltime": 0}, {"Id": "2003", "pgp": 0, "GoBack": 2, "SID": 1217, "NameZh": "Erling Rd.", "RouteId": 121, "SeqNo": 69, "Terminal": 0, "DistrictId": 1, "Latitude": 22.56546, "Longitude": 120.34731, "IVRNo": 2098, "EXTVoiceNo": 2003, "traveltime": 0, "holidayTraveltime": 0}, {"Id": "2002", "pgp": 0, "GoBack": 2, "SID": 1012, "NameZh": "Siaogang Precinct", "RouteId": 121, "SeqNo": 70, "Terminal": 0, "DistrictId": 1, "Latitude": 22.5657, "Longitude": 120.34428, "IVRNo": 2002, "EXTVoiceNo": 2002, "traveltime": 0, "holidayTraveltime": 0}, {"Id": "2001", "pgp": 0, "GoBack": 2, "SID": 956, "NameZh": "Siaogang Station", "RouteId": 121, "SeqNo": 71, "Terminal": 1, "DistrictId": 1, "Latitude": 22.565225, "Longitude": 120.340848, "IVRNo": 2000, "EXTVoiceNo": 2001, "traveltime": 0, "holidayTraveltime": 0}], "zh": [{"Id": "2001", "pgp": 0, "GoBack": 1, "SID": 961, "NameZh": "\u5c0f\u6e2f\u7ad9", "RouteId": 121, "SeqNo": 1, "Terminal": 0, "DistrictId": 1, "Latitude": 22.565339, "Longitude": 120.341004, "IVRNo": 2000, "EXTVoiceNo": 2001, "traveltime": 0, "holidayTraveltime": 0}, {"Id": "2002", "pgp": 0, "GoBack": 1, "SID": 971, "NameZh": "\u5c0f\u6e2f\u5206\u5c40", "RouteId": 121, "SeqNo": 2, "Terminal": 0, "DistrictId": 1, "Latitude": 22.565711, "Longitude": 120.34411, "IVRNo": 2002, "EXTVoiceNo": 2002, "traveltime": 0, "holidayTraveltime": 0}, {"Id": "2003", "pgp": 0, "GoBack": 1, "SID": 975, "NameZh": "\u4e8c\u82d3\u8def", "RouteId": 121, "SeqNo": 3, "Terminal": 0, "DistrictId": 1, "Latitude": 22.565503, "Longitude": 120.347028, "IVRNo": 2098, "EXTVoiceNo": 2003, "traveltime": 0, "holidayTraveltime": 0}, {"Id": "2004", "pgp": 0, "GoBack": 1, "SID": 976, "NameZh": "\u6c11\u76ca\u8def", "RouteId": 121, "SeqNo": 4, "Terminal": 0, "DistrictId": 1, "Latitude": 22.567222, "Longitude": 120.347919, "IVRNo": 2004, "EXTVoiceNo": 2004, "traveltime": 0, "holidayTraveltime": 0}, {"Id": "2005", "pgp": 0, "GoBack": 1, "SID": 977, "NameZh": "\u822a\u8b66\u5c40", "RouteId": 121, "SeqNo": 5, "Terminal": 0, "DistrictId": 1, "Latitude": 22.571211, "Longitude": 120.348625, "IVRNo": 2005, "EXTVoiceNo": 2005, "traveltime": 0, "holidayTraveltime": 0}, {"Id": "2006", "pgp": 0, "GoBack": 1, "SID": 978, "NameZh": "\u5c71\u6771\u91cc", "RouteId": 121, "SeqNo": 6, "Terminal": 0, "DistrictId": 1, "Latitude": 22.573261, "Longitude": 120.350877, "IVRNo": 2006, "EXTVoiceNo": 2006, "traveltime": 0, "holidayTraveltime": 0}, {"Id": "2007", "pgp": 0, "GoBack": 1, "SID": 979, "NameZh": "\u9752\u5cf6\u91cc", "RouteId": 121, "SeqNo": 7, "Terminal": 0, "DistrictId": 1, "Latitude": 22.573306, "Longitude": 120.35405, "IVRNo": 2007, "EXTVoiceNo": 2007, "traveltime": 0, "holidayTraveltime": 0}, {"Id": "2008", "pgp": 0, "GoBack": 1, "SID": 980, "NameZh": "\u5ee0\u908a\u4e09\u8def\u53e3(\u98db\u6a5f\u8def)", "RouteId": 121, "SeqNo": 8, "Terminal": 0, "DistrictId": 1, "Latitude": 22.57325, "Longitude": 120.35693, "IVRNo": 2019, "EXTVoiceNo": 2008, "traveltime": 0, "holidayTraveltime": 0}, {"Id": "2009", "pgp": 0, "GoBack": 1, "SID": 981, "NameZh": "\u98db\u6a5f\u8def", "RouteId": 121, "SeqNo": 9, "Terminal": 0, "DistrictId": 1, "Latitude": 22.573219, "Longitude": 120.359206, "IVRNo": 2009, "EXTVoiceNo": 2009, "traveltime": 0, "holidayTraveltime": 0}, {"Id": "2010", "pgp": 0, "GoBack": 1, "SID": 987, "NameZh": "\u9752\u5c71\u570b\u5c0f", "RouteId": 121, "SeqNo": 10, "Terminal": 0, "DistrictId": 1, "Latitude": 22.573164, "Longitude": 120.361958, "IVRNo": 2010, "EXTVoiceNo": 2010, "traveltime": 0, "holidayTraveltime": 0}, {"Id": "2011", "pgp": 0, "GoBack": 1, "SID": 988, "NameZh": "\u6cf0\u5c71\u91cc", "RouteId": 121, "SeqNo": 11, "Terminal": 0, "DistrictId": 1, "Latitude": 22.573072, "Longitude": 120.36418, "IVRNo": 2011, "EXTVoiceNo": 2011, "traveltime": 0, "holidayTraveltime": 0}, {"Id": "2081", "pgp": 0, "GoBack": 1, "SID": 1192, "NameZh": "\u5b8f\u5e73\u8def\u53e3", "RouteId": 121, "SeqNo": 12, "Terminal": 0, "DistrictId": 1, "Latitude": 22.572855, "Longitude": 120.366816, "IVRNo": 2050, "EXTVoiceNo": 2081, "traveltime": 0, "holidayTraveltime": 0}, {"Id": "2082", "pgp": 0, "GoBack": 1, "SID": 1193, "NameZh": "\u9ad8\u677e\u8def", "RouteId": 121, "SeqNo": 13, "Terminal": 0, "DistrictId": 1, "Latitude": 22.572739, "Longitude": 120.369676, "IVRNo": 32355, "EXTVoiceNo": 2082, "traveltime": 0, "holidayTraveltime": 0}, {"Id": "2316", "pgp": 0, "GoBack": 1, "SID": 9670, "NameZh": "\u592a\u5e73\u570b\u5c0f", "RouteId": 121, "SeqNo": 14, "Terminal": 0, "DistrictId": 1, "Latitude": 22.572676, "Longitude": 120.371843, "IVRNo": 2087, "EXTVoiceNo": 2316, "traveltime": 0, "holidayTraveltime": 0}, {"Id": "2317", "pgp": 0, "GoBack": 1, "SID": 1465, "NameZh": "\u9ad8\u677e\u9678\u6a4b(\u5f80\u706b\u8eca\u7ad9)", "RouteId": 121, "SeqNo": 15, "Terminal": 0, "DistrictId": 1, "Latitude": 22.569396, "Longitude": 120.378375, "IVRNo": 2317, "EXTVoiceNo": 2317, "traveltime": 0, "holidayTraveltime": 0}, {"Id": "2318", "pgp": 0, "GoBack": 1, "SID": 1466, "NameZh": "\u5927\u576a\u9802(\u5f80\u706b\u8eca\u7ad9)", "RouteId": 121, "SeqNo": 16, "Terminal": 0, "DistrictId": 1, "Latitude": 22.564294, "Longitude": 120.387033, "IVRNo": 2318, "EXTVoiceNo": 2318, "traveltime": 0, "holidayTraveltime": 0}, {"Id": "0080", "pgp": 0, "GoBack": 1, "SID": 1470, "NameZh": "\u5927\u576a\u91cc(\u5f80\u706b\u8eca\u7ad9)", "RouteId": 121, "SeqNo": 17, "Terminal": 0, "DistrictId": 1, "Latitude": 22.564542, "Longitude": 120.388672, "IVRNo": 2319, "EXTVoiceNo": 20080, "traveltime": 0, "holidayTraveltime": 0}, {"Id": "2320", "pgp": 0, "GoBack": 1, "SID": 1479, "NameZh": "\u795e\u8fb2\u6bbf(\u5f80\u5c0f\u6e2f)", "RouteId": 121, "SeqNo": 18, "Terminal": 0, "DistrictId": 1, "Latitude": 22.5642, "Longitude": 120.389997, "IVRNo": 2320, "EXTVoiceNo": 2320, "traveltime": 0, "holidayTraveltime": 0}, {"Id": "0331", "pgp": 0, "GoBack": 1, "SID": 1480, "NameZh": "\u6c38\u548c\u8857(\u5f80\u706b\u8eca\u7ad9)", "RouteId": 121, "SeqNo": 19, "Terminal": 0, "DistrictId": 1, "Latitude": 22.563016, "Longitude": 120.390721, "IVRNo": 2321, "EXTVoiceNo": 20331, "traveltime": 0, "holidayTraveltime": 0}, {"Id": "2322", "pgp": 0, "GoBack": 1, "SID": 1483, "NameZh": "\u576a\u9802\u570b\u5c0f(\u9ad8\u576a17\u8857)", "RouteId": 121, "SeqNo": 20, "Terminal": 0, "DistrictId": 1, "Latitude": 22.561138, "Longitude": 120.39144, "IVRNo": 2351, "EXTVoiceNo": 2322, "traveltime": 0, "holidayTraveltime": 0}, {"Id": "3225", "pgp": 0, "GoBack": 1, "SID": 1484, "NameZh": "\u96fb\u4fe1\u5c40(\u5f80\u706b\u8eca\u7ad9)", "RouteId": 121, "SeqNo": 21, "Terminal": 0, "DistrictId": 1, "Latitude": 22.559593, "Longitude": 120.391252, "IVRNo": 3225, "EXTVoiceNo": 3225, "traveltime": 0, "holidayTraveltime": 0}, {"Id": "2345", "pgp": 0, "GoBack": 1, "SID": 1547, "NameZh": "\u9ad8\u576a22\u8def\u53e3(\u5f80\u706b\u8eca\u7ad9)", "RouteId": 121, "SeqNo": 22, "Terminal": 0, "DistrictId": 1, "Latitude": 22.559256, "Longitude": 120.388613, "IVRNo": 2343, "EXTVoiceNo": 2345, "traveltime": 0, "holidayTraveltime": 0}, {"Id": "2346", "pgp": 0, "GoBack": 1, "SID": 1487, "NameZh": "\u9ad8\u576a23\u8def\u4e8c", "RouteId": 121, "SeqNo": 23, "Terminal": 0, "DistrictId": 1, "Latitude": 22.561327, "Longitude": 120.388661, "IVRNo": 2346, "EXTVoiceNo": 2346, "traveltime": 0, "holidayTraveltime": 0}, {"Id": "2325", "pgp": 0, "GoBack": 1, "SID": 1488, "NameZh": "\u4e5d\u9f8d\u5bfa(\u5f80\u706b\u8eca\u7ad9)", "RouteId": 121, "SeqNo": 24, "Terminal": 0, "DistrictId": 1, "Latitude": 22.562585, "Longitude": 120.388677, "IVRNo": 2325, "EXTVoiceNo": 2325, "traveltime": 0, "holidayTraveltime": 0}, {"Id": "2318", "pgp": 0, "GoBack": 1, "SID": 1491, "NameZh": "\u5927\u576a\u9802(\u5f80\u706b\u8eca\u7ad9)", "RouteId": 121, "SeqNo": 25, "Terminal": 0, "DistrictId": 1, "Latitude": 22.564351, "Longitude": 120.387281, "IVRNo": 2318, "EXTVoiceNo": 2318, "traveltime": 0, "holidayTraveltime": 0}, {"Id": "2317", "pgp": 0, "GoBack": 1, "SID": 1494, "NameZh": "\u9ad8\u677e\u9678\u6a4b(\u5f80\u706b\u8eca\u7ad9)", "RouteId": 121, "SeqNo": 26, "Terminal": 0, "DistrictId": 1, "Latitude": 22.569502, "Longitude": 120.37864, "IVRNo": 2317, "EXTVoiceNo": 2317, "traveltime": 0, "holidayTraveltime": 0}, {"Id": "2316", "pgp": 0, "GoBack": 1, "SID": 1200, "NameZh": "\u592a\u5e73\u570b\u5c0f(\u5f80\u706b\u8eca\u7ad9)", "RouteId": 121, "SeqNo": 27, "Terminal": 0, "DistrictId": 1, "Latitude": 22.572755, "Longitude": 120.372264, "IVRNo": 2087, "EXTVoiceNo": 2316, "traveltime": 0, "holidayTraveltime": 0}, {"Id": "2082", "pgp": 0, "GoBack": 1, "SID": 1201, "NameZh": "\u9ad8\u677e\u8def(\u5f80\u706b\u8eca\u7ad9)", "RouteId": 121, "SeqNo": 28, "Terminal": 0, "DistrictId": 1, "Latitude": 22.57282, "Longitude": 120.369515, "IVRNo": 32355, "EXTVoiceNo": 2082, "traveltime": 0, "holidayTraveltime": 0}, {"Id": "2081", "pgp": 0, "GoBack": 1, "SID": 1206, "NameZh": "\u5b8f\u5e73\u8def\u53e3(\u5f80\u706b\u8eca\u7ad9)", "RouteId": 121, "SeqNo": 29, "Terminal": 0, "DistrictId": 1, "Latitude": 22.572872, "Longitude": 120.366528, "IVRNo": 2050, "EXTVoiceNo": 2081, "traveltime": 0, "holidayTraveltime": 0}, {"Id": "2012", "pgp": 0, "GoBack": 1, "SID": 989, "NameZh": "\u98db\u6a5f\u8def\u53e3", "RouteId": 121, "SeqNo": 30, "Terminal": 0, "DistrictId": 1, "Latitude": 22.57246, "Longitude": 120.3651, "IVRNo": 2012, "EXTVoiceNo": 2012, "traveltime": 0, "holidayTraveltime": 0}, {"Id": "2013", "pgp": 0, "GoBack": 1, "SID": 993, "NameZh": "\u5b8f\u6587\u8def\u53e3", "RouteId": 121, "SeqNo": 31, "Terminal": 0, "DistrictId": 1, "Latitude": 22.57153, "Longitude": 120.36376, "IVRNo": 2013, "EXTVoiceNo": 2013, "traveltime": 0, "holidayTraveltime": 0}, {"Id": "2014", "pgp": 0, "GoBack": 1, "SID": 994, "NameZh": "\u677e\u67cf\u8857\u53e3", "RouteId": 121, "SeqNo": 32, "Terminal": 0, "DistrictId": 1, "Latitude": 22.57031, "Longitude": 120.36201, "IVRNo": 2014, "EXTVoiceNo": 2014, "traveltime": 0, "holidayTraveltime": 0}, {"Id": "2015", "pgp": 0, "GoBack": 1, "SID": 996, "NameZh": "\u5c71\u660e\u8def\u53e3(\u5b8f\u5e73\u8def)", "RouteId": 121, "SeqNo": 33, "Terminal": 0, "DistrictId": 1, "Latitude": 22.5699, "Longitude": 120.36013, "IVRNo": 2015, "EXTVoiceNo": 2015, "traveltime": 0, "holidayTraveltime": 0}, {"Id": "2008", "pgp": 0, "GoBack": 1, "SID": 999, "NameZh": "\u5ee0\u908a\u4e09\u8def\u53e3(\u5b8f\u5e73\u8def)", "RouteId": 121, "SeqNo": 34, "Terminal": 0, "DistrictId": 1, "Latitude": 22.56998, "Longitude": 120.35783, "IVRNo": 2008, "EXTVoiceNo": 2008, "traveltime": 0, "holidayTraveltime": 0}, {"Id": "2017", "pgp": 0, "GoBack": 1, "SID": 1000, "NameZh": "\u91d1\u5e9c\u8def\u53e3", "RouteId": 121, "SeqNo": 35, "Terminal": 0, "DistrictId": 1, "Latitude": 22.56996, "Longitude": 120.35523, "IVRNo": 2017, "EXTVoiceNo": 2017, "traveltime": 0, "holidayTraveltime": 0}, {"Id": "2018", "pgp": 0, "GoBack": 1, "SID": 1003, "NameZh": "\u5b8f\u5e73\u8def", "RouteId": 121, "SeqNo": 36, "Terminal": 0, "DistrictId": 1, "Latitude": 22.569847, "Longitude": 120.35133, "IVRNo": 2018, "EXTVoiceNo": 2018, "traveltime": 0, "holidayTraveltime": 0}, {"Id": "2038", "pgp": 0, "GoBack": 1, "SID": 1072, "NameZh": "\u9ad8\u96c4\u516c\u5712(\u6377\u904b\u9ad8\u96c4\u570b\u969b\u6a5f\u5834\u7ad9)", "RouteId": 121, "SeqNo": 37, "Terminal": 0, "DistrictId": 1, "Latitude": 22.56876, "Longitude": 120.34345, "IVRNo": 2038, "EXTVoiceNo": 12038, "traveltime": 0, "holidayTraveltime": 0}, {"Id": "2765", "pgp": 0, "GoBack": 1, "SID": 2007, "NameZh": "\u5e02\u7acb\u7a7a\u5927", "RouteId": 121, "SeqNo": 38, "Terminal": 0, "DistrictId": 1, "Latitude": 22.567023, "Longitude": 120.344898, "IVRNo": 2073, "EXTVoiceNo": 2765, "traveltime": 0, "holidayTraveltime": 0}, {"Id": "2002", "pgp": 0, "GoBack": 1, "SID": 1088, "NameZh": "\u5c0f\u6e2f\u5206\u5c40(\u5f80\u706b\u8eca\u7ad9)", "RouteId": 121, "SeqNo": 39, "Terminal": 0, "DistrictId": 1, "Latitude": 22.565721, "Longitude": 120.344464, "IVRNo": 2002, "EXTVoiceNo": 2002, "traveltime": 0, "holidayTraveltime": 0}, {"Id": "2001", "pgp": 0, "GoBack": 1, "SID": 1082, "NameZh": "\u5c0f\u6e2f\u7ad9", "RouteId": 121, "SeqNo": 40, "Terminal": 0, "DistrictId": 1, "Latitude": 22.5652, "Longitude": 120.339136, "IVRNo": 2000, "EXTVoiceNo": 2001, "traveltime": 0, "holidayTraveltime": 0}, {"Id": "2021", "pgp": 0, "GoBack": 1, "SID": 1016, "NameZh": "\u5c0f\u6e2f\u884c\u653f\u4e2d\u5fc3", "RouteId": 121, "SeqNo": 41, "Terminal": 0, "DistrictId": 1, "Latitude": 22.565111, "Longitude": 120.338204, "IVRNo": 2021, "EXTVoiceNo": 2021, "traveltime": 0, "holidayTraveltime": 0}, {"Id": "2022", "pgp": 0, "GoBack": 1, "SID": 1019, "NameZh": "\u6c11\u773e\u670d\u52d9\u7ad9", "RouteId": 121, "SeqNo": 42, "Terminal": 0, "DistrictId": 1, "Latitude": 22.564301, "Longitude": 120.33641, "IVRNo": 2022, "EXTVoiceNo": 2022, "traveltime": 0, "holidayTraveltime": 0}, {"Id": "2023", "pgp": 0, "GoBack": 1, "SID": 1022, "NameZh": "\u5c0f\u6e2f\u8def\u53e3", "RouteId": 121, "SeqNo": 43, "Terminal": 0, "DistrictId": 1, "Latitude": 22.563869, "Longitude": 120.334471, "IVRNo": 2023, "EXTVoiceNo": 2023, "traveltime": 0, "holidayTraveltime": 0}, {"Id": "2024", "pgp": 0, "GoBack": 1, "SID": 1027, "NameZh": "\u5c0f\u6e2f\u5929\u4e3b\u6559\u5802", "RouteId": 121, "SeqNo": 44, "Terminal": 0, "DistrictId": 1, "Latitude": 22.565411, "Longitude": 120.333428, "IVRNo": 2024, "EXTVoiceNo": 2024, "traveltime": 0, "holidayTraveltime": 0}, {"Id": "2025", "pgp": 0, "GoBack": 1, "SID": 1029, "NameZh": "\u6e2f\u5f8c\u8def\u53e3", "RouteId": 121, "SeqNo": 45, "Terminal": 0, "DistrictId": 1, "Latitude": 22.567113, "Longitude": 120.332146, "IVRNo": 2025, "EXTVoiceNo": 2025, "traveltime": 0, "holidayTraveltime": 0}, {"Id": "2026", "pgp": 0, "GoBack": 1, "SID": 1034, "NameZh": "\u5e73\u548c\u8def", "RouteId": 121, "SeqNo": 46, "Terminal": 0, "DistrictId": 1, "Latitude": 22.568566, "Longitude": 120.33093, "IVRNo": 2026, "EXTVoiceNo": 2026, "traveltime": 0, "holidayTraveltime": 0}, {"Id": "2027", "pgp": 0, "GoBack": 1, "SID": 1038, "NameZh": "\u91d1\u798f\u8def\u53e3(\u8349\u8859\u4e09\u8def)", "RouteId": 121, "SeqNo": 47, "Terminal": 0, "DistrictId": 1, "Latitude": 22.5701, "Longitude": 120.329713, "IVRNo": 2027, "EXTVoiceNo": 2027, "traveltime": 0, "holidayTraveltime": 0}, {"Id": "6176", "pgp": 0, "GoBack": 1, "SID": 1043, "NameZh": "\u4f5b\u516c", "RouteId": 121, "SeqNo": 48, "Terminal": 0, "DistrictId": 1, "Latitude": 22.575308, "Longitude": 120.32535, "IVRNo": 2028, "EXTVoiceNo": 26176, "traveltime": 0, "holidayTraveltime": 0}, {"Id": "2031", "pgp": 0, "GoBack": 1, "SID": 1054, "NameZh": "\u8349\u8859", "RouteId": 121, "SeqNo": 49, "Terminal": 0, "DistrictId": 1, "Latitude": 22.577058, "Longitude": 120.323755, "IVRNo": 2031, "EXTVoiceNo": 2031, "traveltime": 0, "holidayTraveltime": 0}, {"Id": "2032", "pgp": 0, "GoBack": 1, "SID": 1057, "NameZh": "\u8349\u8859\u5e02\u5834", "RouteId": 121, "SeqNo": 50, "Terminal": 0, "DistrictId": 1, "Latitude": 22.578575, "Longitude": 120.322445, "IVRNo": 2032, "EXTVoiceNo": 2032, "traveltime": 0, "holidayTraveltime": 0}, {"Id": "2033", "pgp": 0, "GoBack": 1, "SID": 1060, "NameZh": "\u5317\u8349\u8859", "RouteId": 121, "SeqNo": 51, "Terminal": 0, "DistrictId": 1, "Latitude": 22.580596, "Longitude": 120.32292, "IVRNo": 2033, "EXTVoiceNo": 2033, "traveltime": 0, "holidayTraveltime": 0}, {"Id": "2034", "pgp": 0, "GoBack": 1, "SID": 1062, "NameZh": "\u524d\u93ae\u570b\u4e2d", "RouteId": 121, "SeqNo": 52, "Terminal": 0, "DistrictId": 1, "Latitude": 22.58362, "Longitude": 120.322271, "IVRNo": 2034, "EXTVoiceNo": 2034, "traveltime": 0, "holidayTraveltime": 0}, {"Id": "2035", "pgp": 0, "GoBack": 1, "SID": 1063, "NameZh": "\u5eb7\u5b9a\u8def", "RouteId": 121, "SeqNo": 53, "Terminal": 0, "DistrictId": 1, "Latitude": 22.584164, "Longitude": 120.320638, "IVRNo": 2035, "EXTVoiceNo": 2035, "traveltime": 0, "holidayTraveltime": 0}, {"Id": "2036", "pgp": 0, "GoBack": 1, "SID": 1067, "NameZh": "\u93ae\u4e2d\u8def\u53e3", "RouteId": 121, "SeqNo": 54, "Terminal": 0, "DistrictId": 1, "Latitude": 22.585901, "Longitude": 120.319779, "IVRNo": 2036, "EXTVoiceNo": 2036, "traveltime": 0, "holidayTraveltime": 0}, {"Id": "2037", "pgp": 0, "GoBack": 1, "SID": 1069, "NameZh": "\u524d\u93ae\u9ad8\u4e2d\u7ad9", "RouteId": 121, "SeqNo": 55, "Terminal": 0, "DistrictId": 1, "Latitude": 22.587032, "Longitude": 120.320283, "IVRNo": 2037, "EXTVoiceNo": 2037, "traveltime": 0, "holidayTraveltime": 0}, {"Id": "2709", "pgp": 0, "GoBack": 1, "SID": 1971, "NameZh": "\u52de\u5de5\u884c\u653f\u4e2d\u5fc3(\u6377\u904b\u524d\u93ae\u9ad8\u4e2d\u7ad9)", "RouteId": 121, "SeqNo": 56, "Terminal": 0, "DistrictId": 1, "Latitude": 22.588721, "Longitude": 120.321585, "IVRNo": 2059, "EXTVoiceNo": 2709, "traveltime": 0, "holidayTraveltime": 0}, {"Id": "2710", "pgp": 0, "GoBack": 1, "SID": 1975, "NameZh": "\u5317\u6c5f\u8857\u53e3", "RouteId": 121, "SeqNo": 57, "Terminal": 0, "DistrictId": 1, "Latitude": 22.589756, "Longitude": 120.320541, "IVRNo": 2058, "EXTVoiceNo": 2710, "traveltime": 0, "holidayTraveltime": 0}, {"Id": "2711", "pgp": 0, "GoBack": 1, "SID": 1976, "NameZh": "\u7fe0\u4ea8\u5317\u8def", "RouteId": 121, "SeqNo": 58, "Terminal": 0, "DistrictId": 1, "Latitude": 22.591643, "Longitude": 120.318972, "IVRNo": 2057, "EXTVoiceNo": 2711, "traveltime": 0, "holidayTraveltime": 0}, {"Id": "1156", "pgp": 0, "GoBack": 1, "SID": 201, "NameZh": "\u6377\u904b\u51f1\u65cb\u7ad9", "RouteId": 121, "SeqNo": 59, "Terminal": 0, "DistrictId": 1, "Latitude": 22.596836, "Longitude": 120.315635, "IVRNo": 1112, "EXTVoiceNo": 1156, "traveltime": 0, "holidayTraveltime": 0}, {"Id": "2712", "pgp": 0, "GoBack": 1, "SID": 1981, "NameZh": "\u5149\u83ef\u8def\u53e3(\u4e2d\u5c71\u4e09\u8def)", "RouteId": 121, "SeqNo": 60, "Terminal": 0, "DistrictId": 1, "Latitude": 22.602515, "Longitude": 120.311047, "IVRNo": 2712, "EXTVoiceNo": 2712, "traveltime": 0, "holidayTraveltime": 0}, {"Id": "2044", "pgp": 0, "GoBack": 1, "SID": 1090, "NameZh": "\u52de\u5de5\u516c\u5712(\u6377\u904b\u7345\u7532\u7ad9)", "RouteId": 121, "SeqNo": 61, "Terminal": 0, "DistrictId": 1, "Latitude": 22.605608, "Longitude": 120.308575, "IVRNo": 1153, "EXTVoiceNo": 2044, "traveltime": 0, "holidayTraveltime": 0}, {"Id": "2045", "pgp": 0, "GoBack": 1, "SID": 1096, "NameZh": "\u4e2d\u5c71\u4e8c\u8def", "RouteId": 121, "SeqNo": 62, "Terminal": 0, "DistrictId": 1, "Latitude": 22.60993, "Longitude": 120.3059, "IVRNo": 2045, "EXTVoiceNo": 2045, "traveltime": 0, "holidayTraveltime": 0}, {"Id": "2046", "pgp": 0, "GoBack": 1, "SID": 1097, "NameZh": "\u6377\u904b\u4e09\u591a\u5546\u5708\u7ad9(\u4e2d\u5c71\u4e8c\u8def)", "RouteId": 121, "SeqNo": 63, "Terminal": 0, "DistrictId": 1, "Latitude": 22.61332, "Longitude": 120.30501, "IVRNo": 2043, "EXTVoiceNo": 2046, "traveltime": 0, "holidayTraveltime": 0}, {"Id": "2047", "pgp": 0, "GoBack": 1, "SID": 1101, "NameZh": "\u8208\u4e2d\u4e8c\u8def\u53e3", "RouteId": 121, "SeqNo": 64, "Terminal": 0, "DistrictId": 1, "Latitude": 22.616413, "Longitude": 120.303603, "IVRNo": 2047, "EXTVoiceNo": 2047, "traveltime": 0, "holidayTraveltime": 0}, {"Id": "2150", "pgp": 0, "GoBack": 1, "SID": 1102, "NameZh": "\u82d3\u96c5\u8def\u53e3(\u4e2d\u5c71\u4e8c\u8def)", "RouteId": 121, "SeqNo": 65, "Terminal": 0, "DistrictId": 1, "Latitude": 22.619574, "Longitude": 120.302582, "IVRNo": 2048, "EXTVoiceNo": 2150, "traveltime": 0, "holidayTraveltime": 0}, {"Id": "7268", "pgp": 0, "GoBack": 1, "SID": 1103, "NameZh": "\u65b0\u7530\u8def\u53e3(\u4e2d\u5c71\u4e8c\u8def)", "RouteId": 121, "SeqNo": 66, "Terminal": 0, "DistrictId": 1, "Latitude": 22.622667, "Longitude": 120.301328, "IVRNo": 1520, "EXTVoiceNo": 7268, "traveltime": 0, "holidayTraveltime": 0}, {"Id": "0119", "pgp": 0, "GoBack": 1, "SID": 282, "NameZh": "\u6377\u904b\u4e2d\u592e\u516c\u5712\u7ad9", "RouteId": 121, "SeqNo": 67, "Terminal": 0, "DistrictId": 1, "Latitude": 22.62468, "Longitude": 120.30125, "IVRNo": 119, "EXTVoiceNo": 119, "traveltime": 0, "holidayTraveltime": 0}, {"Id": "0120", "pgp": 0, "GoBack": 1, "SID": 303, "NameZh": "\u6377\u904b\u7f8e\u9e97\u5cf6\u7ad9", "RouteId": 121, "SeqNo": 68, "Terminal": 0, "DistrictId": 1, "Latitude": 22.63014, "Longitude": 120.30193, "IVRNo": 120, "EXTVoiceNo": 120, "traveltime": 0, "holidayTraveltime": 0}, {"Id": "0121", "pgp": 0, "GoBack": 1, "SID": 332, "NameZh": "\u516d\u5408\u591c\u5e02(\u5927\u6e2f\u57d4)", "RouteId": 121, "SeqNo": 69, "Terminal": 0, "DistrictId": 1, "Latitude": 22.633844, "Longitude": 120.302261, "IVRNo": 125, "EXTVoiceNo": 121, "traveltime": 0, "holidayTraveltime": 0}, {"Id": "1445", "pgp": 0, "GoBack": 1, "SID": 668, "NameZh": "\u4e2d\u5c71\u4e00\u8def\u53e3", "RouteId": 121, "SeqNo": 70, "Terminal": 0, "DistrictId": 1, "Latitude": 22.634431, "Longitude": 120.303516, "IVRNo": 1445, "EXTVoiceNo": 1445, "traveltime": 0, "holidayTraveltime": 0}, {"Id": "0411", "pgp": 0, "GoBack": 1, "SID": 2889, "NameZh": "\u6797\u68ee\u8def\u53e3", "RouteId": 121, "SeqNo": 71, "Terminal": 0, "DistrictId": 1, "Latitude": 22.637617, "Longitude": 120.304593, "IVRNo": 92, "EXTVoiceNo": 411, "traveltime": 0, "holidayTraveltime": 0}, {"Id": "0412", "pgp": 0, "GoBack": 1, "SID": 4466, "NameZh": "\u9ad8\u96c4\u706b\u8eca\u7ad9(\u6377\u904b\u9ad8\u96c4\u8eca\u7ad9)", "RouteId": 121, "SeqNo": 72, "Terminal": 1, "DistrictId": 1, "Latitude": 22.637626, "Longitude": 120.302277, "IVRNo": 412, "EXTVoiceNo": 412, "traveltime": 0, "holidayTraveltime": 0}, {"Id": "0412", "pgp": 0, "GoBack": 2, "SID": 4463, "NameZh": "\u9ad8\u96c4\u706b\u8eca\u7ad9(\u6377\u904b\u9ad8\u96c4\u8eca\u7ad9)", "RouteId": 121, "SeqNo": 1, "Terminal": 0, "DistrictId": 1, "Latitude": 22.636963, "Longitude": 120.302214, "IVRNo": 412, "EXTVoiceNo": 412, "traveltime": 0, "holidayTraveltime": 0}, {"Id": "0121", "pgp": 0, "GoBack": 2, "SID": 393, "NameZh": "\u516d\u5408\u591c\u5e02(\u5927\u6e2f\u57d4)", "RouteId": 121, "SeqNo": 2, "Terminal": 0, "DistrictId": 1, "Latitude": 22.633986, "Longitude": 120.30207, "IVRNo": 125, "EXTVoiceNo": 121, "traveltime": 0, "holidayTraveltime": 0}, {"Id": "0120", "pgp": 0, "GoBack": 2, "SID": 404, "NameZh": "\u6377\u904b\u7f8e\u9e97\u5cf6\u7ad9", "RouteId": 121, "SeqNo": 3, "Terminal": 0, "DistrictId": 1, "Latitude": 22.6304, "Longitude": 120.30162, "IVRNo": 120, "EXTVoiceNo": 120, "traveltime": 0, "holidayTraveltime": 0}, {"Id": "0119", "pgp": 0, "GoBack": 2, "SID": 405, "NameZh": "\u6377\u904b\u4e2d\u592e\u516c\u5712\u7ad9", "RouteId": 121, "SeqNo": 4, "Terminal": 0, "DistrictId": 1, "Latitude": 22.6247, "Longitude": 120.30103, "IVRNo": 119, "EXTVoiceNo": 119, "traveltime": 0, "holidayTraveltime": 0}, {"Id": "7268", "pgp": 0, "GoBack": 2, "SID": 1108, "NameZh": "\u65b0\u7530\u8def\u53e3(\u4e2d\u5c71\u4e8c\u8def)", "RouteId": 121, "SeqNo": 5, "Terminal": 0, "DistrictId": 1, "Latitude": 22.6221, "Longitude": 120.30125, "IVRNo": 1520, "EXTVoiceNo": 7268, "traveltime": 0, "holidayTraveltime": 0}, {"Id": "2150", "pgp": 0, "GoBack": 2, "SID": 1109, "NameZh": "\u82d3\u96c5\u8def\u53e3(\u4e2d\u5c71\u4e8c\u8def)", "RouteId": 121, "SeqNo": 6, "Terminal": 0, "DistrictId": 1, "Latitude": 22.618726, "Longitude": 120.302458, "IVRNo": 2048, "EXTVoiceNo": 2150, "traveltime": 0, "holidayTraveltime": 0}, {"Id": "2047", "pgp": 0, "GoBack": 2, "SID": 1110, "NameZh": "\u8208\u4e2d\u4e8c\u8def\u53e3", "RouteId": 121, "SeqNo": 7, "Terminal": 0, "DistrictId": 1, "Latitude": 22.61588, "Longitude": 120.30366, "IVRNo": 2047, "EXTVoiceNo": 2047, "traveltime": 0, "holidayTraveltime": 0}, {"Id": "2046", "pgp": 0, "GoBack": 2, "SID": 1115, "NameZh": "\u6377\u904b\u4e09\u591a\u5546\u5708\u7ad9(\u4e2d\u5c71\u4e8c\u8def)", "RouteId": 121, "SeqNo": 8, "Terminal": 0, "DistrictId": 1, "Latitude": 22.61296, "Longitude": 120.30476, "IVRNo": 2043, "EXTVoiceNo": 2046, "traveltime": 0, "holidayTraveltime": 0}, {"Id": "2045", "pgp": 0, "GoBack": 2, "SID": 1116, "NameZh": "\u4e2d\u5c71\u4e8c\u8def", "RouteId": 121, "SeqNo": 9, "Terminal": 0, "DistrictId": 1, "Latitude": 22.60993, "Longitude": 120.3059, "IVRNo": 2045, "EXTVoiceNo": 2045, "traveltime": 0, "holidayTraveltime": 0}, {"Id": "2044", "pgp": 0, "GoBack": 2, "SID": 1120, "NameZh": "\u52de\u5de5\u516c\u5712(\u6377\u904b\u7345\u7532\u7ad9)", "RouteId": 121, "SeqNo": 10, "Terminal": 0, "DistrictId": 1, "Latitude": 22.60578, "Longitude": 120.307961, "IVRNo": 1153, "EXTVoiceNo": 2044, "traveltime": 0, "holidayTraveltime": 0}, {"Id": "2712", "pgp": 0, "GoBack": 2, "SID": 1991, "NameZh": "\u5149\u83ef\u8def\u53e3(\u4e2d\u5c71\u4e09\u8def)", "RouteId": 121, "SeqNo": 11, "Terminal": 0, "DistrictId": 1, "Latitude": 22.602577, "Longitude": 120.31048, "IVRNo": 2712, "EXTVoiceNo": 2712, "traveltime": 0, "holidayTraveltime": 0}, {"Id": "1156", "pgp": 0, "GoBack": 2, "SID": 262, "NameZh": "\u6377\u904b\u51f1\u65cb\u7ad9", "RouteId": 121, "SeqNo": 12, "Terminal": 0, "DistrictId": 1, "Latitude": 22.59803, "Longitude": 120.31415, "IVRNo": 1112, "EXTVoiceNo": 1156, "traveltime": 0, "holidayTraveltime": 0}, {"Id": "3458", "pgp": 0, "GoBack": 2, "SID": 265, "NameZh": "\u51f1\u65cb\u56db\u8def\u53e3", "RouteId": 121, "SeqNo": 13, "Terminal": 0, "DistrictId": 1, "Latitude": 22.595188, "Longitude": 120.316191, "IVRNo": 1192, "EXTVoiceNo": 3458, "traveltime": 0, "holidayTraveltime": 0}, {"Id": "2711", "pgp": 0, "GoBack": 2, "SID": 1121, "NameZh": "\u7fe0\u4ea8\u5317\u8def", "RouteId": 121, "SeqNo": 14, "Terminal": 0, "DistrictId": 1, "Latitude": 22.591791, "Longitude": 120.318681, "IVRNo": 2057, "EXTVoiceNo": 2711, "traveltime": 0, "holidayTraveltime": 0}, {"Id": "2710", "pgp": 0, "GoBack": 2, "SID": 1124, "NameZh": "\u5317\u6c5f\u8857\u53e3", "RouteId": 121, "SeqNo": 15, "Terminal": 0, "DistrictId": 1, "Latitude": 22.590708, "Longitude": 120.319575, "IVRNo": 2058, "EXTVoiceNo": 2710, "traveltime": 0, "holidayTraveltime": 0}, {"Id": "2709", "pgp": 0, "GoBack": 2, "SID": 1125, "NameZh": "\u52de\u5de5\u884c\u653f\u4e2d\u5fc3(\u6377\u904b\u524d\u93ae\u9ad8\u4e2d\u7ad9)", "RouteId": 121, "SeqNo": 16, "Terminal": 0, "DistrictId": 1, "Latitude": 22.588957, "Longitude": 120.321232, "IVRNo": 2059, "EXTVoiceNo": 2709, "traveltime": 0, "holidayTraveltime": 0}, {"Id": "2037", "pgp": 0, "GoBack": 2, "SID": 1394, "NameZh": "\u524d\u93ae\u9ad8\u4e2d\u7ad9", "RouteId": 121, "SeqNo": 17, "Terminal": 0, "DistrictId": 1, "Latitude": 22.587188, "Longitude": 120.320322, "IVRNo": 2037, "EXTVoiceNo": 2037, "traveltime": 0, "holidayTraveltime": 0}, {"Id": "2036", "pgp": 0, "GoBack": 2, "SID": 1360, "NameZh": "\u93ae\u4e2d\u8def\u53e3", "RouteId": 121, "SeqNo": 18, "Terminal": 0, "DistrictId": 1, "Latitude": 22.585569, "Longitude": 120.319863, "IVRNo": 2036, "EXTVoiceNo": 2036, "traveltime": 0, "holidayTraveltime": 0}, {"Id": "2035", "pgp": 0, "GoBack": 2, "SID": 1362, "NameZh": "\u5eb7\u5b9a\u8def", "RouteId": 121, "SeqNo": 19, "Terminal": 0, "DistrictId": 1, "Latitude": 22.584217, "Longitude": 120.320519, "IVRNo": 2035, "EXTVoiceNo": 2035, "traveltime": 0, "holidayTraveltime": 0}, {"Id": "2034", "pgp": 0, "GoBack": 2, "SID": 1131, "NameZh": "\u524d\u93ae\u570b\u4e2d", "RouteId": 121, "SeqNo": 20, "Terminal": 0, "DistrictId": 1, "Latitude": 22.583412, "Longitude": 120.322191, "IVRNo": 2034, "EXTVoiceNo": 2034, "traveltime": 0, "holidayTraveltime": 0}, {"Id": "2033", "pgp": 0, "GoBack": 2, "SID": 1132, "NameZh": "\u5317\u8349\u8859", "RouteId": 121, "SeqNo": 21, "Terminal": 0, "DistrictId": 1, "Latitude": 22.581083, "Longitude": 120.322916, "IVRNo": 2033, "EXTVoiceNo": 2033, "traveltime": 0, "holidayTraveltime": 0}, {"Id": "2032", "pgp": 0, "GoBack": 2, "SID": 1137, "NameZh": "\u8349\u8859\u5e02\u5834", "RouteId": 121, "SeqNo": 22, "Terminal": 0, "DistrictId": 1, "Latitude": 22.578486, "Longitude": 120.322336, "IVRNo": 2032, "EXTVoiceNo": 2032, "traveltime": 0, "holidayTraveltime": 0}, {"Id": "2031", "pgp": 0, "GoBack": 2, "SID": 1138, "NameZh": "\u8349\u8859", "RouteId": 121, "SeqNo": 23, "Terminal": 0, "DistrictId": 1, "Latitude": 22.577066, "Longitude": 120.323666, "IVRNo": 2031, "EXTVoiceNo": 2031, "traveltime": 0, "holidayTraveltime": 0}, {"Id": "6176", "pgp": 0, "GoBack": 2, "SID": 1146, "NameZh": "\u4f5b\u516c", "RouteId": 121, "SeqNo": 24, "Terminal": 0, "DistrictId": 1, "Latitude": 22.575197, "Longitude": 120.325327, "IVRNo": 2028, "EXTVoiceNo": 26176, "traveltime": 0, "holidayTraveltime": 0}, {"Id": "2027", "pgp": 0, "GoBack": 2, "SID": 1147, "NameZh": "\u91d1\u798f\u8def\u53e3(\u8349\u8859\u4e09\u8def)", "RouteId": 121, "SeqNo": 25, "Terminal": 0, "DistrictId": 1, "Latitude": 22.570252, "Longitude": 120.329494, "IVRNo": 2027, "EXTVoiceNo": 2027, "traveltime": 0, "holidayTraveltime": 0}, {"Id": "2026", "pgp": 0, "GoBack": 2, "SID": 1152, "NameZh": "\u5e73\u548c\u8def", "RouteId": 121, "SeqNo": 26, "Terminal": 0, "DistrictId": 1, "Latitude": 22.568235, "Longitude": 120.331108, "IVRNo": 2026, "EXTVoiceNo": 2026, "traveltime": 0, "holidayTraveltime": 0}, {"Id": "2025", "pgp": 0, "GoBack": 2, "SID": 1153, "NameZh": "\u6e2f\u5f8c\u8def\u53e3", "RouteId": 121, "SeqNo": 27, "Terminal": 0, "DistrictId": 1, "Latitude": 22.567141, "Longitude": 120.331986, "IVRNo": 2025, "EXTVoiceNo": 2025, "traveltime": 0, "holidayTraveltime": 0}, {"Id": "2024", "pgp": 0, "GoBack": 2, "SID": 1158, "NameZh": "\u5c0f\u6e2f\u5929\u4e3b\u6559\u5802", "RouteId": 121, "SeqNo": 28, "Terminal": 0, "DistrictId": 1, "Latitude": 22.565091, "Longitude": 120.333483, "IVRNo": 2024, "EXTVoiceNo": 2024, "traveltime": 0, "holidayTraveltime": 0}, {"Id": "2023", "pgp": 0, "GoBack": 2, "SID": 1162, "NameZh": "\u5c0f\u6e2f\u8def\u53e3", "RouteId": 121, "SeqNo": 29, "Terminal": 0, "DistrictId": 1, "Latitude": 22.563917, "Longitude": 120.334283, "IVRNo": 2023, "EXTVoiceNo": 2023, "traveltime": 0, "holidayTraveltime": 0}, {"Id": "2022", "pgp": 0, "GoBack": 2, "SID": 1164, "NameZh": "\u6c11\u773e\u670d\u52d9\u7ad9", "RouteId": 121, "SeqNo": 30, "Terminal": 0, "DistrictId": 1, "Latitude": 22.56426, "Longitude": 120.33635, "IVRNo": 2022, "EXTVoiceNo": 2022, "traveltime": 0, "holidayTraveltime": 0}, {"Id": "2021", "pgp": 0, "GoBack": 2, "SID": 1167, "NameZh": "\u5c0f\u6e2f\u884c\u653f\u4e2d\u5fc3", "RouteId": 121, "SeqNo": 31, "Terminal": 0, "DistrictId": 1, "Latitude": 22.56503, "Longitude": 120.33831, "IVRNo": 2021, "EXTVoiceNo": 2021, "traveltime": 0, "holidayTraveltime": 0}, {"Id": "2001", "pgp": 0, "GoBack": 2, "SID": 1084, "NameZh": "\u5c0f\u6e2f\u7ad9", "RouteId": 121, "SeqNo": 32, "Terminal": 0, "DistrictId": 1, "Latitude": 22.565111, "Longitude": 120.34081, "IVRNo": 2000, "EXTVoiceNo": 2001, "traveltime": 0, "holidayTraveltime": 0}, {"Id": "2002", "pgp": 0, "GoBack": 2, "SID": 1087, "NameZh": "\u5c0f\u6e2f\u5206\u5c40(\u5f80\u6a5f\u5834)", "RouteId": 121, "SeqNo": 33, "Terminal": 0, "DistrictId": 1, "Latitude": 22.565731, "Longitude": 120.344228, "IVRNo": 2002, "EXTVoiceNo": 2002, "traveltime": 0, "holidayTraveltime": 0}, {"Id": "2765", "pgp": 0, "GoBack": 2, "SID": 1169, "NameZh": "\u5e02\u7acb\u7a7a\u5927", "RouteId": 121, "SeqNo": 34, "Terminal": 0, "DistrictId": 1, "Latitude": 22.56668, "Longitude": 120.3453, "IVRNo": 2073, "EXTVoiceNo": 2765, "traveltime": 0, "holidayTraveltime": 0}, {"Id": "2038", "pgp": 0, "GoBack": 2, "SID": 1077, "NameZh": "\u9ad8\u96c4\u516c\u5712(\u6377\u904b\u9ad8\u96c4\u570b\u969b\u6a5f\u5834\u7ad9)", "RouteId": 121, "SeqNo": 35, "Terminal": 0, "DistrictId": 1, "Latitude": 22.5688, "Longitude": 120.34375, "IVRNo": 2038, "EXTVoiceNo": 12038, "traveltime": 0, "holidayTraveltime": 0}, {"Id": "2018", "pgp": 0, "GoBack": 2, "SID": 1172, "NameZh": "\u5b8f\u5e73\u8def", "RouteId": 121, "SeqNo": 36, "Terminal": 0, "DistrictId": 1, "Latitude": 22.56975, "Longitude": 120.3514, "IVRNo": 2018, "EXTVoiceNo": 2018, "traveltime": 0, "holidayTraveltime": 0}, {"Id": "2017", "pgp": 0, "GoBack": 2, "SID": 1173, "NameZh": "\u91d1\u5e9c\u8def\u53e3", "RouteId": 121, "SeqNo": 37, "Terminal": 0, "DistrictId": 1, "Latitude": 22.56976, "Longitude": 120.35528, "IVRNo": 2017, "EXTVoiceNo": 2017, "traveltime": 0, "holidayTraveltime": 0}, {"Id": "2008", "pgp": 0, "GoBack": 2, "SID": 1176, "NameZh": "\u5ee0\u908a\u4e09\u8def\u53e3(\u5b8f\u5e73\u8def)", "RouteId": 121, "SeqNo": 38, "Terminal": 0, "DistrictId": 1, "Latitude": 22.56976, "Longitude": 120.35763, "IVRNo": 2008, "EXTVoiceNo": 2008, "traveltime": 0, "holidayTraveltime": 0}, {"Id": "2015", "pgp": 0, "GoBack": 2, "SID": 1177, "NameZh": "\u5c71\u660e\u8def\u53e3(\u5b8f\u5e73\u8def)", "RouteId": 121, "SeqNo": 39, "Terminal": 0, "DistrictId": 1, "Latitude": 22.5697, "Longitude": 120.35975, "IVRNo": 2015, "EXTVoiceNo": 2015, "traveltime": 0, "holidayTraveltime": 0}, {"Id": "2014", "pgp": 0, "GoBack": 2, "SID": 1179, "NameZh": "\u677e\u67cf\u8857\u53e3", "RouteId": 121, "SeqNo": 40, "Terminal": 0, "DistrictId": 1, "Latitude": 22.57033, "Longitude": 120.36238, "IVRNo": 2014, "EXTVoiceNo": 2014, "traveltime": 0, "holidayTraveltime": 0}, {"Id": "2013", "pgp": 0, "GoBack": 2, "SID": 1183, "NameZh": "\u5b8f\u6587\u8def\u53e3", "RouteId": 121, "SeqNo": 41, "Terminal": 0, "DistrictId": 1, "Latitude": 22.57138, "Longitude": 120.3639, "IVRNo": 2013, "EXTVoiceNo": 2013, "traveltime": 0, "holidayTraveltime": 0}, {"Id": "2012", "pgp": 0, "GoBack": 2, "SID": 1188, "NameZh": "\u98db\u6a5f\u8def\u53e3", "RouteId": 121, "SeqNo": 42, "Terminal": 0, "DistrictId": 1, "Latitude": 22.57221, "Longitude": 120.3651, "IVRNo": 2012, "EXTVoiceNo": 2012, "traveltime": 0, "holidayTraveltime": 0}, {"Id": "2081", "pgp": 0, "GoBack": 2, "SID": 1107, "NameZh": "\u5b8f\u5e73\u8def\u53e3(\u5f80\u5c0f\u6e2f)", "RouteId": 121, "SeqNo": 43, "Terminal": 0, "DistrictId": 1, "Latitude": 22.572877, "Longitude": 120.366456, "IVRNo": 2050, "EXTVoiceNo": 2081, "traveltime": 0, "holidayTraveltime": 0}, {"Id": "2082", "pgp": 0, "GoBack": 2, "SID": 2080, "NameZh": "\u9ad8\u677e\u8def(\u5f80\u5c0f\u6e2f)", "RouteId": 121, "SeqNo": 44, "Terminal": 0, "DistrictId": 1, "Latitude": 22.572739, "Longitude": 120.369676, "IVRNo": 32355, "EXTVoiceNo": 2082, "traveltime": 0, "holidayTraveltime": 0}, {"Id": "2316", "pgp": 0, "GoBack": 2, "SID": 9670, "NameZh": "\u592a\u5e73\u570b\u5c0f", "RouteId": 121, "SeqNo": 45, "Terminal": 0, "DistrictId": 1, "Latitude": 22.572676, "Longitude": 120.371843, "IVRNo": 2087, "EXTVoiceNo": 2316, "traveltime": 0, "holidayTraveltime": 0}, {"Id": "2317", "pgp": 0, "GoBack": 2, "SID": 2084, "NameZh": "\u9ad8\u677e\u9678\u6a4b(\u5f80\u5c0f\u6e2f)", "RouteId": 121, "SeqNo": 46, "Terminal": 0, "DistrictId": 1, "Latitude": 22.56958, "Longitude": 120.37851, "IVRNo": 2317, "EXTVoiceNo": 2317, "traveltime": 0, "holidayTraveltime": 0}, {"Id": "2318", "pgp": 0, "GoBack": 2, "SID": 2087, "NameZh": "\u5927\u576a\u9802(\u5f80\u5c0f\u6e2f)", "RouteId": 121, "SeqNo": 47, "Terminal": 0, "DistrictId": 1, "Latitude": 22.5643, "Longitude": 120.38766, "IVRNo": 2318, "EXTVoiceNo": 2318, "traveltime": 0, "holidayTraveltime": 0}, {"Id": "0080", "pgp": 0, "GoBack": 2, "SID": 2088, "NameZh": "\u5927\u576a\u91cc(\u5f80\u5c0f\u6e2f)", "RouteId": 121, "SeqNo": 48, "Terminal": 0, "DistrictId": 1, "Latitude": 22.56468, "Longitude": 120.38853, "IVRNo": 2319, "EXTVoiceNo": 20080, "traveltime": 0, "holidayTraveltime": 0}, {"Id": "2320", "pgp": 0, "GoBack": 2, "SID": 2089, "NameZh": "\u795e\u8fb2\u6bbf(\u5f80\u5c0f\u6e2f)", "RouteId": 121, "SeqNo": 49, "Terminal": 0, "DistrictId": 1, "Latitude": 22.56461, "Longitude": 120.38915, "IVRNo": 2320, "EXTVoiceNo": 2320, "traveltime": 0, "holidayTraveltime": 0}, {"Id": "0331", "pgp": 0, "GoBack": 2, "SID": 2090, "NameZh": "\u6c38\u548c\u8857(\u5f80\u5c0f\u6e2f)", "RouteId": 121, "SeqNo": 50, "Terminal": 0, "DistrictId": 1, "Latitude": 22.563952, "Longitude": 120.3903, "IVRNo": 2321, "EXTVoiceNo": 20331, "traveltime": 0, "holidayTraveltime": 0}, {"Id": "2322", "pgp": 0, "GoBack": 2, "SID": 2091, "NameZh": "\u576a\u9802\u570b\u5c0f(\u9ad8\u576a17\u8857)", "RouteId": 121, "SeqNo": 51, "Terminal": 0, "DistrictId": 1, "Latitude": 22.56128, "Longitude": 120.39135, "IVRNo": 2351, "EXTVoiceNo": 2322, "traveltime": 0, "holidayTraveltime": 0}, {"Id": "3225", "pgp": 0, "GoBack": 2, "SID": 2092, "NameZh": "\u96fb\u4fe1\u5c40(\u5f80\u5c0f\u6e2f)", "RouteId": 121, "SeqNo": 52, "Terminal": 0, "DistrictId": 1, "Latitude": 22.5596, "Longitude": 120.39115, "IVRNo": 3225, "EXTVoiceNo": 3225, "traveltime": 0, "holidayTraveltime": 0}, {"Id": "2345", "pgp": 0, "GoBack": 2, "SID": 2099, "NameZh": "\u9ad8\u576a22\u8def\u53e3(\u5f80\u5c0f\u6e2f)", "RouteId": 121, "SeqNo": 53, "Terminal": 0, "DistrictId": 1, "Latitude": 22.55937, "Longitude": 120.38858, "IVRNo": 2343, "EXTVoiceNo": 2345, "traveltime": 0, "holidayTraveltime": 0}, {"Id": "2346", "pgp": 0, "GoBack": 2, "SID": 2093, "NameZh": "\u9ad8\u576a23\u8def\u4e8c", "RouteId": 121, "SeqNo": 54, "Terminal": 0, "DistrictId": 1, "Latitude": 22.561403, "Longitude": 120.388658, "IVRNo": 2346, "EXTVoiceNo": 2346, "traveltime": 0, "holidayTraveltime": 0}, {"Id": "2325", "pgp": 0, "GoBack": 2, "SID": 2094, "NameZh": "\u4e5d\u9f8d\u5bfa(\u5f80\u5c0f\u6e2f)", "RouteId": 121, "SeqNo": 55, "Terminal": 0, "DistrictId": 1, "Latitude": 22.56265, "Longitude": 120.3886, "IVRNo": 2325, "EXTVoiceNo": 2325, "traveltime": 0, "holidayTraveltime": 0}, {"Id": "2318", "pgp": 0, "GoBack": 2, "SID": 2095, "NameZh": "\u5927\u576a\u9802(\u5f80\u5c0f\u6e2f)", "RouteId": 121, "SeqNo": 56, "Terminal": 0, "DistrictId": 1, "Latitude": 22.5643, "Longitude": 120.38766, "IVRNo": 2318, "EXTVoiceNo": 2318, "traveltime": 0, "holidayTraveltime": 0}, {"Id": "2317", "pgp": 0, "GoBack": 2, "SID": 2096, "NameZh": "\u9ad8\u677e\u9678\u6a4b(\u5f80\u5c0f\u6e2f)", "RouteId": 121, "SeqNo": 57, "Terminal": 0, "DistrictId": 1, "Latitude": 22.56958, "Longitude": 120.37851, "IVRNo": 2317, "EXTVoiceNo": 2317, "traveltime": 0, "holidayTraveltime": 0}, {"Id": "2316", "pgp": 0, "GoBack": 2, "SID": 2081, "NameZh": "\u592a\u5e73\u570b\u5c0f(\u5f80\u5c0f\u6e2f)", "RouteId": 121, "SeqNo": 58, "Terminal": 0, "DistrictId": 1, "Latitude": 22.572755, "Longitude": 120.372264, "IVRNo": 2087, "EXTVoiceNo": 2316, "traveltime": 0, "holidayTraveltime": 0}, {"Id": "2082", "pgp": 0, "GoBack": 2, "SID": 2082, "NameZh": "\u9ad8\u677e\u8def", "RouteId": 121, "SeqNo": 59, "Terminal": 0, "DistrictId": 1, "Latitude": 22.572829, "Longitude": 120.369515, "IVRNo": 32355, "EXTVoiceNo": 2082, "traveltime": 0, "holidayTraveltime": 0}, {"Id": "2081", "pgp": 0, "GoBack": 2, "SID": 2083, "NameZh": "\u5b8f\u5e73\u8def\u53e3", "RouteId": 121, "SeqNo": 60, "Terminal": 0, "DistrictId": 1, "Latitude": 22.572855, "Longitude": 120.366816, "IVRNo": 2050, "EXTVoiceNo": 2081, "traveltime": 0, "holidayTraveltime": 0}, {"Id": "2011", "pgp": 0, "GoBack": 2, "SID": 1209, "NameZh": "\u6cf0\u5c71\u91cc", "RouteId": 121, "SeqNo": 61, "Terminal": 0, "DistrictId": 1, "Latitude": 22.57316, "Longitude": 120.36438, "IVRNo": 2011, "EXTVoiceNo": 2011, "traveltime": 0, "holidayTraveltime": 0}, {"Id": "2010", "pgp": 0, "GoBack": 2, "SID": 1210, "NameZh": "\u9752\u5c71\u570b\u5c0f", "RouteId": 121, "SeqNo": 62, "Terminal": 0, "DistrictId": 1, "Latitude": 22.57325, "Longitude": 120.36195, "IVRNo": 2010, "EXTVoiceNo": 2010, "traveltime": 0, "holidayTraveltime": 0}, {"Id": "2009", "pgp": 0, "GoBack": 2, "SID": 1211, "NameZh": "\u98db\u6a5f\u8def", "RouteId": 121, "SeqNo": 63, "Terminal": 0, "DistrictId": 1, "Latitude": 22.57333, "Longitude": 120.35886, "IVRNo": 2009, "EXTVoiceNo": 2009, "traveltime": 0, "holidayTraveltime": 0}, {"Id": "2008", "pgp": 0, "GoBack": 2, "SID": 1212, "NameZh": "\u5ee0\u908a\u4e09\u8def\u53e3(\u98db\u6a5f\u8def)", "RouteId": 121, "SeqNo": 64, "Terminal": 0, "DistrictId": 1, "Latitude": 22.57333, "Longitude": 120.35706, "IVRNo": 2019, "EXTVoiceNo": 2008, "traveltime": 0, "holidayTraveltime": 0}, {"Id": "2007", "pgp": 0, "GoBack": 2, "SID": 1213, "NameZh": "\u9752\u5cf6\u91cc", "RouteId": 121, "SeqNo": 65, "Terminal": 0, "DistrictId": 1, "Latitude": 22.57335, "Longitude": 120.35396, "IVRNo": 2007, "EXTVoiceNo": 2007, "traveltime": 0, "holidayTraveltime": 0}, {"Id": "2006", "pgp": 0, "GoBack": 2, "SID": 1214, "NameZh": "\u5c71\u6771\u91cc", "RouteId": 121, "SeqNo": 66, "Terminal": 0, "DistrictId": 1, "Latitude": 22.57346, "Longitude": 120.35106, "IVRNo": 2006, "EXTVoiceNo": 2006, "traveltime": 0, "holidayTraveltime": 0}, {"Id": "2005", "pgp": 0, "GoBack": 2, "SID": 1215, "NameZh": "\u822a\u8b66\u5c40", "RouteId": 121, "SeqNo": 67, "Terminal": 0, "DistrictId": 1, "Latitude": 22.57131, "Longitude": 120.34836, "IVRNo": 2005, "EXTVoiceNo": 2005, "traveltime": 0, "holidayTraveltime": 0}, {"Id": "2004", "pgp": 0, "GoBack": 2, "SID": 1216, "NameZh": "\u6c11\u76ca\u8def", "RouteId": 121, "SeqNo": 68, "Terminal": 0, "DistrictId": 1, "Latitude": 22.5673, "Longitude": 120.34793, "IVRNo": 2004, "EXTVoiceNo": 2004, "traveltime": 0, "holidayTraveltime": 0}, {"Id": "2003", "pgp": 0, "GoBack": 2, "SID": 1217, "NameZh": "\u4e8c\u82d3\u8def", "RouteId": 121, "SeqNo": 69, "Terminal": 0, "DistrictId": 1, "Latitude": 22.56546, "Longitude": 120.34731, "IVRNo": 2098, "EXTVoiceNo": 2003, "traveltime": 0, "holidayTraveltime": 0}, {"Id": "2002", "pgp": 0, "GoBack": 2, "SID": 1012, "NameZh": "\u5c0f\u6e2f\u5206\u5c40", "RouteId": 121, "SeqNo": 70, "Terminal": 0, "DistrictId": 1, "Latitude": 22.5657, "Longitude": 120.34428, "IVRNo": 2002, "EXTVoiceNo": 2002, "traveltime": 0, "holidayTraveltime": 0}, {"Id": "2001", "pgp": 0, "GoBack": 2, "SID": 956, "NameZh": "\u5c0f\u6e2f\u7ad9", "RouteId": 121, "SeqNo": 71, "Terminal": 1, "DistrictId": 1, "Latitude": 22.565225, "Longitude": 120.340848, "IVRNo": 2000, "EXTVoiceNo": 2001, "traveltime": 0, "holidayTraveltime": 0}]}