{"en": [{"Id": "0828", "pgp": 0, "GoBack": 1, "SID": 6469, "NameZh": "MRT Gangshan South Station", "RouteId": 878, "SeqNo": 1, "Terminal": 0, "DistrictId": 1, "Latitude": 22.780612, "Longitude": 120.300541, "IVRNo": 828, "EXTVoiceNo": 828, "traveltime": 0, "holidayTraveltime": 0}, {"Id": "0832", "pgp": 0, "GoBack": 1, "SID": 12442, "NameZh": "Gangshan Transfer Station (Gangshan Train Station)", "RouteId": 878, "SeqNo": 2, "Terminal": 0, "DistrictId": 1, "Latitude": 22.792295, "Longitude": 120.299132, "IVRNo": 832, "EXTVoiceNo": 832, "traveltime": 0, "holidayTraveltime": 0}, {"Id": "0731", "pgp": 0, "GoBack": 1, "SID": 16893, "NameZh": "National Immigration Agency", "RouteId": 878, "SeqNo": 3, "Terminal": 0, "DistrictId": 1, "Latitude": 22.7914, "Longitude": 120.29602, "IVRNo": 9214, "EXTVoiceNo": 20731, "traveltime": 0, "holidayTraveltime": 0}, {"Id": "6151", "pgp": 0, "GoBack": 1, "SID": 11551, "NameZh": "Lijhih New Village", "RouteId": 878, "SeqNo": 4, "Terminal": 0, "DistrictId": 1, "Latitude": 22.790276, "Longitude": 120.296366, "IVRNo": 9281, "EXTVoiceNo": 26151, "traveltime": 0, "holidayTraveltime": 0}, {"Id": "9129", "pgp": 0, "GoBack": 1, "SID": 10786, "NameZh": "Wunhua St. Intersection", "RouteId": 878, "SeqNo": 5, "Terminal": 0, "DistrictId": 1, "Latitude": 22.78768, "Longitude": 120.29661, "IVRNo": 9565, "EXTVoiceNo": 9129, "traveltime": 0, "holidayTraveltime": 0}, {"Id": "0123", "pgp": 0, "GoBack": 1, "SID": 1328, "NameZh": "Chunghwa Telecom, Gangshan Dist.", "RouteId": 878, "SeqNo": 6, "Terminal": 0, "DistrictId": 1, "Latitude": 22.784585, "Longitude": 120.296145, "IVRNo": 1278, "EXTVoiceNo": 123, "traveltime": 0, "holidayTraveltime": 0}, {"Id": "0126", "pgp": 0, "GoBack": 1, "SID": 1345, "NameZh": "Gangshan Office (National Taxation Bureau of Kaohsiung)", "RouteId": 878, "SeqNo": 7, "Terminal": 0, "DistrictId": 1, "Latitude": 22.784582, "Longitude": 120.293866, "IVRNo": 8039, "EXTVoiceNo": 126, "traveltime": 0, "holidayTraveltime": 0}, {"Id": "1991", "pgp": 0, "GoBack": 1, "SID": 15461, "NameZh": "Singcun", "RouteId": 878, "SeqNo": 8, "Terminal": 0, "DistrictId": 1, "Latitude": 22.7845, "Longitude": 120.28429, "IVRNo": 11991, "EXTVoiceNo": 11991, "traveltime": 0, "holidayTraveltime": 0}, {"Id": "1144", "pgp": 0, "GoBack": 1, "SID": 15462, "NameZh": "Housie", "RouteId": 878, "SeqNo": 9, "Terminal": 0, "DistrictId": 1, "Latitude": 22.784398, "Longitude": 120.282281, "IVRNo": 11144, "EXTVoiceNo": 11144, "traveltime": 0, "holidayTraveltime": 0}, {"Id": "0828", "pgp": 0, "GoBack": 1, "SID": 15463, "NameZh": "Sihousie", "RouteId": 878, "SeqNo": 10, "Terminal": 0, "DistrictId": 1, "Latitude": 22.78442, "Longitude": 120.27648, "IVRNo": 10828, "EXTVoiceNo": 10828, "traveltime": 0, "holidayTraveltime": 0}, {"Id": "0862", "pgp": 0, "GoBack": 1, "SID": 15464, "NameZh": "Dingtan Rd. Intersection", "RouteId": 878, "SeqNo": 11, "Terminal": 0, "DistrictId": 1, "Latitude": 22.779186, "Longitude": 120.269806, "IVRNo": 862, "EXTVoiceNo": 862, "traveltime": 0, "holidayTraveltime": 0}, {"Id": "1868", "pgp": 0, "GoBack": 1, "SID": 15465, "NameZh": "Fusing Village", "RouteId": 878, "SeqNo": 12, "Terminal": 0, "DistrictId": 1, "Latitude": 22.777165, "Longitude": 120.26914, "IVRNo": 11868, "EXTVoiceNo": 11868, "traveltime": 0, "holidayTraveltime": 0}, {"Id": "0724", "pgp": 0, "GoBack": 1, "SID": 15466, "NameZh": "Shihluo Pond", "RouteId": 878, "SeqNo": 13, "Terminal": 0, "DistrictId": 1, "Latitude": 22.772611, "Longitude": 120.268362, "IVRNo": 10724, "EXTVoiceNo": 10724, "traveltime": 0, "holidayTraveltime": 0}, {"Id": "1150", "pgp": 0, "GoBack": 1, "SID": 15467, "NameZh": "Chun Mu Plant", "RouteId": 878, "SeqNo": 14, "Terminal": 0, "DistrictId": 1, "Latitude": 22.76588, "Longitude": 120.26742, "IVRNo": 11150, "EXTVoiceNo": 11150, "traveltime": 0, "holidayTraveltime": 0}, {"Id": "0545", "pgp": 0, "GoBack": 1, "SID": 15468, "NameZh": "Beizihguan", "RouteId": 878, "SeqNo": 15, "Terminal": 0, "DistrictId": 1, "Latitude": 22.76258, "Longitude": 120.26691, "IVRNo": 10545, "EXTVoiceNo": 10545, "traveltime": 0, "holidayTraveltime": 0}, {"Id": "7906", "pgp": 0, "GoBack": 1, "SID": 5344, "NameZh": "Zihguan District Office", "RouteId": 878, "SeqNo": 16, "Terminal": 0, "DistrictId": 1, "Latitude": 22.760723, "Longitude": 120.266656, "IVRNo": 7906, "EXTVoiceNo": 7906, "traveltime": 0, "holidayTraveltime": 0}, {"Id": "7908", "pgp": 0, "GoBack": 1, "SID": 15469, "NameZh": "Sinyi Rd.", "RouteId": 878, "SeqNo": 17, "Terminal": 0, "DistrictId": 1, "Latitude": 22.76225, "Longitude": 120.26274, "IVRNo": 7908, "EXTVoiceNo": 7908, "traveltime": 0, "holidayTraveltime": 0}, {"Id": "0535", "pgp": 0, "GoBack": 1, "SID": 15470, "NameZh": "Fenci Station", "RouteId": 878, "SeqNo": 18, "Terminal": 0, "DistrictId": 1, "Latitude": 22.77105, "Longitude": 120.25768, "IVRNo": 535, "EXTVoiceNo": 535, "traveltime": 0, "holidayTraveltime": 0}, {"Id": "0014", "pgp": 0, "GoBack": 1, "SID": 15471, "NameZh": "Ergao", "RouteId": 878, "SeqNo": 19, "Terminal": 0, "DistrictId": 1, "Latitude": 22.7741, "Longitude": 120.25449, "IVRNo": 10033, "EXTVoiceNo": 20014, "traveltime": 0, "holidayTraveltime": 0}, {"Id": "7910", "pgp": 0, "GoBack": 1, "SID": 9603, "NameZh": "Mituo Junior High School (Jhongjheng S. Rd.)", "RouteId": 878, "SeqNo": 20, "Terminal": 0, "DistrictId": 1, "Latitude": 22.77688, "Longitude": 120.2515, "IVRNo": 869, "EXTVoiceNo": 7910, "traveltime": 0, "holidayTraveltime": 0}, {"Id": "7911", "pgp": 0, "GoBack": 1, "SID": 5349, "NameZh": "Mituo District Office", "RouteId": 878, "SeqNo": 21, "Terminal": 0, "DistrictId": 1, "Latitude": 22.780392, "Longitude": 120.249284, "IVRNo": 7911, "EXTVoiceNo": 7911, "traveltime": 0, "holidayTraveltime": 0}, {"Id": "7912", "pgp": 0, "GoBack": 1, "SID": 15474, "NameZh": "Mituo Elementary School", "RouteId": 878, "SeqNo": 22, "Terminal": 0, "DistrictId": 1, "Latitude": 22.784217, "Longitude": 120.248039, "IVRNo": 7912, "EXTVoiceNo": 7912, "traveltime": 0, "holidayTraveltime": 0}, {"Id": "1191", "pgp": 0, "GoBack": 1, "SID": 15475, "NameZh": "Jhongjheng W. Rd.", "RouteId": 878, "SeqNo": 23, "Terminal": 0, "DistrictId": 1, "Latitude": 22.7824, "Longitude": 120.24693, "IVRNo": 10278, "EXTVoiceNo": 21191, "traveltime": 0, "holidayTraveltime": 0}, {"Id": "2034", "pgp": 0, "GoBack": 1, "SID": 15476, "NameZh": "Mishou Temple", "RouteId": 878, "SeqNo": 24, "Terminal": 0, "DistrictId": 1, "Latitude": 22.7784, "Longitude": 120.24735, "IVRNo": 12034, "EXTVoiceNo": 12034, "traveltime": 0, "holidayTraveltime": 0}, {"Id": "0366", "pgp": 0, "GoBack": 1, "SID": 15477, "NameZh": "Mituo Junior High School (Jinsyue Rd.)", "RouteId": 878, "SeqNo": 25, "Terminal": 0, "DistrictId": 1, "Latitude": 22.776116, "Longitude": 120.246703, "IVRNo": 2352, "EXTVoiceNo": 366, "traveltime": 0, "holidayTraveltime": 0}, {"Id": "1854", "pgp": 0, "GoBack": 1, "SID": 15478, "NameZh": "Tadi Rd.", "RouteId": 878, "SeqNo": 26, "Terminal": 0, "DistrictId": 1, "Latitude": 22.76918, "Longitude": 120.24483, "IVRNo": 11854, "EXTVoiceNo": 11854, "traveltime": 0, "holidayTraveltime": 0}, {"Id": "1257", "pgp": 0, "GoBack": 1, "SID": 15479, "NameZh": "Dingcuo (Mituo)", "RouteId": 878, "SeqNo": 27, "Terminal": 0, "DistrictId": 1, "Latitude": 22.76542, "Longitude": 120.24348, "IVRNo": 1257, "EXTVoiceNo": 1257, "traveltime": 0, "holidayTraveltime": 0}, {"Id": "0871", "pgp": 0, "GoBack": 1, "SID": 15480, "NameZh": "Nantian Temple (Mituo)", "RouteId": 878, "SeqNo": 28, "Terminal": 0, "DistrictId": 1, "Latitude": 22.76073, "Longitude": 120.2385, "IVRNo": 871, "EXTVoiceNo": 871, "traveltime": 0, "holidayTraveltime": 0}, {"Id": "1102", "pgp": 0, "GoBack": 1, "SID": 15481, "NameZh": "Nanliao", "RouteId": 878, "SeqNo": 29, "Terminal": 1, "DistrictId": 1, "Latitude": 22.76021, "Longitude": 120.23667, "IVRNo": 11102, "EXTVoiceNo": 11102, "traveltime": 0, "holidayTraveltime": 0}, {"Id": "1102", "pgp": 0, "GoBack": 2, "SID": 15482, "NameZh": "Nanliao", "RouteId": 878, "SeqNo": 1, "Terminal": 0, "DistrictId": 1, "Latitude": 22.76029, "Longitude": 120.23684, "IVRNo": 11102, "EXTVoiceNo": 11102, "traveltime": 0, "holidayTraveltime": 0}, {"Id": "0871", "pgp": 0, "GoBack": 2, "SID": 15483, "NameZh": "Nantian Temple (Mituo)", "RouteId": 878, "SeqNo": 2, "Terminal": 0, "DistrictId": 1, "Latitude": 22.7607, "Longitude": 120.23869, "IVRNo": 871, "EXTVoiceNo": 871, "traveltime": 0, "holidayTraveltime": 0}, {"Id": "1257", "pgp": 0, "GoBack": 2, "SID": 15484, "NameZh": "Dingcuo (Mituo)", "RouteId": 878, "SeqNo": 3, "Terminal": 0, "DistrictId": 1, "Latitude": 22.76546, "Longitude": 120.24342, "IVRNo": 1257, "EXTVoiceNo": 1257, "traveltime": 0, "holidayTraveltime": 0}, {"Id": "1854", "pgp": 0, "GoBack": 2, "SID": 15485, "NameZh": "Tadi Rd.", "RouteId": 878, "SeqNo": 4, "Terminal": 0, "DistrictId": 1, "Latitude": 22.76928, "Longitude": 120.24491, "IVRNo": 11854, "EXTVoiceNo": 11854, "traveltime": 0, "holidayTraveltime": 0}, {"Id": "0366", "pgp": 0, "GoBack": 2, "SID": 15486, "NameZh": "Mituo Junior High School (Jinsyue Rd.)", "RouteId": 878, "SeqNo": 5, "Terminal": 0, "DistrictId": 1, "Latitude": 22.77607, "Longitude": 120.24689, "IVRNo": 2352, "EXTVoiceNo": 366, "traveltime": 0, "holidayTraveltime": 0}, {"Id": "2034", "pgp": 0, "GoBack": 2, "SID": 15487, "NameZh": "Mishou Temple", "RouteId": 878, "SeqNo": 6, "Terminal": 0, "DistrictId": 1, "Latitude": 22.77852, "Longitude": 120.2474, "IVRNo": 12034, "EXTVoiceNo": 12034, "traveltime": 0, "holidayTraveltime": 0}, {"Id": "1191", "pgp": 0, "GoBack": 2, "SID": 15488, "NameZh": "Jhongjheng W. Rd.", "RouteId": 878, "SeqNo": 7, "Terminal": 0, "DistrictId": 1, "Latitude": 22.782431, "Longitude": 120.246973, "IVRNo": 10278, "EXTVoiceNo": 21191, "traveltime": 0, "holidayTraveltime": 0}, {"Id": "7912", "pgp": 0, "GoBack": 2, "SID": 15489, "NameZh": "Mituo Elementary School", "RouteId": 878, "SeqNo": 8, "Terminal": 0, "DistrictId": 1, "Latitude": 22.78417, "Longitude": 120.24792, "IVRNo": 7912, "EXTVoiceNo": 7912, "traveltime": 0, "holidayTraveltime": 0}, {"Id": "7911", "pgp": 0, "GoBack": 2, "SID": 5352, "NameZh": "Mituo District Office", "RouteId": 878, "SeqNo": 9, "Terminal": 0, "DistrictId": 1, "Latitude": 22.780392, "Longitude": 120.249284, "IVRNo": 7911, "EXTVoiceNo": 7911, "traveltime": 0, "holidayTraveltime": 0}, {"Id": "7910", "pgp": 0, "GoBack": 2, "SID": 9622, "NameZh": "Mituo Junior High School (Jhongjheng S. Rd.)", "RouteId": 878, "SeqNo": 10, "Terminal": 0, "DistrictId": 1, "Latitude": 22.77745, "Longitude": 120.2509, "IVRNo": 869, "EXTVoiceNo": 7910, "traveltime": 0, "holidayTraveltime": 0}, {"Id": "0014", "pgp": 0, "GoBack": 2, "SID": 15492, "NameZh": "Ergao", "RouteId": 878, "SeqNo": 11, "Terminal": 0, "DistrictId": 1, "Latitude": 22.77394, "Longitude": 120.25437, "IVRNo": 10033, "EXTVoiceNo": 20014, "traveltime": 0, "holidayTraveltime": 0}, {"Id": "0535", "pgp": 0, "GoBack": 2, "SID": 15493, "NameZh": "Fenci Station", "RouteId": 878, "SeqNo": 12, "Terminal": 0, "DistrictId": 1, "Latitude": 22.77039, "Longitude": 120.25809, "IVRNo": 535, "EXTVoiceNo": 535, "traveltime": 0, "holidayTraveltime": 0}, {"Id": "7908", "pgp": 0, "GoBack": 2, "SID": 15494, "NameZh": "Sinyi Rd.", "RouteId": 878, "SeqNo": 13, "Terminal": 0, "DistrictId": 1, "Latitude": 22.762131, "Longitude": 120.262398, "IVRNo": 7908, "EXTVoiceNo": 7908, "traveltime": 0, "holidayTraveltime": 0}, {"Id": "7906", "pgp": 0, "GoBack": 2, "SID": 5357, "NameZh": "Zihguan District Office", "RouteId": 878, "SeqNo": 14, "Terminal": 0, "DistrictId": 1, "Latitude": 22.760694, "Longitude": 120.266658, "IVRNo": 7906, "EXTVoiceNo": 7906, "traveltime": 0, "holidayTraveltime": 0}, {"Id": "0545", "pgp": 0, "GoBack": 2, "SID": 15495, "NameZh": "Beizihguan", "RouteId": 878, "SeqNo": 15, "Terminal": 0, "DistrictId": 1, "Latitude": 22.76245, "Longitude": 120.26677, "IVRNo": 10545, "EXTVoiceNo": 10545, "traveltime": 0, "holidayTraveltime": 0}, {"Id": "1150", "pgp": 0, "GoBack": 2, "SID": 15496, "NameZh": "Chun Mu Plant", "RouteId": 878, "SeqNo": 16, "Terminal": 0, "DistrictId": 1, "Latitude": 22.76576, "Longitude": 120.26725, "IVRNo": 11150, "EXTVoiceNo": 11150, "traveltime": 0, "holidayTraveltime": 0}, {"Id": "0724", "pgp": 0, "GoBack": 2, "SID": 15497, "NameZh": "Shihluo Pond", "RouteId": 878, "SeqNo": 17, "Terminal": 0, "DistrictId": 1, "Latitude": 22.77259, "Longitude": 120.26851, "IVRNo": 10724, "EXTVoiceNo": 10724, "traveltime": 0, "holidayTraveltime": 0}, {"Id": "1868", "pgp": 0, "GoBack": 2, "SID": 15498, "NameZh": "Fusing Village", "RouteId": 878, "SeqNo": 18, "Terminal": 0, "DistrictId": 1, "Latitude": 22.77714, "Longitude": 120.26924, "IVRNo": 11868, "EXTVoiceNo": 11868, "traveltime": 0, "holidayTraveltime": 0}, {"Id": "0862", "pgp": 0, "GoBack": 2, "SID": 15499, "NameZh": "Dingtan Rd. Intersection", "RouteId": 878, "SeqNo": 19, "Terminal": 0, "DistrictId": 1, "Latitude": 22.779137, "Longitude": 120.26983, "IVRNo": 862, "EXTVoiceNo": 862, "traveltime": 0, "holidayTraveltime": 0}, {"Id": "0828", "pgp": 0, "GoBack": 2, "SID": 15500, "NameZh": "Sihousie", "RouteId": 878, "SeqNo": 20, "Terminal": 0, "DistrictId": 1, "Latitude": 22.78425, "Longitude": 120.27648, "IVRNo": 10828, "EXTVoiceNo": 10828, "traveltime": 0, "holidayTraveltime": 0}, {"Id": "1144", "pgp": 0, "GoBack": 2, "SID": 15501, "NameZh": "Housie", "RouteId": 878, "SeqNo": 21, "Terminal": 0, "DistrictId": 1, "Latitude": 22.78423, "Longitude": 120.28229, "IVRNo": 11144, "EXTVoiceNo": 11144, "traveltime": 0, "holidayTraveltime": 0}, {"Id": "1991", "pgp": 0, "GoBack": 2, "SID": 15502, "NameZh": "Singcun", "RouteId": 878, "SeqNo": 22, "Terminal": 0, "DistrictId": 1, "Latitude": 22.78436, "Longitude": 120.2841, "IVRNo": 11991, "EXTVoiceNo": 11991, "traveltime": 0, "holidayTraveltime": 0}, {"Id": "0126", "pgp": 0, "GoBack": 2, "SID": 1496, "NameZh": "Gangshan Office (National Taxation Bureau of Kaohsiung)", "RouteId": 878, "SeqNo": 23, "Terminal": 0, "DistrictId": 1, "Latitude": 22.78452, "Longitude": 120.293937, "IVRNo": 8039, "EXTVoiceNo": 126, "traveltime": 0, "holidayTraveltime": 0}, {"Id": "0123", "pgp": 0, "GoBack": 2, "SID": 1337, "NameZh": "Chunghwa Telecom, Gangshan Dist.", "RouteId": 878, "SeqNo": 24, "Terminal": 0, "DistrictId": 1, "Latitude": 22.784543, "Longitude": 120.295911, "IVRNo": 1278, "EXTVoiceNo": 123, "traveltime": 0, "holidayTraveltime": 0}, {"Id": "9129", "pgp": 0, "GoBack": 2, "SID": 12419, "NameZh": "Wunhua St. Intersection", "RouteId": 878, "SeqNo": 25, "Terminal": 0, "DistrictId": 1, "Latitude": 22.788516, "Longitude": 120.296634, "IVRNo": 9565, "EXTVoiceNo": 9129, "traveltime": 0, "holidayTraveltime": 0}, {"Id": "6151", "pgp": 0, "GoBack": 2, "SID": 11551, "NameZh": "Lijhih New Village", "RouteId": 878, "SeqNo": 26, "Terminal": 0, "DistrictId": 1, "Latitude": 22.790276, "Longitude": 120.296366, "IVRNo": 9281, "EXTVoiceNo": 26151, "traveltime": 0, "holidayTraveltime": 0}, {"Id": "0731", "pgp": 0, "GoBack": 2, "SID": 16960, "NameZh": "National Immigration Agency", "RouteId": 878, "SeqNo": 27, "Terminal": 0, "DistrictId": 1, "Latitude": 22.79138, "Longitude": 120.29621, "IVRNo": 9214, "EXTVoiceNo": 20731, "traveltime": 0, "holidayTraveltime": 0}, {"Id": "0832", "pgp": 0, "GoBack": 2, "SID": 13335, "NameZh": "Gangshan Transfer Station (Gangshan Train Station)", "RouteId": 878, "SeqNo": 28, "Terminal": 0, "DistrictId": 1, "Latitude": 22.79233, "Longitude": 120.299444, "IVRNo": 832, "EXTVoiceNo": 832, "traveltime": 0, "holidayTraveltime": 0}, {"Id": "0828", "pgp": 0, "GoBack": 2, "SID": 6471, "NameZh": "MRT Gangshan South Station", "RouteId": 878, "SeqNo": 29, "Terminal": 1, "DistrictId": 1, "Latitude": 22.780347, "Longitude": 120.300666, "IVRNo": 828, "EXTVoiceNo": 828, "traveltime": 0, "holidayTraveltime": 0}], "zh": [{"Id": "0828", "pgp": 0, "GoBack": 1, "SID": 6469, "NameZh": "\u6377\u904b\u5357\u5ca1\u5c71\u7ad9", "RouteId": 878, "SeqNo": 1, "Terminal": 0, "DistrictId": 1, "Latitude": 22.780612, "Longitude": 120.300541, "IVRNo": 828, "EXTVoiceNo": 828, "traveltime": 0, "holidayTraveltime": 0}, {"Id": "0832", "pgp": 0, "GoBack": 1, "SID": 12442, "NameZh": "\u5ca1\u5c71\u8f49\u904b\u7ad9(\u5ca1\u5c71\u706b\u8eca\u7ad9)", "RouteId": 878, "SeqNo": 2, "Terminal": 0, "DistrictId": 1, "Latitude": 22.792295, "Longitude": 120.299132, "IVRNo": 832, "EXTVoiceNo": 832, "traveltime": 0, "holidayTraveltime": 0}, {"Id": "0731", "pgp": 0, "GoBack": 1, "SID": 16893, "NameZh": "\u79fb\u6c11\u7f72", "RouteId": 878, "SeqNo": 3, "Terminal": 0, "DistrictId": 1, "Latitude": 22.7914, "Longitude": 120.29602, "IVRNo": 9214, "EXTVoiceNo": 20731, "traveltime": 0, "holidayTraveltime": 0}, {"Id": "6151", "pgp": 0, "GoBack": 1, "SID": 11551, "NameZh": "\u52f5\u5fd7\u65b0\u57ce", "RouteId": 878, "SeqNo": 4, "Terminal": 0, "DistrictId": 1, "Latitude": 22.790276, "Longitude": 120.296366, "IVRNo": 9281, "EXTVoiceNo": 26151, "traveltime": 0, "holidayTraveltime": 0}, {"Id": "9129", "pgp": 0, "GoBack": 1, "SID": 10786, "NameZh": "\u6587\u5316\u8857\u53e3", "RouteId": 878, "SeqNo": 5, "Terminal": 0, "DistrictId": 1, "Latitude": 22.78768, "Longitude": 120.29661, "IVRNo": 9565, "EXTVoiceNo": 9129, "traveltime": 0, "holidayTraveltime": 0}, {"Id": "0123", "pgp": 0, "GoBack": 1, "SID": 1328, "NameZh": "\u5ca1\u5c71\u96fb\u4fe1\u5c40", "RouteId": 878, "SeqNo": 6, "Terminal": 0, "DistrictId": 1, "Latitude": 22.784585, "Longitude": 120.296145, "IVRNo": 1278, "EXTVoiceNo": 123, "traveltime": 0, "holidayTraveltime": 0}, {"Id": "0126", "pgp": 0, "GoBack": 1, "SID": 1345, "NameZh": "\u5ca1\u5c71\u7a3d\u5fb5\u6240(\u570b\u7a05\u5c40)", "RouteId": 878, "SeqNo": 7, "Terminal": 0, "DistrictId": 1, "Latitude": 22.784582, "Longitude": 120.293866, "IVRNo": 8039, "EXTVoiceNo": 126, "traveltime": 0, "holidayTraveltime": 0}, {"Id": "1991", "pgp": 0, "GoBack": 1, "SID": 15461, "NameZh": "\u9192\u6751", "RouteId": 878, "SeqNo": 8, "Terminal": 0, "DistrictId": 1, "Latitude": 22.7845, "Longitude": 120.28429, "IVRNo": 11991, "EXTVoiceNo": 11991, "traveltime": 0, "holidayTraveltime": 0}, {"Id": "1144", "pgp": 0, "GoBack": 1, "SID": 15462, "NameZh": "\u5f8c\u5354", "RouteId": 878, "SeqNo": 9, "Terminal": 0, "DistrictId": 1, "Latitude": 22.784398, "Longitude": 120.282281, "IVRNo": 11144, "EXTVoiceNo": 11144, "traveltime": 0, "holidayTraveltime": 0}, {"Id": "0828", "pgp": 0, "GoBack": 1, "SID": 15463, "NameZh": "\u897f\u5f8c\u5354", "RouteId": 878, "SeqNo": 10, "Terminal": 0, "DistrictId": 1, "Latitude": 22.78442, "Longitude": 120.27648, "IVRNo": 10828, "EXTVoiceNo": 10828, "traveltime": 0, "holidayTraveltime": 0}, {"Id": "0862", "pgp": 0, "GoBack": 1, "SID": 15464, "NameZh": "\u9802\u6f6d\u8def\u53e3", "RouteId": 878, "SeqNo": 11, "Terminal": 0, "DistrictId": 1, "Latitude": 22.779186, "Longitude": 120.269806, "IVRNo": 862, "EXTVoiceNo": 862, "traveltime": 0, "holidayTraveltime": 0}, {"Id": "1868", "pgp": 0, "GoBack": 1, "SID": 15465, "NameZh": "\u798f\u8208\u91cc", "RouteId": 878, "SeqNo": 12, "Terminal": 0, "DistrictId": 1, "Latitude": 22.777165, "Longitude": 120.26914, "IVRNo": 11868, "EXTVoiceNo": 11868, "traveltime": 0, "holidayTraveltime": 0}, {"Id": "0724", "pgp": 0, "GoBack": 1, "SID": 15466, "NameZh": "\u77f3\u87ba\u6f6d", "RouteId": 878, "SeqNo": 13, "Terminal": 0, "DistrictId": 1, "Latitude": 22.772611, "Longitude": 120.268362, "IVRNo": 10724, "EXTVoiceNo": 10724, "traveltime": 0, "holidayTraveltime": 0}, {"Id": "1150", "pgp": 0, "GoBack": 1, "SID": 15467, "NameZh": "\u6625\u6728\u5de5\u5ee0", "RouteId": 878, "SeqNo": 14, "Terminal": 0, "DistrictId": 1, "Latitude": 22.76588, "Longitude": 120.26742, "IVRNo": 11150, "EXTVoiceNo": 11150, "traveltime": 0, "holidayTraveltime": 0}, {"Id": "0545", "pgp": 0, "GoBack": 1, "SID": 15468, "NameZh": "\u5317\u6893\u5b98", "RouteId": 878, "SeqNo": 15, "Terminal": 0, "DistrictId": 1, "Latitude": 22.76258, "Longitude": 120.26691, "IVRNo": 10545, "EXTVoiceNo": 10545, "traveltime": 0, "holidayTraveltime": 0}, {"Id": "7906", "pgp": 0, "GoBack": 1, "SID": 5344, "NameZh": "\u6893\u5b98\u5340\u516c\u6240", "RouteId": 878, "SeqNo": 16, "Terminal": 0, "DistrictId": 1, "Latitude": 22.760723, "Longitude": 120.266656, "IVRNo": 7906, "EXTVoiceNo": 7906, "traveltime": 0, "holidayTraveltime": 0}, {"Id": "7908", "pgp": 0, "GoBack": 1, "SID": 15469, "NameZh": "\u4fe1\u7fa9\u8def", "RouteId": 878, "SeqNo": 17, "Terminal": 0, "DistrictId": 1, "Latitude": 22.76225, "Longitude": 120.26274, "IVRNo": 7908, "EXTVoiceNo": 7908, "traveltime": 0, "holidayTraveltime": 0}, {"Id": "0535", "pgp": 0, "GoBack": 1, "SID": 15470, "NameZh": "\u5206\u6b67\u7ad9", "RouteId": 878, "SeqNo": 18, "Terminal": 0, "DistrictId": 1, "Latitude": 22.77105, "Longitude": 120.25768, "IVRNo": 535, "EXTVoiceNo": 535, "traveltime": 0, "holidayTraveltime": 0}, {"Id": "0014", "pgp": 0, "GoBack": 1, "SID": 15471, "NameZh": "\u4e8c\u9ad8", "RouteId": 878, "SeqNo": 19, "Terminal": 0, "DistrictId": 1, "Latitude": 22.7741, "Longitude": 120.25449, "IVRNo": 10033, "EXTVoiceNo": 20014, "traveltime": 0, "holidayTraveltime": 0}, {"Id": "7910", "pgp": 0, "GoBack": 1, "SID": 9603, "NameZh": "\u5f4c\u9640\u570b\u4e2d(\u4e2d\u6b63\u5357\u8def)", "RouteId": 878, "SeqNo": 20, "Terminal": 0, "DistrictId": 1, "Latitude": 22.77688, "Longitude": 120.2515, "IVRNo": 869, "EXTVoiceNo": 7910, "traveltime": 0, "holidayTraveltime": 0}, {"Id": "7911", "pgp": 0, "GoBack": 1, "SID": 5349, "NameZh": "\u5f4c\u9640\u5340\u516c\u6240", "RouteId": 878, "SeqNo": 21, "Terminal": 0, "DistrictId": 1, "Latitude": 22.780392, "Longitude": 120.249284, "IVRNo": 7911, "EXTVoiceNo": 7911, "traveltime": 0, "holidayTraveltime": 0}, {"Id": "7912", "pgp": 0, "GoBack": 1, "SID": 15474, "NameZh": "\u5f4c\u9640\u570b\u5c0f", "RouteId": 878, "SeqNo": 22, "Terminal": 0, "DistrictId": 1, "Latitude": 22.784217, "Longitude": 120.248039, "IVRNo": 7912, "EXTVoiceNo": 7912, "traveltime": 0, "holidayTraveltime": 0}, {"Id": "1191", "pgp": 0, "GoBack": 1, "SID": 15475, "NameZh": "\u4e2d\u6b63\u897f\u8def", "RouteId": 878, "SeqNo": 23, "Terminal": 0, "DistrictId": 1, "Latitude": 22.7824, "Longitude": 120.24693, "IVRNo": 10278, "EXTVoiceNo": 21191, "traveltime": 0, "holidayTraveltime": 0}, {"Id": "2034", "pgp": 0, "GoBack": 1, "SID": 15476, "NameZh": "\u5f4c\u58fd\u5bae", "RouteId": 878, "SeqNo": 24, "Terminal": 0, "DistrictId": 1, "Latitude": 22.7784, "Longitude": 120.24735, "IVRNo": 12034, "EXTVoiceNo": 12034, "traveltime": 0, "holidayTraveltime": 0}, {"Id": "0366", "pgp": 0, "GoBack": 1, "SID": 15477, "NameZh": "\u5f4c\u9640\u570b\u4e2d(\u9032\u5b78\u8def)", "RouteId": 878, "SeqNo": 25, "Terminal": 0, "DistrictId": 1, "Latitude": 22.776116, "Longitude": 120.246703, "IVRNo": 2352, "EXTVoiceNo": 366, "traveltime": 0, "holidayTraveltime": 0}, {"Id": "1854", "pgp": 0, "GoBack": 1, "SID": 15478, "NameZh": "\u6f2f\u5e95\u8def", "RouteId": 878, "SeqNo": 26, "Terminal": 0, "DistrictId": 1, "Latitude": 22.76918, "Longitude": 120.24483, "IVRNo": 11854, "EXTVoiceNo": 11854, "traveltime": 0, "holidayTraveltime": 0}, {"Id": "1257", "pgp": 0, "GoBack": 1, "SID": 15479, "NameZh": "\u9802\u539d(\u5f4c\u9640)", "RouteId": 878, "SeqNo": 27, "Terminal": 0, "DistrictId": 1, "Latitude": 22.76542, "Longitude": 120.24348, "IVRNo": 1257, "EXTVoiceNo": 1257, "traveltime": 0, "holidayTraveltime": 0}, {"Id": "0871", "pgp": 0, "GoBack": 1, "SID": 15480, "NameZh": "\u5357\u5929\u5bae(\u5f4c\u9640)", "RouteId": 878, "SeqNo": 28, "Terminal": 0, "DistrictId": 1, "Latitude": 22.76073, "Longitude": 120.2385, "IVRNo": 871, "EXTVoiceNo": 871, "traveltime": 0, "holidayTraveltime": 0}, {"Id": "1102", "pgp": 0, "GoBack": 1, "SID": 15481, "NameZh": "\u5357\u5bee", "RouteId": 878, "SeqNo": 29, "Terminal": 1, "DistrictId": 1, "Latitude": 22.76021, "Longitude": 120.23667, "IVRNo": 11102, "EXTVoiceNo": 11102, "traveltime": 0, "holidayTraveltime": 0}, {"Id": "1102", "pgp": 0, "GoBack": 2, "SID": 15482, "NameZh": "\u5357\u5bee", "RouteId": 878, "SeqNo": 1, "Terminal": 0, "DistrictId": 1, "Latitude": 22.76029, "Longitude": 120.23684, "IVRNo": 11102, "EXTVoiceNo": 11102, "traveltime": 0, "holidayTraveltime": 0}, {"Id": "0871", "pgp": 0, "GoBack": 2, "SID": 15483, "NameZh": "\u5357\u5929\u5bae(\u5f4c\u9640)", "RouteId": 878, "SeqNo": 2, "Terminal": 0, "DistrictId": 1, "Latitude": 22.7607, "Longitude": 120.23869, "IVRNo": 871, "EXTVoiceNo": 871, "traveltime": 0, "holidayTraveltime": 0}, {"Id": "1257", "pgp": 0, "GoBack": 2, "SID": 15484, "NameZh": "\u9802\u539d(\u5f4c\u9640)", "RouteId": 878, "SeqNo": 3, "Terminal": 0, "DistrictId": 1, "Latitude": 22.76546, "Longitude": 120.24342, "IVRNo": 1257, "EXTVoiceNo": 1257, "traveltime": 0, "holidayTraveltime": 0}, {"Id": "1854", "pgp": 0, "GoBack": 2, "SID": 15485, "NameZh": "\u6f2f\u5e95\u8def", "RouteId": 878, "SeqNo": 4, "Terminal": 0, "DistrictId": 1, "Latitude": 22.76928, "Longitude": 120.24491, "IVRNo": 11854, "EXTVoiceNo": 11854, "traveltime": 0, "holidayTraveltime": 0}, {"Id": "0366", "pgp": 0, "GoBack": 2, "SID": 15486, "NameZh": "\u5f4c\u9640\u570b\u4e2d(\u9032\u5b78\u8def)", "RouteId": 878, "SeqNo": 5, "Terminal": 0, "DistrictId": 1, "Latitude": 22.77607, "Longitude": 120.24689, "IVRNo": 2352, "EXTVoiceNo": 366, "traveltime": 0, "holidayTraveltime": 0}, {"Id": "2034", "pgp": 0, "GoBack": 2, "SID": 15487, "NameZh": "\u5f4c\u58fd\u5bae", "RouteId": 878, "SeqNo": 6, "Terminal": 0, "DistrictId": 1, "Latitude": 22.77852, "Longitude": 120.2474, "IVRNo": 12034, "EXTVoiceNo": 12034, "traveltime": 0, "holidayTraveltime": 0}, {"Id": "1191", "pgp": 0, "GoBack": 2, "SID": 15488, "NameZh": "\u4e2d\u6b63\u897f\u8def", "RouteId": 878, "SeqNo": 7, "Terminal": 0, "DistrictId": 1, "Latitude": 22.782431, "Longitude": 120.246973, "IVRNo": 10278, "EXTVoiceNo": 21191, "traveltime": 0, "holidayTraveltime": 0}, {"Id": "7912", "pgp": 0, "GoBack": 2, "SID": 15489, "NameZh": "\u5f4c\u9640\u570b\u5c0f", "RouteId": 878, "SeqNo": 8, "Terminal": 0, "DistrictId": 1, "Latitude": 22.78417, "Longitude": 120.24792, "IVRNo": 7912, "EXTVoiceNo": 7912, "traveltime": 0, "holidayTraveltime": 0}, {"Id": "7911", "pgp": 0, "GoBack": 2, "SID": 5352, "NameZh": "\u5f4c\u9640\u5340\u516c\u6240", "RouteId": 878, "SeqNo": 9, "Terminal": 0, "DistrictId": 1, "Latitude": 22.780392, "Longitude": 120.249284, "IVRNo": 7911, "EXTVoiceNo": 7911, "traveltime": 0, "holidayTraveltime": 0}, {"Id": "7910", "pgp": 0, "GoBack": 2, "SID": 9622, "NameZh": "\u5f4c\u9640\u570b\u4e2d(\u4e2d\u6b63\u5357\u8def)", "RouteId": 878, "SeqNo": 10, "Terminal": 0, "DistrictId": 1, "Latitude": 22.77745, "Longitude": 120.2509, "IVRNo": 869, "EXTVoiceNo": 7910, "traveltime": 0, "holidayTraveltime": 0}, {"Id": "0014", "pgp": 0, "GoBack": 2, "SID": 15492, "NameZh": "\u4e8c\u9ad8", "RouteId": 878, "SeqNo": 11, "Terminal": 0, "DistrictId": 1, "Latitude": 22.77394, "Longitude": 120.25437, "IVRNo": 10033, "EXTVoiceNo": 20014, "traveltime": 0, "holidayTraveltime": 0}, {"Id": "0535", "pgp": 0, "GoBack": 2, "SID": 15493, "NameZh": "\u5206\u6b67\u7ad9", "RouteId": 878, "SeqNo": 12, "Terminal": 0, "DistrictId": 1, "Latitude": 22.77039, "Longitude": 120.25809, "IVRNo": 535, "EXTVoiceNo": 535, "traveltime": 0, "holidayTraveltime": 0}, {"Id": "7908", "pgp": 0, "GoBack": 2, "SID": 15494, "NameZh": "\u4fe1\u7fa9\u8def", "RouteId": 878, "SeqNo": 13, "Terminal": 0, "DistrictId": 1, "Latitude": 22.762131, "Longitude": 120.262398, "IVRNo": 7908, "EXTVoiceNo": 7908, "traveltime": 0, "holidayTraveltime": 0}, {"Id": "7906", "pgp": 0, "GoBack": 2, "SID": 5357, "NameZh": "\u6893\u5b98\u5340\u516c\u6240", "RouteId": 878, "SeqNo": 14, "Terminal": 0, "DistrictId": 1, "Latitude": 22.760694, "Longitude": 120.266658, "IVRNo": 7906, "EXTVoiceNo": 7906, "traveltime": 0, "holidayTraveltime": 0}, {"Id": "0545", "pgp": 0, "GoBack": 2, "SID": 15495, "NameZh": "\u5317\u6893\u5b98", "RouteId": 878, "SeqNo": 15, "Terminal": 0, "DistrictId": 1, "Latitude": 22.76245, "Longitude": 120.26677, "IVRNo": 10545, "EXTVoiceNo": 10545, "traveltime": 0, "holidayTraveltime": 0}, {"Id": "1150", "pgp": 0, "GoBack": 2, "SID": 15496, "NameZh": "\u6625\u6728\u5de5\u5ee0", "RouteId": 878, "SeqNo": 16, "Terminal": 0, "DistrictId": 1, "Latitude": 22.76576, "Longitude": 120.26725, "IVRNo": 11150, "EXTVoiceNo": 11150, "traveltime": 0, "holidayTraveltime": 0}, {"Id": "0724", "pgp": 0, "GoBack": 2, "SID": 15497, "NameZh": "\u77f3\u87ba\u6f6d", "RouteId": 878, "SeqNo": 17, "Terminal": 0, "DistrictId": 1, "Latitude": 22.77259, "Longitude": 120.26851, "IVRNo": 10724, "EXTVoiceNo": 10724, "traveltime": 0, "holidayTraveltime": 0}, {"Id": "1868", "pgp": 0, "GoBack": 2, "SID": 15498, "NameZh": "\u798f\u8208\u91cc", "RouteId": 878, "SeqNo": 18, "Terminal": 0, "DistrictId": 1, "Latitude": 22.77714, "Longitude": 120.26924, "IVRNo": 11868, "EXTVoiceNo": 11868, "traveltime": 0, "holidayTraveltime": 0}, {"Id": "0862", "pgp": 0, "GoBack": 2, "SID": 15499, "NameZh": "\u9802\u6f6d\u8def\u53e3", "RouteId": 878, "SeqNo": 19, "Terminal": 0, "DistrictId": 1, "Latitude": 22.779137, "Longitude": 120.26983, "IVRNo": 862, "EXTVoiceNo": 862, "traveltime": 0, "holidayTraveltime": 0}, {"Id": "0828", "pgp": 0, "GoBack": 2, "SID": 15500, "NameZh": "\u897f\u5f8c\u5354", "RouteId": 878, "SeqNo": 20, "Terminal": 0, "DistrictId": 1, "Latitude": 22.78425, "Longitude": 120.27648, "IVRNo": 10828, "EXTVoiceNo": 10828, "traveltime": 0, "holidayTraveltime": 0}, {"Id": "1144", "pgp": 0, "GoBack": 2, "SID": 15501, "NameZh": "\u5f8c\u5354", "RouteId": 878, "SeqNo": 21, "Terminal": 0, "DistrictId": 1, "Latitude": 22.78423, "Longitude": 120.28229, "IVRNo": 11144, "EXTVoiceNo": 11144, "traveltime": 0, "holidayTraveltime": 0}, {"Id": "1991", "pgp": 0, "GoBack": 2, "SID": 15502, "NameZh": "\u9192\u6751", "RouteId": 878, "SeqNo": 22, "Terminal": 0, "DistrictId": 1, "Latitude": 22.78436, "Longitude": 120.2841, "IVRNo": 11991, "EXTVoiceNo": 11991, "traveltime": 0, "holidayTraveltime": 0}, {"Id": "0126", "pgp": 0, "GoBack": 2, "SID": 1496, "NameZh": "\u5ca1\u5c71\u7a3d\u5fb5\u6240(\u570b\u7a05\u5c40)", "RouteId": 878, "SeqNo": 23, "Terminal": 0, "DistrictId": 1, "Latitude": 22.78452, "Longitude": 120.293937, "IVRNo": 8039, "EXTVoiceNo": 126, "traveltime": 0, "holidayTraveltime": 0}, {"Id": "0123", "pgp": 0, "GoBack": 2, "SID": 1337, "NameZh": "\u5ca1\u5c71\u96fb\u4fe1\u5c40", "RouteId": 878, "SeqNo": 24, "Terminal": 0, "DistrictId": 1, "Latitude": 22.784543, "Longitude": 120.295911, "IVRNo": 1278, "EXTVoiceNo": 123, "traveltime": 0, "holidayTraveltime": 0}, {"Id": "9129", "pgp": 0, "GoBack": 2, "SID": 12419, "NameZh": "\u6587\u5316\u8857\u53e3", "RouteId": 878, "SeqNo": 25, "Terminal": 0, "DistrictId": 1, "Latitude": 22.788516, "Longitude": 120.296634, "IVRNo": 9565, "EXTVoiceNo": 9129, "traveltime": 0, "holidayTraveltime": 0}, {"Id": "6151", "pgp": 0, "GoBack": 2, "SID": 11551, "NameZh": "\u52f5\u5fd7\u65b0\u57ce", "RouteId": 878, "SeqNo": 26, "Terminal": 0, "DistrictId": 1, "Latitude": 22.790276, "Longitude": 120.296366, "IVRNo": 9281, "EXTVoiceNo": 26151, "traveltime": 0, "holidayTraveltime": 0}, {"Id": "0731", "pgp": 0, "GoBack": 2, "SID": 16960, "NameZh": "\u79fb\u6c11\u7f72", "RouteId": 878, "SeqNo": 27, "Terminal": 0, "DistrictId": 1, "Latitude": 22.79138, "Longitude": 120.29621, "IVRNo": 9214, "EXTVoiceNo": 20731, "traveltime": 0, "holidayTraveltime": 0}, {"Id": "0832", "pgp": 0, "GoBack": 2, "SID": 13335, "NameZh": "\u5ca1\u5c71\u8f49\u904b\u7ad9(\u5ca1\u5c71\u706b\u8eca\u7ad9)", "RouteId": 878, "SeqNo": 28, "Terminal": 0, "DistrictId": 1, "Latitude": 22.79233, "Longitude": 120.299444, "IVRNo": 832, "EXTVoiceNo": 832, "traveltime": 0, "holidayTraveltime": 0}, {"Id": "0828", "pgp": 0, "GoBack": 2, "SID": 6471, "NameZh": "\u6377\u904b\u5357\u5ca1\u5c71\u7ad9", "RouteId": 878, "SeqNo": 29, "Terminal": 1, "DistrictId": 1, "Latitude": 22.780347, "Longitude": 120.300666, "IVRNo": 828, "EXTVoiceNo": 828, "traveltime": 0, "holidayTraveltime": 0}]}