{"en": [{"Id": "0083", "pgp": 0, "GoBack": 1, "SID": 8320, "NameZh": "KBus Fongshan Station (Jhongshan Rd.)", "RouteId": 23, "SeqNo": 1, "Terminal": 0, "DistrictId": 1, "Latitude": 22.624152, "Longitude": 120.357032, "IVRNo": 727, "EXTVoiceNo": 83, "traveltime": 0, "holidayTraveltime": 0}, {"Id": "9201", "pgp": 0, "GoBack": 1, "SID": 9800, "NameZh": "Caogong Rd.", "RouteId": 23, "SeqNo": 2, "Terminal": 0, "DistrictId": 1, "Latitude": 22.628407, "Longitude": 120.357315, "IVRNo": 506, "EXTVoiceNo": 9201, "traveltime": 0, "holidayTraveltime": 0}, {"Id": "9202", "pgp": 0, "GoBack": 1, "SID": 9832, "NameZh": "TRA Fengshan Station", "RouteId": 23, "SeqNo": 3, "Terminal": 0, "DistrictId": 1, "Latitude": 22.630563, "Longitude": 120.357433, "IVRNo": 9709, "EXTVoiceNo": 9202, "traveltime": 0, "holidayTraveltime": 0}, {"Id": "9201", "pgp": 0, "GoBack": 1, "SID": 13797, "NameZh": "Caogong Rd.", "RouteId": 23, "SeqNo": 4, "Terminal": 0, "DistrictId": 1, "Latitude": 22.628343, "Longitude": 120.357147, "IVRNo": 506, "EXTVoiceNo": 9201, "traveltime": 0, "holidayTraveltime": 0}, {"Id": "9334", "pgp": 0, "GoBack": 1, "SID": 8321, "NameZh": "Guangyuan Rd.", "RouteId": 23, "SeqNo": 5, "Terminal": 0, "DistrictId": 1, "Latitude": 22.6261, "Longitude": 120.3585, "IVRNo": 178, "EXTVoiceNo": 9334, "traveltime": 0, "holidayTraveltime": 0}, {"Id": "9335", "pgp": 0, "GoBack": 1, "SID": 8322, "NameZh": "The Front of the Market", "RouteId": 23, "SeqNo": 6, "Terminal": 0, "DistrictId": 1, "Latitude": 22.62553, "Longitude": 120.36143, "IVRNo": 95, "EXTVoiceNo": 9335, "traveltime": 0, "holidayTraveltime": 0}, {"Id": "2099", "pgp": 0, "GoBack": 1, "SID": 19015, "NameZh": "Fongshan Transfer Station (MRT Dadong Station)", "RouteId": 23, "SeqNo": 7, "Terminal": 0, "DistrictId": 1, "Latitude": 22.625792, "Longitude": 120.363358, "IVRNo": 2099, "EXTVoiceNo": 2099, "traveltime": 0, "holidayTraveltime": 0}, {"Id": "1228", "pgp": 0, "GoBack": 1, "SID": 8324, "NameZh": "Livestock Market", "RouteId": 23, "SeqNo": 8, "Terminal": 0, "DistrictId": 1, "Latitude": 22.63271, "Longitude": 120.36386, "IVRNo": 9026, "EXTVoiceNo": 11228, "traveltime": 0, "holidayTraveltime": 0}, {"Id": "0953", "pgp": 0, "GoBack": 1, "SID": 8325, "NameZh": "Fongren New Village", "RouteId": 23, "SeqNo": 9, "Terminal": 0, "DistrictId": 1, "Latitude": 22.63433, "Longitude": 120.36676, "IVRNo": 9257, "EXTVoiceNo": 20953, "traveltime": 0, "holidayTraveltime": 0}, {"Id": "0684", "pgp": 0, "GoBack": 1, "SID": 8326, "NameZh": "Gaoci Industrial and Home Economics Vocational High School", "RouteId": 23, "SeqNo": 10, "Terminal": 0, "DistrictId": 1, "Latitude": 22.6359, "Longitude": 120.36975, "IVRNo": 9035, "EXTVoiceNo": 20684, "traveltime": 0, "holidayTraveltime": 0}, {"Id": "9019", "pgp": 0, "GoBack": 1, "SID": 8327, "NameZh": "Jinjishun Company", "RouteId": 23, "SeqNo": 11, "Terminal": 0, "DistrictId": 1, "Latitude": 22.63808, "Longitude": 120.37383, "IVRNo": 9018, "EXTVoiceNo": 9019, "traveltime": 0, "holidayTraveltime": 0}, {"Id": "0896", "pgp": 0, "GoBack": 1, "SID": 8328, "NameZh": "Ciaotai Company", "RouteId": 23, "SeqNo": 12, "Terminal": 0, "DistrictId": 1, "Latitude": 22.64111, "Longitude": 120.37941, "IVRNo": 9243, "EXTVoiceNo": 20896, "traveltime": 0, "holidayTraveltime": 0}, {"Id": "0420", "pgp": 0, "GoBack": 1, "SID": 8330, "NameZh": "Wu`s Plant", "RouteId": 23, "SeqNo": 13, "Terminal": 0, "DistrictId": 1, "Latitude": 22.6448, "Longitude": 120.38583, "IVRNo": 8982, "EXTVoiceNo": 20420, "traveltime": 0, "holidayTraveltime": 0}, {"Id": "9024", "pgp": 0, "GoBack": 1, "SID": 8331, "NameZh": "Nan Shan Life Insurance Co., Ltd.", "RouteId": 23, "SeqNo": 14, "Terminal": 0, "DistrictId": 1, "Latitude": 22.64635, "Longitude": 120.38871, "IVRNo": 9023, "EXTVoiceNo": 9024, "traveltime": 0, "holidayTraveltime": 0}, {"Id": "0366", "pgp": 0, "GoBack": 1, "SID": 8332, "NameZh": "Cyuanguo Gas Station", "RouteId": 23, "SeqNo": 15, "Terminal": 0, "DistrictId": 1, "Latitude": 22.65048, "Longitude": 120.39203, "IVRNo": 8959, "EXTVoiceNo": 20366, "traveltime": 0, "holidayTraveltime": 0}, {"Id": "0074", "pgp": 0, "GoBack": 1, "SID": 8333, "NameZh": "Renmei Community Center", "RouteId": 23, "SeqNo": 16, "Terminal": 0, "DistrictId": 1, "Latitude": 22.65356, "Longitude": 120.39376, "IVRNo": 966, "EXTVoiceNo": 74, "traveltime": 0, "holidayTraveltime": 0}, {"Id": "0184", "pgp": 0, "GoBack": 1, "SID": 8334, "NameZh": "Renmei", "RouteId": 23, "SeqNo": 17, "Terminal": 0, "DistrictId": 1, "Latitude": 22.65551, "Longitude": 120.39413, "IVRNo": 8918, "EXTVoiceNo": 20184, "traveltime": 0, "holidayTraveltime": 0}, {"Id": "8943", "pgp": 0, "GoBack": 1, "SID": 8335, "NameZh": "Renmei Elementary School", "RouteId": 23, "SeqNo": 18, "Terminal": 0, "DistrictId": 1, "Latitude": 22.658, "Longitude": 120.39441, "IVRNo": 9369, "EXTVoiceNo": 8943, "traveltime": 0, "holidayTraveltime": 0}, {"Id": "0783", "pgp": 0, "GoBack": 1, "SID": 8336, "NameZh": "Huamei", "RouteId": 23, "SeqNo": 19, "Terminal": 0, "DistrictId": 1, "Latitude": 22.65845, "Longitude": 120.39211, "IVRNo": 9225, "EXTVoiceNo": 20783, "traveltime": 0, "holidayTraveltime": 0}, {"Id": "9037", "pgp": 0, "GoBack": 1, "SID": 8337, "NameZh": "Gaoma Village", "RouteId": 23, "SeqNo": 20, "Terminal": 0, "DistrictId": 1, "Latitude": 22.65825, "Longitude": 120.38935, "IVRNo": 9037, "EXTVoiceNo": 9037, "traveltime": 0, "holidayTraveltime": 0}, {"Id": "8942", "pgp": 0, "GoBack": 1, "SID": 8338, "NameZh": "Dipu", "RouteId": 23, "SeqNo": 21, "Terminal": 0, "DistrictId": 1, "Latitude": 22.65831, "Longitude": 120.38503, "IVRNo": 9368, "EXTVoiceNo": 8942, "traveltime": 0, "holidayTraveltime": 0}, {"Id": "2632", "pgp": 0, "GoBack": 1, "SID": 8812, "NameZh": "Songbu Rd. Intersection (Yuanjhao Temple)", "RouteId": 23, "SeqNo": 22, "Terminal": 0, "DistrictId": 1, "Latitude": 22.659234, "Longitude": 120.380389, "IVRNo": 5690, "EXTVoiceNo": 2632, "traveltime": 0, "holidayTraveltime": 0}, {"Id": "1142", "pgp": 0, "GoBack": 1, "SID": 8340, "NameZh": "Community Center (Niaosong District)", "RouteId": 23, "SeqNo": 23, "Terminal": 0, "DistrictId": 1, "Latitude": 22.66063, "Longitude": 120.38066, "IVRNo": 1142, "EXTVoiceNo": 1142, "traveltime": 0, "holidayTraveltime": 0}, {"Id": "9013", "pgp": 0, "GoBack": 1, "SID": 8341, "NameZh": "Yuanjhao Temple", "RouteId": 23, "SeqNo": 24, "Terminal": 0, "DistrictId": 1, "Latitude": 22.66266, "Longitude": 120.38225, "IVRNo": 8965, "EXTVoiceNo": 9013, "traveltime": 0, "holidayTraveltime": 0}, {"Id": "9013", "pgp": 0, "GoBack": 2, "SID": 8343, "NameZh": "Yuanjhao Temple", "RouteId": 23, "SeqNo": 1, "Terminal": 0, "DistrictId": 1, "Latitude": 22.66269, "Longitude": 120.382256, "IVRNo": 8965, "EXTVoiceNo": 9013, "traveltime": 0, "holidayTraveltime": 0}, {"Id": "1142", "pgp": 0, "GoBack": 2, "SID": 8342, "NameZh": "Community Center (Niaosong District)", "RouteId": 23, "SeqNo": 2, "Terminal": 0, "DistrictId": 1, "Latitude": 22.66068, "Longitude": 120.38098, "IVRNo": 1142, "EXTVoiceNo": 1142, "traveltime": 0, "holidayTraveltime": 0}, {"Id": "2632", "pgp": 0, "GoBack": 2, "SID": 8820, "NameZh": "Songbu Rd. Intersection (Yuanjhao Temple)", "RouteId": 23, "SeqNo": 3, "Terminal": 0, "DistrictId": 1, "Latitude": 22.658836, "Longitude": 120.380865, "IVRNo": 5690, "EXTVoiceNo": 2632, "traveltime": 0, "holidayTraveltime": 0}, {"Id": "8942", "pgp": 0, "GoBack": 2, "SID": 8344, "NameZh": "Dipu", "RouteId": 23, "SeqNo": 4, "Terminal": 0, "DistrictId": 1, "Latitude": 22.65803, "Longitude": 120.38473, "IVRNo": 9368, "EXTVoiceNo": 8942, "traveltime": 0, "holidayTraveltime": 0}, {"Id": "9037", "pgp": 0, "GoBack": 2, "SID": 8345, "NameZh": "Gaoma Village", "RouteId": 23, "SeqNo": 5, "Terminal": 0, "DistrictId": 1, "Latitude": 22.65821, "Longitude": 120.38943, "IVRNo": 9037, "EXTVoiceNo": 9037, "traveltime": 0, "holidayTraveltime": 0}, {"Id": "0783", "pgp": 0, "GoBack": 2, "SID": 8346, "NameZh": "Huamei", "RouteId": 23, "SeqNo": 6, "Terminal": 0, "DistrictId": 1, "Latitude": 22.65841, "Longitude": 120.39191, "IVRNo": 9225, "EXTVoiceNo": 20783, "traveltime": 0, "holidayTraveltime": 0}, {"Id": "8943", "pgp": 0, "GoBack": 2, "SID": 8347, "NameZh": "Renmei Elementary School", "RouteId": 23, "SeqNo": 7, "Terminal": 0, "DistrictId": 1, "Latitude": 22.65798, "Longitude": 120.39418, "IVRNo": 9369, "EXTVoiceNo": 8943, "traveltime": 0, "holidayTraveltime": 0}, {"Id": "0184", "pgp": 0, "GoBack": 2, "SID": 8348, "NameZh": "Renmei", "RouteId": 23, "SeqNo": 8, "Terminal": 0, "DistrictId": 1, "Latitude": 22.65548, "Longitude": 120.39406, "IVRNo": 8918, "EXTVoiceNo": 20184, "traveltime": 0, "holidayTraveltime": 0}, {"Id": "0074", "pgp": 0, "GoBack": 2, "SID": 8349, "NameZh": "Renmei Community Center", "RouteId": 23, "SeqNo": 9, "Terminal": 0, "DistrictId": 1, "Latitude": 22.6537, "Longitude": 120.3938, "IVRNo": 966, "EXTVoiceNo": 74, "traveltime": 0, "holidayTraveltime": 0}, {"Id": "0366", "pgp": 0, "GoBack": 2, "SID": 8350, "NameZh": "Cyuanguo Gas Station", "RouteId": 23, "SeqNo": 10, "Terminal": 0, "DistrictId": 1, "Latitude": 22.65068, "Longitude": 120.39216, "IVRNo": 8959, "EXTVoiceNo": 20366, "traveltime": 0, "holidayTraveltime": 0}, {"Id": "9024", "pgp": 0, "GoBack": 2, "SID": 8351, "NameZh": "Nan Shan Life Insurance Co., Ltd.", "RouteId": 23, "SeqNo": 11, "Terminal": 0, "DistrictId": 1, "Latitude": 22.6464, "Longitude": 120.38876, "IVRNo": 9023, "EXTVoiceNo": 9024, "traveltime": 0, "holidayTraveltime": 0}, {"Id": "0420", "pgp": 0, "GoBack": 2, "SID": 8352, "NameZh": "Wu`s Plant", "RouteId": 23, "SeqNo": 12, "Terminal": 0, "DistrictId": 1, "Latitude": 22.64475, "Longitude": 120.3857, "IVRNo": 8982, "EXTVoiceNo": 20420, "traveltime": 0, "holidayTraveltime": 0}, {"Id": "0896", "pgp": 0, "GoBack": 2, "SID": 8354, "NameZh": "Ciaotai Company", "RouteId": 23, "SeqNo": 13, "Terminal": 0, "DistrictId": 1, "Latitude": 22.6411, "Longitude": 120.37935, "IVRNo": 9243, "EXTVoiceNo": 20896, "traveltime": 0, "holidayTraveltime": 0}, {"Id": "9019", "pgp": 0, "GoBack": 2, "SID": 8355, "NameZh": "Jinjishun Company", "RouteId": 23, "SeqNo": 14, "Terminal": 0, "DistrictId": 1, "Latitude": 22.63806, "Longitude": 120.37361, "IVRNo": 9018, "EXTVoiceNo": 9019, "traveltime": 0, "holidayTraveltime": 0}, {"Id": "0684", "pgp": 0, "GoBack": 2, "SID": 8356, "NameZh": "Gaoci Industrial and Home Economics Vocational High School", "RouteId": 23, "SeqNo": 15, "Terminal": 0, "DistrictId": 1, "Latitude": 22.63598, "Longitude": 120.36976, "IVRNo": 9035, "EXTVoiceNo": 20684, "traveltime": 0, "holidayTraveltime": 0}, {"Id": "0953", "pgp": 0, "GoBack": 2, "SID": 8357, "NameZh": "Fongren New Village", "RouteId": 23, "SeqNo": 16, "Terminal": 0, "DistrictId": 1, "Latitude": 22.63433, "Longitude": 120.36675, "IVRNo": 9257, "EXTVoiceNo": 20953, "traveltime": 0, "holidayTraveltime": 0}, {"Id": "1228", "pgp": 0, "GoBack": 2, "SID": 8358, "NameZh": "Livestock Market", "RouteId": 23, "SeqNo": 17, "Terminal": 0, "DistrictId": 1, "Latitude": 22.63281, "Longitude": 120.3639, "IVRNo": 9026, "EXTVoiceNo": 11228, "traveltime": 0, "holidayTraveltime": 0}, {"Id": "2099", "pgp": 0, "GoBack": 2, "SID": 19015, "NameZh": "Fongshan Transfer Station (MRT Dadong Station)", "RouteId": 23, "SeqNo": 18, "Terminal": 0, "DistrictId": 1, "Latitude": 22.625792, "Longitude": 120.363358, "IVRNo": 2099, "EXTVoiceNo": 2099, "traveltime": 0, "holidayTraveltime": 0}, {"Id": "9335", "pgp": 0, "GoBack": 2, "SID": 8360, "NameZh": "The Front of the Market", "RouteId": 23, "SeqNo": 19, "Terminal": 0, "DistrictId": 1, "Latitude": 22.62558, "Longitude": 120.36153, "IVRNo": 95, "EXTVoiceNo": 9335, "traveltime": 0, "holidayTraveltime": 0}, {"Id": "9334", "pgp": 0, "GoBack": 2, "SID": 8361, "NameZh": "Guangyuan Rd.", "RouteId": 23, "SeqNo": 20, "Terminal": 0, "DistrictId": 1, "Latitude": 22.62618, "Longitude": 120.35853, "IVRNo": 178, "EXTVoiceNo": 9334, "traveltime": 0, "holidayTraveltime": 0}, {"Id": "9201", "pgp": 0, "GoBack": 2, "SID": 6198, "NameZh": "Caogong Rd.", "RouteId": 23, "SeqNo": 21, "Terminal": 0, "DistrictId": 1, "Latitude": 22.628407, "Longitude": 120.357315, "IVRNo": 506, "EXTVoiceNo": 9201, "traveltime": 0, "holidayTraveltime": 0}, {"Id": "9202", "pgp": 0, "GoBack": 2, "SID": 8512, "NameZh": "TRA Fengshan Station", "RouteId": 23, "SeqNo": 22, "Terminal": 0, "DistrictId": 1, "Latitude": 22.630563, "Longitude": 120.357433, "IVRNo": 9709, "EXTVoiceNo": 9202, "traveltime": 0, "holidayTraveltime": 0}, {"Id": "9201", "pgp": 0, "GoBack": 2, "SID": 8547, "NameZh": "Caogong Rd.", "RouteId": 23, "SeqNo": 23, "Terminal": 0, "DistrictId": 1, "Latitude": 22.628343, "Longitude": 120.357147, "IVRNo": 506, "EXTVoiceNo": 9201, "traveltime": 0, "holidayTraveltime": 0}, {"Id": "0083", "pgp": 0, "GoBack": 2, "SID": 8362, "NameZh": "KBus Fongshan Station (Jhongshan Rd.)", "RouteId": 23, "SeqNo": 24, "Terminal": 1, "DistrictId": 1, "Latitude": 22.624152, "Longitude": 120.357032, "IVRNo": 727, "EXTVoiceNo": 83, "traveltime": 0, "holidayTraveltime": 0}], "zh": [{"Id": "0083", "pgp": 0, "GoBack": 1, "SID": 8320, "NameZh": "\u9ad8\u96c4\u5ba2\u904b\u9cf3\u5c71\u7ad9(\u4e2d\u5c71\u8def)", "RouteId": 23, "SeqNo": 1, "Terminal": 0, "DistrictId": 1, "Latitude": 22.624152, "Longitude": 120.357032, "IVRNo": 727, "EXTVoiceNo": 83, "traveltime": 0, "holidayTraveltime": 0}, {"Id": "9201", "pgp": 0, "GoBack": 1, "SID": 9800, "NameZh": "\u66f9\u516c\u8def", "RouteId": 23, "SeqNo": 2, "Terminal": 0, "DistrictId": 1, "Latitude": 22.628407, "Longitude": 120.357315, "IVRNo": 506, "EXTVoiceNo": 9201, "traveltime": 0, "holidayTraveltime": 0}, {"Id": "9202", "pgp": 0, "GoBack": 1, "SID": 9832, "NameZh": "\u81fa\u9435\u9cf3\u5c71\u7ad9", "RouteId": 23, "SeqNo": 3, "Terminal": 0, "DistrictId": 1, "Latitude": 22.630563, "Longitude": 120.357433, "IVRNo": 9709, "EXTVoiceNo": 9202, "traveltime": 0, "holidayTraveltime": 0}, {"Id": "9201", "pgp": 0, "GoBack": 1, "SID": 13797, "NameZh": "\u66f9\u516c\u8def", "RouteId": 23, "SeqNo": 4, "Terminal": 0, "DistrictId": 1, "Latitude": 22.628343, "Longitude": 120.357147, "IVRNo": 506, "EXTVoiceNo": 9201, "traveltime": 0, "holidayTraveltime": 0}, {"Id": "9334", "pgp": 0, "GoBack": 1, "SID": 8321, "NameZh": "\u5149\u9060\u8def", "RouteId": 23, "SeqNo": 5, "Terminal": 0, "DistrictId": 1, "Latitude": 22.6261, "Longitude": 120.3585, "IVRNo": 178, "EXTVoiceNo": 9334, "traveltime": 0, "holidayTraveltime": 0}, {"Id": "9335", "pgp": 0, "GoBack": 1, "SID": 8322, "NameZh": "\u5e02\u5834\u524d", "RouteId": 23, "SeqNo": 6, "Terminal": 0, "DistrictId": 1, "Latitude": 22.62553, "Longitude": 120.36143, "IVRNo": 95, "EXTVoiceNo": 9335, "traveltime": 0, "holidayTraveltime": 0}, {"Id": "2099", "pgp": 0, "GoBack": 1, "SID": 19015, "NameZh": "\u9cf3\u5c71\u8f49\u904b\u7ad9(\u6377\u904b\u5927\u6771\u7ad9)", "RouteId": 23, "SeqNo": 7, "Terminal": 0, "DistrictId": 1, "Latitude": 22.625792, "Longitude": 120.363358, "IVRNo": 2099, "EXTVoiceNo": 2099, "traveltime": 0, "holidayTraveltime": 0}, {"Id": "1228", "pgp": 0, "GoBack": 1, "SID": 8324, "NameZh": "\u5bb6\u755c\u5e02\u5834", "RouteId": 23, "SeqNo": 8, "Terminal": 0, "DistrictId": 1, "Latitude": 22.63271, "Longitude": 120.36386, "IVRNo": 9026, "EXTVoiceNo": 11228, "traveltime": 0, "holidayTraveltime": 0}, {"Id": "0953", "pgp": 0, "GoBack": 1, "SID": 8325, "NameZh": "\u9cf3\u4ec1\u65b0\u6751", "RouteId": 23, "SeqNo": 9, "Terminal": 0, "DistrictId": 1, "Latitude": 22.63433, "Longitude": 120.36676, "IVRNo": 9257, "EXTVoiceNo": 20953, "traveltime": 0, "holidayTraveltime": 0}, {"Id": "0684", "pgp": 0, "GoBack": 1, "SID": 8326, "NameZh": "\u9ad8\u65d7\u5de5\u5bb6", "RouteId": 23, "SeqNo": 10, "Terminal": 0, "DistrictId": 1, "Latitude": 22.6359, "Longitude": 120.36975, "IVRNo": 9035, "EXTVoiceNo": 20684, "traveltime": 0, "holidayTraveltime": 0}, {"Id": "9019", "pgp": 0, "GoBack": 1, "SID": 8327, "NameZh": "\u91d1\u5409\u9806\u516c\u53f8", "RouteId": 23, "SeqNo": 11, "Terminal": 0, "DistrictId": 1, "Latitude": 22.63808, "Longitude": 120.37383, "IVRNo": 9018, "EXTVoiceNo": 9019, "traveltime": 0, "holidayTraveltime": 0}, {"Id": "0896", "pgp": 0, "GoBack": 1, "SID": 8328, "NameZh": "\u50d1\u6cf0\u516c\u53f8", "RouteId": 23, "SeqNo": 12, "Terminal": 0, "DistrictId": 1, "Latitude": 22.64111, "Longitude": 120.37941, "IVRNo": 9243, "EXTVoiceNo": 20896, "traveltime": 0, "holidayTraveltime": 0}, {"Id": "0420", "pgp": 0, "GoBack": 1, "SID": 8330, "NameZh": "\u5433\u8a18\u5de5\u5ee0", "RouteId": 23, "SeqNo": 13, "Terminal": 0, "DistrictId": 1, "Latitude": 22.6448, "Longitude": 120.38583, "IVRNo": 8982, "EXTVoiceNo": 20420, "traveltime": 0, "holidayTraveltime": 0}, {"Id": "9024", "pgp": 0, "GoBack": 1, "SID": 8331, "NameZh": "\u5357\u5c71\u516c\u53f8", "RouteId": 23, "SeqNo": 14, "Terminal": 0, "DistrictId": 1, "Latitude": 22.64635, "Longitude": 120.38871, "IVRNo": 9023, "EXTVoiceNo": 9024, "traveltime": 0, "holidayTraveltime": 0}, {"Id": "0366", "pgp": 0, "GoBack": 1, "SID": 8332, "NameZh": "\u5168\u570b\u52a0\u6cb9\u7ad9", "RouteId": 23, "SeqNo": 15, "Terminal": 0, "DistrictId": 1, "Latitude": 22.65048, "Longitude": 120.39203, "IVRNo": 8959, "EXTVoiceNo": 20366, "traveltime": 0, "holidayTraveltime": 0}, {"Id": "0074", "pgp": 0, "GoBack": 1, "SID": 8333, "NameZh": "\u4ec1\u7f8e\u6d3b\u52d5\u4e2d\u5fc3", "RouteId": 23, "SeqNo": 16, "Terminal": 0, "DistrictId": 1, "Latitude": 22.65356, "Longitude": 120.39376, "IVRNo": 966, "EXTVoiceNo": 74, "traveltime": 0, "holidayTraveltime": 0}, {"Id": "0184", "pgp": 0, "GoBack": 1, "SID": 8334, "NameZh": "\u4ec1\u7f8e", "RouteId": 23, "SeqNo": 17, "Terminal": 0, "DistrictId": 1, "Latitude": 22.65551, "Longitude": 120.39413, "IVRNo": 8918, "EXTVoiceNo": 20184, "traveltime": 0, "holidayTraveltime": 0}, {"Id": "8943", "pgp": 0, "GoBack": 1, "SID": 8335, "NameZh": "\u4ec1\u7f8e\u570b\u5c0f", "RouteId": 23, "SeqNo": 18, "Terminal": 0, "DistrictId": 1, "Latitude": 22.658, "Longitude": 120.39441, "IVRNo": 9369, "EXTVoiceNo": 8943, "traveltime": 0, "holidayTraveltime": 0}, {"Id": "0783", "pgp": 0, "GoBack": 1, "SID": 8336, "NameZh": "\u83ef\u7f8e", "RouteId": 23, "SeqNo": 19, "Terminal": 0, "DistrictId": 1, "Latitude": 22.65845, "Longitude": 120.39211, "IVRNo": 9225, "EXTVoiceNo": 20783, "traveltime": 0, "holidayTraveltime": 0}, {"Id": "9037", "pgp": 0, "GoBack": 1, "SID": 8337, "NameZh": "\u9ad8\u78bc\u5c71\u838a", "RouteId": 23, "SeqNo": 20, "Terminal": 0, "DistrictId": 1, "Latitude": 22.65825, "Longitude": 120.38935, "IVRNo": 9037, "EXTVoiceNo": 9037, "traveltime": 0, "holidayTraveltime": 0}, {"Id": "8942", "pgp": 0, "GoBack": 1, "SID": 8338, "NameZh": "\u5754\u57d4", "RouteId": 23, "SeqNo": 21, "Terminal": 0, "DistrictId": 1, "Latitude": 22.65831, "Longitude": 120.38503, "IVRNo": 9368, "EXTVoiceNo": 8942, "traveltime": 0, "holidayTraveltime": 0}, {"Id": "2632", "pgp": 0, "GoBack": 1, "SID": 8812, "NameZh": "\u677e\u57d4\u8def\u53e3(\u5713\u7167\u5bfa)", "RouteId": 23, "SeqNo": 22, "Terminal": 0, "DistrictId": 1, "Latitude": 22.659234, "Longitude": 120.380389, "IVRNo": 5690, "EXTVoiceNo": 2632, "traveltime": 0, "holidayTraveltime": 0}, {"Id": "1142", "pgp": 0, "GoBack": 1, "SID": 8340, "NameZh": "\u6d3b\u52d5\u4e2d\u5fc3(\u9ce5\u677e\u5340)", "RouteId": 23, "SeqNo": 23, "Terminal": 0, "DistrictId": 1, "Latitude": 22.66063, "Longitude": 120.38066, "IVRNo": 1142, "EXTVoiceNo": 1142, "traveltime": 0, "holidayTraveltime": 0}, {"Id": "9013", "pgp": 0, "GoBack": 1, "SID": 8341, "NameZh": "\u5713\u7167\u5bfa", "RouteId": 23, "SeqNo": 24, "Terminal": 0, "DistrictId": 1, "Latitude": 22.66266, "Longitude": 120.38225, "IVRNo": 8965, "EXTVoiceNo": 9013, "traveltime": 0, "holidayTraveltime": 0}, {"Id": "9013", "pgp": 0, "GoBack": 2, "SID": 8343, "NameZh": "\u5713\u7167\u5bfa", "RouteId": 23, "SeqNo": 1, "Terminal": 0, "DistrictId": 1, "Latitude": 22.66269, "Longitude": 120.382256, "IVRNo": 8965, "EXTVoiceNo": 9013, "traveltime": 0, "holidayTraveltime": 0}, {"Id": "1142", "pgp": 0, "GoBack": 2, "SID": 8342, "NameZh": "\u6d3b\u52d5\u4e2d\u5fc3(\u9ce5\u677e\u5340)", "RouteId": 23, "SeqNo": 2, "Terminal": 0, "DistrictId": 1, "Latitude": 22.66068, "Longitude": 120.38098, "IVRNo": 1142, "EXTVoiceNo": 1142, "traveltime": 0, "holidayTraveltime": 0}, {"Id": "2632", "pgp": 0, "GoBack": 2, "SID": 8820, "NameZh": "\u677e\u57d4\u8def\u53e3(\u5713\u7167\u5bfa)", "RouteId": 23, "SeqNo": 3, "Terminal": 0, "DistrictId": 1, "Latitude": 22.658836, "Longitude": 120.380865, "IVRNo": 5690, "EXTVoiceNo": 2632, "traveltime": 0, "holidayTraveltime": 0}, {"Id": "8942", "pgp": 0, "GoBack": 2, "SID": 8344, "NameZh": "\u5754\u57d4", "RouteId": 23, "SeqNo": 4, "Terminal": 0, "DistrictId": 1, "Latitude": 22.65803, "Longitude": 120.38473, "IVRNo": 9368, "EXTVoiceNo": 8942, "traveltime": 0, "holidayTraveltime": 0}, {"Id": "9037", "pgp": 0, "GoBack": 2, "SID": 8345, "NameZh": "\u9ad8\u78bc\u5c71\u838a", "RouteId": 23, "SeqNo": 5, "Terminal": 0, "DistrictId": 1, "Latitude": 22.65821, "Longitude": 120.38943, "IVRNo": 9037, "EXTVoiceNo": 9037, "traveltime": 0, "holidayTraveltime": 0}, {"Id": "0783", "pgp": 0, "GoBack": 2, "SID": 8346, "NameZh": "\u83ef\u7f8e", "RouteId": 23, "SeqNo": 6, "Terminal": 0, "DistrictId": 1, "Latitude": 22.65841, "Longitude": 120.39191, "IVRNo": 9225, "EXTVoiceNo": 20783, "traveltime": 0, "holidayTraveltime": 0}, {"Id": "8943", "pgp": 0, "GoBack": 2, "SID": 8347, "NameZh": "\u4ec1\u7f8e\u570b\u5c0f", "RouteId": 23, "SeqNo": 7, "Terminal": 0, "DistrictId": 1, "Latitude": 22.65798, "Longitude": 120.39418, "IVRNo": 9369, "EXTVoiceNo": 8943, "traveltime": 0, "holidayTraveltime": 0}, {"Id": "0184", "pgp": 0, "GoBack": 2, "SID": 8348, "NameZh": "\u4ec1\u7f8e", "RouteId": 23, "SeqNo": 8, "Terminal": 0, "DistrictId": 1, "Latitude": 22.65548, "Longitude": 120.39406, "IVRNo": 8918, "EXTVoiceNo": 20184, "traveltime": 0, "holidayTraveltime": 0}, {"Id": "0074", "pgp": 0, "GoBack": 2, "SID": 8349, "NameZh": "\u4ec1\u7f8e\u6d3b\u52d5\u4e2d\u5fc3", "RouteId": 23, "SeqNo": 9, "Terminal": 0, "DistrictId": 1, "Latitude": 22.6537, "Longitude": 120.3938, "IVRNo": 966, "EXTVoiceNo": 74, "traveltime": 0, "holidayTraveltime": 0}, {"Id": "0366", "pgp": 0, "GoBack": 2, "SID": 8350, "NameZh": "\u5168\u570b\u52a0\u6cb9\u7ad9", "RouteId": 23, "SeqNo": 10, "Terminal": 0, "DistrictId": 1, "Latitude": 22.65068, "Longitude": 120.39216, "IVRNo": 8959, "EXTVoiceNo": 20366, "traveltime": 0, "holidayTraveltime": 0}, {"Id": "9024", "pgp": 0, "GoBack": 2, "SID": 8351, "NameZh": "\u5357\u5c71\u516c\u53f8", "RouteId": 23, "SeqNo": 11, "Terminal": 0, "DistrictId": 1, "Latitude": 22.6464, "Longitude": 120.38876, "IVRNo": 9023, "EXTVoiceNo": 9024, "traveltime": 0, "holidayTraveltime": 0}, {"Id": "0420", "pgp": 0, "GoBack": 2, "SID": 8352, "NameZh": "\u5433\u8a18\u5de5\u5ee0", "RouteId": 23, "SeqNo": 12, "Terminal": 0, "DistrictId": 1, "Latitude": 22.64475, "Longitude": 120.3857, "IVRNo": 8982, "EXTVoiceNo": 20420, "traveltime": 0, "holidayTraveltime": 0}, {"Id": "0896", "pgp": 0, "GoBack": 2, "SID": 8354, "NameZh": "\u50d1\u6cf0\u516c\u53f8", "RouteId": 23, "SeqNo": 13, "Terminal": 0, "DistrictId": 1, "Latitude": 22.6411, "Longitude": 120.37935, "IVRNo": 9243, "EXTVoiceNo": 20896, "traveltime": 0, "holidayTraveltime": 0}, {"Id": "9019", "pgp": 0, "GoBack": 2, "SID": 8355, "NameZh": "\u91d1\u5409\u9806\u516c\u53f8", "RouteId": 23, "SeqNo": 14, "Terminal": 0, "DistrictId": 1, "Latitude": 22.63806, "Longitude": 120.37361, "IVRNo": 9018, "EXTVoiceNo": 9019, "traveltime": 0, "holidayTraveltime": 0}, {"Id": "0684", "pgp": 0, "GoBack": 2, "SID": 8356, "NameZh": "\u9ad8\u65d7\u5de5\u5bb6", "RouteId": 23, "SeqNo": 15, "Terminal": 0, "DistrictId": 1, "Latitude": 22.63598, "Longitude": 120.36976, "IVRNo": 9035, "EXTVoiceNo": 20684, "traveltime": 0, "holidayTraveltime": 0}, {"Id": "0953", "pgp": 0, "GoBack": 2, "SID": 8357, "NameZh": "\u9cf3\u4ec1\u65b0\u6751", "RouteId": 23, "SeqNo": 16, "Terminal": 0, "DistrictId": 1, "Latitude": 22.63433, "Longitude": 120.36675, "IVRNo": 9257, "EXTVoiceNo": 20953, "traveltime": 0, "holidayTraveltime": 0}, {"Id": "1228", "pgp": 0, "GoBack": 2, "SID": 8358, "NameZh": "\u5bb6\u755c\u5e02\u5834", "RouteId": 23, "SeqNo": 17, "Terminal": 0, "DistrictId": 1, "Latitude": 22.63281, "Longitude": 120.3639, "IVRNo": 9026, "EXTVoiceNo": 11228, "traveltime": 0, "holidayTraveltime": 0}, {"Id": "2099", "pgp": 0, "GoBack": 2, "SID": 19015, "NameZh": "\u9cf3\u5c71\u8f49\u904b\u7ad9(\u6377\u904b\u5927\u6771\u7ad9)", "RouteId": 23, "SeqNo": 18, "Terminal": 0, "DistrictId": 1, "Latitude": 22.625792, "Longitude": 120.363358, "IVRNo": 2099, "EXTVoiceNo": 2099, "traveltime": 0, "holidayTraveltime": 0}, {"Id": "9335", "pgp": 0, "GoBack": 2, "SID": 8360, "NameZh": "\u5e02\u5834\u524d", "RouteId": 23, "SeqNo": 19, "Terminal": 0, "DistrictId": 1, "Latitude": 22.62558, "Longitude": 120.36153, "IVRNo": 95, "EXTVoiceNo": 9335, "traveltime": 0, "holidayTraveltime": 0}, {"Id": "9334", "pgp": 0, "GoBack": 2, "SID": 8361, "NameZh": "\u5149\u9060\u8def", "RouteId": 23, "SeqNo": 20, "Terminal": 0, "DistrictId": 1, "Latitude": 22.62618, "Longitude": 120.35853, "IVRNo": 178, "EXTVoiceNo": 9334, "traveltime": 0, "holidayTraveltime": 0}, {"Id": "9201", "pgp": 0, "GoBack": 2, "SID": 6198, "NameZh": "\u66f9\u516c\u8def", "RouteId": 23, "SeqNo": 21, "Terminal": 0, "DistrictId": 1, "Latitude": 22.628407, "Longitude": 120.357315, "IVRNo": 506, "EXTVoiceNo": 9201, "traveltime": 0, "holidayTraveltime": 0}, {"Id": "9202", "pgp": 0, "GoBack": 2, "SID": 8512, "NameZh": "\u81fa\u9435\u9cf3\u5c71\u7ad9", "RouteId": 23, "SeqNo": 22, "Terminal": 0, "DistrictId": 1, "Latitude": 22.630563, "Longitude": 120.357433, "IVRNo": 9709, "EXTVoiceNo": 9202, "traveltime": 0, "holidayTraveltime": 0}, {"Id": "9201", "pgp": 0, "GoBack": 2, "SID": 8547, "NameZh": "\u66f9\u516c\u8def", "RouteId": 23, "SeqNo": 23, "Terminal": 0, "DistrictId": 1, "Latitude": 22.628343, "Longitude": 120.357147, "IVRNo": 506, "EXTVoiceNo": 9201, "traveltime": 0, "holidayTraveltime": 0}, {"Id": "0083", "pgp": 0, "GoBack": 2, "SID": 8362, "NameZh": "\u9ad8\u96c4\u5ba2\u904b\u9cf3\u5c71\u7ad9(\u4e2d\u5c71\u8def)", "RouteId": 23, "SeqNo": 24, "Terminal": 1, "DistrictId": 1, "Latitude": 22.624152, "Longitude": 120.357032, "IVRNo": 727, "EXTVoiceNo": 83, "traveltime": 0, "holidayTraveltime": 0}]}