{"en": [{"Id": "2099", "pgp": 0, "GoBack": 1, "SID": 6275, "NameZh": "Fongshan Transfer Station (MRT Dadong Station)", "RouteId": 5, "SeqNo": 1, "Terminal": 0, "DistrictId": 1, "Latitude": 22.625829, "Longitude": 120.363337, "IVRNo": 2099, "EXTVoiceNo": 2099, "traveltime": 0, "holidayTraveltime": 0}, {"Id": "0083", "pgp": 0, "GoBack": 1, "SID": 8320, "NameZh": "KBus Fongshan Station (Jhongshan Rd.)", "RouteId": 5, "SeqNo": 2, "Terminal": 0, "DistrictId": 1, "Latitude": 22.624152, "Longitude": 120.357032, "IVRNo": 727, "EXTVoiceNo": 83, "traveltime": 0, "holidayTraveltime": 0}, {"Id": "9201", "pgp": 0, "GoBack": 1, "SID": 14229, "NameZh": "Caogong Rd.", "RouteId": 5, "SeqNo": 3, "Terminal": 0, "DistrictId": 1, "Latitude": 22.628407, "Longitude": 120.357315, "IVRNo": 506, "EXTVoiceNo": 9201, "traveltime": 0, "holidayTraveltime": 0}, {"Id": "9202", "pgp": 0, "GoBack": 1, "SID": 14406, "NameZh": "TRA Fengshan Station", "RouteId": 5, "SeqNo": 4, "Terminal": 0, "DistrictId": 1, "Latitude": 22.630563, "Longitude": 120.357433, "IVRNo": 9709, "EXTVoiceNo": 9202, "traveltime": 0, "holidayTraveltime": 0}, {"Id": "9201", "pgp": 0, "GoBack": 1, "SID": 14475, "NameZh": "Caogong Rd.", "RouteId": 5, "SeqNo": 5, "Terminal": 0, "DistrictId": 1, "Latitude": 22.628343, "Longitude": 120.357147, "IVRNo": 506, "EXTVoiceNo": 9201, "traveltime": 0, "holidayTraveltime": 0}, {"Id": "9200", "pgp": 0, "GoBack": 1, "SID": 11262, "NameZh": "MRT Fongshan Station", "RouteId": 5, "SeqNo": 6, "Terminal": 0, "DistrictId": 1, "Latitude": 22.62603, "Longitude": 120.35431, "IVRNo": 9708, "EXTVoiceNo": 9200, "traveltime": 0, "holidayTraveltime": 0}, {"Id": "8970", "pgp": 0, "GoBack": 1, "SID": 11263, "NameZh": "Zihyou Market", "RouteId": 5, "SeqNo": 7, "Terminal": 0, "DistrictId": 1, "Latitude": 22.62579, "Longitude": 120.35119, "IVRNo": 9707, "EXTVoiceNo": 8970, "traveltime": 0, "holidayTraveltime": 0}, {"Id": "0503", "pgp": 0, "GoBack": 1, "SID": 11909, "NameZh": "Women and Children Center", "RouteId": 5, "SeqNo": 8, "Terminal": 0, "DistrictId": 1, "Latitude": 22.629331, "Longitude": 120.347838, "IVRNo": 503, "EXTVoiceNo": 503, "traveltime": 0, "holidayTraveltime": 0}, {"Id": "7125", "pgp": 0, "GoBack": 1, "SID": 19030, "NameZh": "Wunbin Rd. Intersection", "RouteId": 5, "SeqNo": 9, "Terminal": 0, "DistrictId": 1, "Latitude": 22.637699, "Longitude": 120.347897, "IVRNo": 146, "EXTVoiceNo": 17125, "traveltime": 0, "holidayTraveltime": 0}, {"Id": "1019", "pgp": 0, "GoBack": 1, "SID": 8366, "NameZh": "Cingnian Rd. Intersection (Jianguo Rd. Sec. 3)", "RouteId": 5, "SeqNo": 10, "Terminal": 0, "DistrictId": 1, "Latitude": 22.63743, "Longitude": 120.3509, "IVRNo": 1039, "EXTVoiceNo": 1019, "traveltime": 0, "holidayTraveltime": 0}, {"Id": "2051", "pgp": 0, "GoBack": 1, "SID": 8367, "NameZh": "Jianguo Rd. New City (Fongsong Rd. Intersection)", "RouteId": 5, "SeqNo": 11, "Terminal": 0, "DistrictId": 1, "Latitude": 22.63563, "Longitude": 120.36063, "IVRNo": 2051, "EXTVoiceNo": 2051, "traveltime": 0, "holidayTraveltime": 0}, {"Id": "0684", "pgp": 0, "GoBack": 1, "SID": 8326, "NameZh": "Gaoci Industrial and Home Economics Vocational High School", "RouteId": 5, "SeqNo": 12, "Terminal": 0, "DistrictId": 1, "Latitude": 22.6359, "Longitude": 120.36975, "IVRNo": 9035, "EXTVoiceNo": 20684, "traveltime": 0, "holidayTraveltime": 0}, {"Id": "0266", "pgp": 0, "GoBack": 1, "SID": 8368, "NameZh": "Beiping Rd. Intersection", "RouteId": 5, "SeqNo": 13, "Terminal": 0, "DistrictId": 1, "Latitude": 22.63855, "Longitude": 120.36926, "IVRNo": 8933, "EXTVoiceNo": 20266, "traveltime": 0, "holidayTraveltime": 0}, {"Id": "8928", "pgp": 0, "GoBack": 1, "SID": 8369, "NameZh": "Lising Rd.", "RouteId": 5, "SeqNo": 14, "Terminal": 0, "DistrictId": 1, "Latitude": 22.639, "Longitude": 120.36705, "IVRNo": 4834, "EXTVoiceNo": 8928, "traveltime": 0, "holidayTraveltime": 0}, {"Id": "0291", "pgp": 0, "GoBack": 1, "SID": 938, "NameZh": "Beiwen St. Intersection", "RouteId": 5, "SeqNo": 15, "Terminal": 0, "DistrictId": 1, "Latitude": 22.640843, "Longitude": 120.36912, "IVRNo": 958, "EXTVoiceNo": 291, "traveltime": 0, "holidayTraveltime": 0}, {"Id": "0276", "pgp": 0, "GoBack": 1, "SID": 15265, "NameZh": "Beichang 5th St. Intersection", "RouteId": 5, "SeqNo": 16, "Terminal": 0, "DistrictId": 1, "Latitude": 22.643066, "Longitude": 120.374104, "IVRNo": 276, "EXTVoiceNo": 276, "traveltime": 0, "holidayTraveltime": 0}, {"Id": "0292", "pgp": 0, "GoBack": 1, "SID": 939, "NameZh": "Beichang 3rd St. Intersection", "RouteId": 5, "SeqNo": 17, "Terminal": 0, "DistrictId": 1, "Latitude": 22.64533, "Longitude": 120.37276, "IVRNo": 959, "EXTVoiceNo": 292, "traveltime": 0, "holidayTraveltime": 0}, {"Id": "0276", "pgp": 0, "GoBack": 1, "SID": 15302, "NameZh": "Beichang 5th St. Intersection", "RouteId": 5, "SeqNo": 18, "Terminal": 0, "DistrictId": 1, "Latitude": 22.64402, "Longitude": 120.373518, "IVRNo": 276, "EXTVoiceNo": 276, "traveltime": 0, "holidayTraveltime": 0}, {"Id": "0291", "pgp": 0, "GoBack": 1, "SID": 16892, "NameZh": "Beiwen St. Intersection", "RouteId": 5, "SeqNo": 19, "Terminal": 0, "DistrictId": 1, "Latitude": 22.640858, "Longitude": 120.369305, "IVRNo": 958, "EXTVoiceNo": 291, "traveltime": 0, "holidayTraveltime": 0}, {"Id": "0079", "pgp": 0, "GoBack": 1, "SID": 1237, "NameZh": "Jhenbei Elementary School", "RouteId": 5, "SeqNo": 20, "Terminal": 0, "DistrictId": 1, "Latitude": 22.642937, "Longitude": 120.367583, "IVRNo": 1167, "EXTVoiceNo": 79, "traveltime": 0, "holidayTraveltime": 0}, {"Id": "0080", "pgp": 0, "GoBack": 1, "SID": 2022, "NameZh": "Niouchoubu Leisure Parks", "RouteId": 5, "SeqNo": 21, "Terminal": 0, "DistrictId": 1, "Latitude": 22.644126, "Longitude": 120.366178, "IVRNo": 1168, "EXTVoiceNo": 80, "traveltime": 0, "holidayTraveltime": 0}, {"Id": "0516", "pgp": 0, "GoBack": 1, "SID": 8371, "NameZh": "Niouchoupu (Fongshan)", "RouteId": 5, "SeqNo": 22, "Terminal": 0, "DistrictId": 1, "Latitude": 22.644583, "Longitude": 120.364912, "IVRNo": 516, "EXTVoiceNo": 516, "traveltime": 0, "holidayTraveltime": 0}, {"Id": "1132", "pgp": 0, "GoBack": 1, "SID": 8372, "NameZh": "Sancongzhu", "RouteId": 5, "SeqNo": 23, "Terminal": 0, "DistrictId": 1, "Latitude": 22.64958, "Longitude": 120.36538, "IVRNo": 517, "EXTVoiceNo": 21132, "traveltime": 0, "holidayTraveltime": 0}, {"Id": "0978", "pgp": 0, "GoBack": 1, "SID": 8373, "NameZh": "Chengcing Lake Rd. Intersection", "RouteId": 5, "SeqNo": 24, "Terminal": 0, "DistrictId": 1, "Latitude": 22.65863, "Longitude": 120.36435, "IVRNo": 9267, "EXTVoiceNo": 20978, "traveltime": 0, "holidayTraveltime": 0}, {"Id": "3370", "pgp": 0, "GoBack": 1, "SID": 8375, "NameZh": "Niaosong", "RouteId": 5, "SeqNo": 25, "Terminal": 0, "DistrictId": 1, "Latitude": 22.66286, "Longitude": 120.36361, "IVRNo": 1463, "EXTVoiceNo": 13370, "traveltime": 0, "holidayTraveltime": 0}, {"Id": "9246", "pgp": 0, "GoBack": 1, "SID": 8376, "NameZh": "Mengli Village", "RouteId": 5, "SeqNo": 26, "Terminal": 0, "DistrictId": 1, "Latitude": 22.66743, "Longitude": 120.3628, "IVRNo": 9245, "EXTVoiceNo": 9246, "traveltime": 0, "holidayTraveltime": 0}, {"Id": "0024", "pgp": 0, "GoBack": 1, "SID": 8377, "NameZh": "Shihjiouwan", "RouteId": 5, "SeqNo": 27, "Terminal": 0, "DistrictId": 1, "Latitude": 22.67096, "Longitude": 120.3614, "IVRNo": 4835, "EXTVoiceNo": 20024, "traveltime": 0, "holidayTraveltime": 0}, {"Id": "0985", "pgp": 0, "GoBack": 1, "SID": 8378, "NameZh": "Gongwei New Village", "RouteId": 5, "SeqNo": 28, "Terminal": 0, "DistrictId": 1, "Latitude": 22.67431, "Longitude": 120.36365, "IVRNo": 9271, "EXTVoiceNo": 20985, "traveltime": 0, "holidayTraveltime": 0}, {"Id": "0946", "pgp": 0, "GoBack": 1, "SID": 8379, "NameZh": "Lyuyuan Villa", "RouteId": 5, "SeqNo": 29, "Terminal": 0, "DistrictId": 1, "Latitude": 22.67691, "Longitude": 120.36281, "IVRNo": 9249, "EXTVoiceNo": 20946, "traveltime": 0, "holidayTraveltime": 0}, {"Id": "0396", "pgp": 0, "GoBack": 1, "SID": 8380, "NameZh": "Kaotan Village", "RouteId": 5, "SeqNo": 30, "Terminal": 0, "DistrictId": 1, "Latitude": 22.67943, "Longitude": 120.36193, "IVRNo": 8968, "EXTVoiceNo": 20396, "traveltime": 0, "holidayTraveltime": 0}, {"Id": "3232", "pgp": 0, "GoBack": 1, "SID": 8381, "NameZh": "Tianhou Temple (Chenggong Rd.)", "RouteId": 5, "SeqNo": 31, "Terminal": 0, "DistrictId": 1, "Latitude": 22.68143, "Longitude": 120.36205, "IVRNo": 3232, "EXTVoiceNo": 3232, "traveltime": 0, "holidayTraveltime": 0}, {"Id": "0851", "pgp": 0, "GoBack": 1, "SID": 8382, "NameZh": "Bizih Lane", "RouteId": 5, "SeqNo": 32, "Terminal": 0, "DistrictId": 1, "Latitude": 22.68266, "Longitude": 120.36445, "IVRNo": 851, "EXTVoiceNo": 851, "traveltime": 0, "holidayTraveltime": 0}, {"Id": "0482", "pgp": 0, "GoBack": 1, "SID": 8383, "NameZh": "Mingshancihan House", "RouteId": 5, "SeqNo": 33, "Terminal": 0, "DistrictId": 1, "Latitude": 22.68477, "Longitude": 120.36433, "IVRNo": 8991, "EXTVoiceNo": 20482, "traveltime": 0, "holidayTraveltime": 0}, {"Id": "8990", "pgp": 0, "GoBack": 1, "SID": 8384, "NameZh": "Jhongshan Pharmaceutical Factory", "RouteId": 5, "SeqNo": 34, "Terminal": 0, "DistrictId": 1, "Latitude": 22.68613, "Longitude": 120.36456, "IVRNo": 8989, "EXTVoiceNo": 8990, "traveltime": 0, "holidayTraveltime": 0}, {"Id": "8995", "pgp": 0, "GoBack": 1, "SID": 8385, "NameZh": "Dongya Paint Factory", "RouteId": 5, "SeqNo": 35, "Terminal": 0, "DistrictId": 1, "Latitude": 22.68876, "Longitude": 120.36705, "IVRNo": 8994, "EXTVoiceNo": 8995, "traveltime": 0, "holidayTraveltime": 0}, {"Id": "0055", "pgp": 0, "GoBack": 1, "SID": 8386, "NameZh": "Jioubaosiang Company", "RouteId": 5, "SeqNo": 36, "Terminal": 0, "DistrictId": 1, "Latitude": 22.69167, "Longitude": 120.36991, "IVRNo": 8906, "EXTVoiceNo": 20055, "traveltime": 0, "holidayTraveltime": 0}, {"Id": "9028", "pgp": 0, "GoBack": 1, "SID": 8387, "NameZh": "Wulin Village", "RouteId": 5, "SeqNo": 37, "Terminal": 0, "DistrictId": 1, "Latitude": 22.69656, "Longitude": 120.3755, "IVRNo": 9028, "EXTVoiceNo": 9028, "traveltime": 0, "holidayTraveltime": 0}, {"Id": "1001", "pgp": 0, "GoBack": 1, "SID": 8388, "NameZh": "Brick Factory", "RouteId": 5, "SeqNo": 38, "Terminal": 0, "DistrictId": 1, "Latitude": 22.69873, "Longitude": 120.37971, "IVRNo": 9279, "EXTVoiceNo": 21001, "traveltime": 0, "holidayTraveltime": 0}, {"Id": "9016", "pgp": 0, "GoBack": 1, "SID": 8389, "NameZh": "Oil Depots", "RouteId": 5, "SeqNo": 39, "Terminal": 0, "DistrictId": 1, "Latitude": 22.70095, "Longitude": 120.38793, "IVRNo": 9015, "EXTVoiceNo": 9016, "traveltime": 0, "holidayTraveltime": 0}, {"Id": "9042", "pgp": 0, "GoBack": 1, "SID": 12294, "NameZh": "Cingjing Temple (A) (Renlin Rd.)", "RouteId": 5, "SeqNo": 40, "Terminal": 0, "DistrictId": 1, "Latitude": 22.701047, "Longitude": 120.390976, "IVRNo": 9042, "EXTVoiceNo": 9042, "traveltime": 0, "holidayTraveltime": 0}, {"Id": "9045", "pgp": 0, "GoBack": 1, "SID": 12295, "NameZh": "Cingjing Temple (B) (Jhongyi Rd.)", "RouteId": 5, "SeqNo": 41, "Terminal": 0, "DistrictId": 1, "Latitude": 22.698995, "Longitude": 120.391925, "IVRNo": 9044, "EXTVoiceNo": 9045, "traveltime": 0, "holidayTraveltime": 0}, {"Id": "9446", "pgp": 0, "GoBack": 1, "SID": 8391, "NameZh": "Guandi Temple", "RouteId": 5, "SeqNo": 42, "Terminal": 1, "DistrictId": 1, "Latitude": 22.69435, "Longitude": 120.39348, "IVRNo": 9288, "EXTVoiceNo": 9446, "traveltime": 0, "holidayTraveltime": 0}, {"Id": "9446", "pgp": 0, "GoBack": 2, "SID": 6236, "NameZh": "Guandi Temple", "RouteId": 5, "SeqNo": 1, "Terminal": 0, "DistrictId": 1, "Latitude": 22.69435, "Longitude": 120.39348, "IVRNo": 9288, "EXTVoiceNo": 9446, "traveltime": 0, "holidayTraveltime": 0}, {"Id": "9045", "pgp": 0, "GoBack": 2, "SID": 12324, "NameZh": "Cingjing Temple (B) (Jhongyi Rd.)", "RouteId": 5, "SeqNo": 2, "Terminal": 0, "DistrictId": 1, "Latitude": 22.698995, "Longitude": 120.391925, "IVRNo": 9044, "EXTVoiceNo": 9045, "traveltime": 0, "holidayTraveltime": 0}, {"Id": "9042", "pgp": 0, "GoBack": 2, "SID": 12323, "NameZh": "Cingjing Temple (A) (Renlin Rd.)", "RouteId": 5, "SeqNo": 3, "Terminal": 0, "DistrictId": 1, "Latitude": 22.701047, "Longitude": 120.390976, "IVRNo": 9042, "EXTVoiceNo": 9042, "traveltime": 0, "holidayTraveltime": 0}, {"Id": "9016", "pgp": 0, "GoBack": 2, "SID": 8393, "NameZh": "Oil Depots", "RouteId": 5, "SeqNo": 4, "Terminal": 0, "DistrictId": 1, "Latitude": 22.70113, "Longitude": 120.38796, "IVRNo": 9015, "EXTVoiceNo": 9016, "traveltime": 0, "holidayTraveltime": 0}, {"Id": "1001", "pgp": 0, "GoBack": 2, "SID": 8394, "NameZh": "Brick Factory", "RouteId": 5, "SeqNo": 5, "Terminal": 0, "DistrictId": 1, "Latitude": 22.69878, "Longitude": 120.3797, "IVRNo": 9279, "EXTVoiceNo": 21001, "traveltime": 0, "holidayTraveltime": 0}, {"Id": "9028", "pgp": 0, "GoBack": 2, "SID": 8395, "NameZh": "Wulin Village", "RouteId": 5, "SeqNo": 6, "Terminal": 0, "DistrictId": 1, "Latitude": 22.69663, "Longitude": 120.37551, "IVRNo": 9028, "EXTVoiceNo": 9028, "traveltime": 0, "holidayTraveltime": 0}, {"Id": "0055", "pgp": 0, "GoBack": 2, "SID": 8396, "NameZh": "Jioubaosiang Company", "RouteId": 5, "SeqNo": 7, "Terminal": 0, "DistrictId": 1, "Latitude": 22.6917, "Longitude": 120.36988, "IVRNo": 8906, "EXTVoiceNo": 20055, "traveltime": 0, "holidayTraveltime": 0}, {"Id": "8995", "pgp": 0, "GoBack": 2, "SID": 8397, "NameZh": "Dongya Paint Factory", "RouteId": 5, "SeqNo": 8, "Terminal": 0, "DistrictId": 1, "Latitude": 22.68863, "Longitude": 120.36683, "IVRNo": 8994, "EXTVoiceNo": 8995, "traveltime": 0, "holidayTraveltime": 0}, {"Id": "8990", "pgp": 0, "GoBack": 2, "SID": 8398, "NameZh": "Jhongshan Pharmaceutical Factory", "RouteId": 5, "SeqNo": 9, "Terminal": 0, "DistrictId": 1, "Latitude": 22.68581, "Longitude": 120.36416, "IVRNo": 8989, "EXTVoiceNo": 8990, "traveltime": 0, "holidayTraveltime": 0}, {"Id": "0482", "pgp": 0, "GoBack": 2, "SID": 8399, "NameZh": "Mingshancihan House", "RouteId": 5, "SeqNo": 10, "Terminal": 0, "DistrictId": 1, "Latitude": 22.68476, "Longitude": 120.36428, "IVRNo": 8991, "EXTVoiceNo": 20482, "traveltime": 0, "holidayTraveltime": 0}, {"Id": "0851", "pgp": 0, "GoBack": 2, "SID": 8400, "NameZh": "Bizih Lane", "RouteId": 5, "SeqNo": 11, "Terminal": 0, "DistrictId": 1, "Latitude": 22.68258, "Longitude": 120.36426, "IVRNo": 851, "EXTVoiceNo": 851, "traveltime": 0, "holidayTraveltime": 0}, {"Id": "3232", "pgp": 0, "GoBack": 2, "SID": 8401, "NameZh": "Tianhou Temple (Chenggong Rd.)", "RouteId": 5, "SeqNo": 12, "Terminal": 0, "DistrictId": 1, "Latitude": 22.68145, "Longitude": 120.36211, "IVRNo": 3232, "EXTVoiceNo": 3232, "traveltime": 0, "holidayTraveltime": 0}, {"Id": "0396", "pgp": 0, "GoBack": 2, "SID": 8402, "NameZh": "Kaotan Village", "RouteId": 5, "SeqNo": 13, "Terminal": 0, "DistrictId": 1, "Latitude": 22.67944, "Longitude": 120.36198, "IVRNo": 8968, "EXTVoiceNo": 20396, "traveltime": 0, "holidayTraveltime": 0}, {"Id": "0946", "pgp": 0, "GoBack": 2, "SID": 8403, "NameZh": "Lyuyuan Villa", "RouteId": 5, "SeqNo": 14, "Terminal": 0, "DistrictId": 1, "Latitude": 22.67675, "Longitude": 120.36293, "IVRNo": 9249, "EXTVoiceNo": 20946, "traveltime": 0, "holidayTraveltime": 0}, {"Id": "0985", "pgp": 0, "GoBack": 2, "SID": 8404, "NameZh": "Gongwei New Village", "RouteId": 5, "SeqNo": 15, "Terminal": 0, "DistrictId": 1, "Latitude": 22.67438, "Longitude": 120.36356, "IVRNo": 9271, "EXTVoiceNo": 20985, "traveltime": 0, "holidayTraveltime": 0}, {"Id": "0024", "pgp": 0, "GoBack": 2, "SID": 8405, "NameZh": "Shihjiouwan", "RouteId": 5, "SeqNo": 16, "Terminal": 0, "DistrictId": 1, "Latitude": 22.67091, "Longitude": 120.36123, "IVRNo": 4835, "EXTVoiceNo": 20024, "traveltime": 0, "holidayTraveltime": 0}, {"Id": "9246", "pgp": 0, "GoBack": 2, "SID": 8406, "NameZh": "Mengli Village", "RouteId": 5, "SeqNo": 17, "Terminal": 0, "DistrictId": 1, "Latitude": 22.66741, "Longitude": 120.36263, "IVRNo": 9245, "EXTVoiceNo": 9246, "traveltime": 0, "holidayTraveltime": 0}, {"Id": "3370", "pgp": 0, "GoBack": 2, "SID": 8407, "NameZh": "Niaosong", "RouteId": 5, "SeqNo": 18, "Terminal": 0, "DistrictId": 1, "Latitude": 22.66166, "Longitude": 120.36358, "IVRNo": 1463, "EXTVoiceNo": 13370, "traveltime": 0, "holidayTraveltime": 0}, {"Id": "0978", "pgp": 0, "GoBack": 2, "SID": 8409, "NameZh": "Chengcing Lake Rd. Intersection", "RouteId": 5, "SeqNo": 19, "Terminal": 0, "DistrictId": 1, "Latitude": 22.65856, "Longitude": 120.36426, "IVRNo": 9267, "EXTVoiceNo": 20978, "traveltime": 0, "holidayTraveltime": 0}, {"Id": "1132", "pgp": 0, "GoBack": 2, "SID": 8410, "NameZh": "Sancongzhu", "RouteId": 5, "SeqNo": 20, "Terminal": 0, "DistrictId": 1, "Latitude": 22.64913, "Longitude": 120.36525, "IVRNo": 517, "EXTVoiceNo": 21132, "traveltime": 0, "holidayTraveltime": 0}, {"Id": "0516", "pgp": 0, "GoBack": 2, "SID": 8411, "NameZh": "Niouchoupu (Fongshan)", "RouteId": 5, "SeqNo": 21, "Terminal": 0, "DistrictId": 1, "Latitude": 22.644536, "Longitude": 120.3647, "IVRNo": 516, "EXTVoiceNo": 516, "traveltime": 0, "holidayTraveltime": 0}, {"Id": "0080", "pgp": 0, "GoBack": 2, "SID": 2026, "NameZh": "Niouchoubu Leisure Parks", "RouteId": 5, "SeqNo": 22, "Terminal": 0, "DistrictId": 1, "Latitude": 22.644088, "Longitude": 120.366216, "IVRNo": 1168, "EXTVoiceNo": 80, "traveltime": 0, "holidayTraveltime": 0}, {"Id": "0079", "pgp": 0, "GoBack": 2, "SID": 2066, "NameZh": "Jhenbei Elementary School", "RouteId": 5, "SeqNo": 23, "Terminal": 0, "DistrictId": 1, "Latitude": 22.642969, "Longitude": 120.367407, "IVRNo": 1167, "EXTVoiceNo": 79, "traveltime": 0, "holidayTraveltime": 0}, {"Id": "0291", "pgp": 0, "GoBack": 2, "SID": 1564, "NameZh": "Beiwen St. Intersection", "RouteId": 5, "SeqNo": 24, "Terminal": 0, "DistrictId": 1, "Latitude": 22.640843, "Longitude": 120.36912, "IVRNo": 958, "EXTVoiceNo": 291, "traveltime": 0, "holidayTraveltime": 0}, {"Id": "0276", "pgp": 0, "GoBack": 2, "SID": 17981, "NameZh": "Beichang 5th St. Intersection", "RouteId": 5, "SeqNo": 25, "Terminal": 0, "DistrictId": 1, "Latitude": 22.643066, "Longitude": 120.374104, "IVRNo": 276, "EXTVoiceNo": 276, "traveltime": 0, "holidayTraveltime": 0}, {"Id": "0292", "pgp": 0, "GoBack": 2, "SID": 939, "NameZh": "Beichang 3rd St. Intersection", "RouteId": 5, "SeqNo": 26, "Terminal": 0, "DistrictId": 1, "Latitude": 22.64533, "Longitude": 120.37276, "IVRNo": 959, "EXTVoiceNo": 292, "traveltime": 0, "holidayTraveltime": 0}, {"Id": "0276", "pgp": 0, "GoBack": 2, "SID": 18200, "NameZh": "Beichang 5th St. Intersection", "RouteId": 5, "SeqNo": 27, "Terminal": 0, "DistrictId": 1, "Latitude": 22.64402, "Longitude": 120.373518, "IVRNo": 276, "EXTVoiceNo": 276, "traveltime": 0, "holidayTraveltime": 0}, {"Id": "0291", "pgp": 0, "GoBack": 2, "SID": 16961, "NameZh": "Beiwen St. Intersection", "RouteId": 5, "SeqNo": 28, "Terminal": 0, "DistrictId": 1, "Latitude": 22.640858, "Longitude": 120.369305, "IVRNo": 958, "EXTVoiceNo": 291, "traveltime": 0, "holidayTraveltime": 0}, {"Id": "8928", "pgp": 0, "GoBack": 2, "SID": 8413, "NameZh": "Lising Rd.", "RouteId": 5, "SeqNo": 29, "Terminal": 0, "DistrictId": 1, "Latitude": 22.63898, "Longitude": 120.36736, "IVRNo": 4834, "EXTVoiceNo": 8928, "traveltime": 0, "holidayTraveltime": 0}, {"Id": "0266", "pgp": 0, "GoBack": 2, "SID": 8414, "NameZh": "Beiping Rd. Intersection", "RouteId": 5, "SeqNo": 30, "Terminal": 0, "DistrictId": 1, "Latitude": 22.63855, "Longitude": 120.36913, "IVRNo": 8933, "EXTVoiceNo": 20266, "traveltime": 0, "holidayTraveltime": 0}, {"Id": "0684", "pgp": 0, "GoBack": 2, "SID": 8356, "NameZh": "Gaoci Industrial and Home Economics Vocational High School", "RouteId": 5, "SeqNo": 31, "Terminal": 0, "DistrictId": 1, "Latitude": 22.63598, "Longitude": 120.36976, "IVRNo": 9035, "EXTVoiceNo": 20684, "traveltime": 0, "holidayTraveltime": 0}, {"Id": "2051", "pgp": 0, "GoBack": 2, "SID": 8415, "NameZh": "Jianguo Rd. New City (Fongsong Rd. Intersection)", "RouteId": 5, "SeqNo": 32, "Terminal": 0, "DistrictId": 1, "Latitude": 22.63565, "Longitude": 120.36066, "IVRNo": 2051, "EXTVoiceNo": 2051, "traveltime": 0, "holidayTraveltime": 0}, {"Id": "1019", "pgp": 0, "GoBack": 2, "SID": 8416, "NameZh": "Cingnian Rd. Intersection (Jianguo Rd. Sec. 3)", "RouteId": 5, "SeqNo": 33, "Terminal": 0, "DistrictId": 1, "Latitude": 22.63735, "Longitude": 120.35203, "IVRNo": 1039, "EXTVoiceNo": 1019, "traveltime": 0, "holidayTraveltime": 0}, {"Id": "7125", "pgp": 0, "GoBack": 2, "SID": 12281, "NameZh": "Wunbin Rd. Intersection", "RouteId": 5, "SeqNo": 34, "Terminal": 0, "DistrictId": 1, "Latitude": 22.637895, "Longitude": 120.348275, "IVRNo": 146, "EXTVoiceNo": 17125, "traveltime": 0, "holidayTraveltime": 0}, {"Id": "0503", "pgp": 0, "GoBack": 2, "SID": 12064, "NameZh": "Women and Children Center", "RouteId": 5, "SeqNo": 35, "Terminal": 0, "DistrictId": 1, "Latitude": 22.629235, "Longitude": 120.348114, "IVRNo": 503, "EXTVoiceNo": 503, "traveltime": 0, "holidayTraveltime": 0}, {"Id": "8970", "pgp": 0, "GoBack": 2, "SID": 8418, "NameZh": "Zihyou Market", "RouteId": 5, "SeqNo": 36, "Terminal": 0, "DistrictId": 1, "Latitude": 22.62565, "Longitude": 120.35095, "IVRNo": 9707, "EXTVoiceNo": 8970, "traveltime": 0, "holidayTraveltime": 0}, {"Id": "9200", "pgp": 0, "GoBack": 2, "SID": 11193, "NameZh": "MRT Fongshan Station", "RouteId": 5, "SeqNo": 37, "Terminal": 0, "DistrictId": 1, "Latitude": 22.62598, "Longitude": 120.35614, "IVRNo": 9708, "EXTVoiceNo": 9200, "traveltime": 0, "holidayTraveltime": 0}, {"Id": "9201", "pgp": 0, "GoBack": 2, "SID": 9799, "NameZh": "Caogong Rd.", "RouteId": 5, "SeqNo": 38, "Terminal": 0, "DistrictId": 1, "Latitude": 22.628407, "Longitude": 120.357315, "IVRNo": 506, "EXTVoiceNo": 9201, "traveltime": 0, "holidayTraveltime": 0}, {"Id": "9202", "pgp": 0, "GoBack": 2, "SID": 9833, "NameZh": "TRA Fengshan Station", "RouteId": 5, "SeqNo": 39, "Terminal": 0, "DistrictId": 1, "Latitude": 22.630563, "Longitude": 120.357433, "IVRNo": 9709, "EXTVoiceNo": 9202, "traveltime": 0, "holidayTraveltime": 0}, {"Id": "9201", "pgp": 0, "GoBack": 2, "SID": 13798, "NameZh": "Caogong Rd.", "RouteId": 5, "SeqNo": 40, "Terminal": 0, "DistrictId": 1, "Latitude": 22.628343, "Longitude": 120.357147, "IVRNo": 506, "EXTVoiceNo": 9201, "traveltime": 0, "holidayTraveltime": 0}, {"Id": "0083", "pgp": 0, "GoBack": 2, "SID": 8362, "NameZh": "KBus Fongshan Station (Jhongshan Rd.)", "RouteId": 5, "SeqNo": 41, "Terminal": 0, "DistrictId": 1, "Latitude": 22.624152, "Longitude": 120.357032, "IVRNo": 727, "EXTVoiceNo": 83, "traveltime": 0, "holidayTraveltime": 0}, {"Id": "2099", "pgp": 0, "GoBack": 2, "SID": 19015, "NameZh": "Fongshan Transfer Station (MRT Dadong Station)", "RouteId": 5, "SeqNo": 42, "Terminal": 1, "DistrictId": 1, "Latitude": 22.625792, "Longitude": 120.363358, "IVRNo": 2099, "EXTVoiceNo": 2099, "traveltime": 0, "holidayTraveltime": 0}], "zh": [{"Id": "2099", "pgp": 0, "GoBack": 1, "SID": 6275, "NameZh": "\u9cf3\u5c71\u8f49\u904b\u7ad9(\u6377\u904b\u5927\u6771\u7ad9)", "RouteId": 5, "SeqNo": 1, "Terminal": 0, "DistrictId": 1, "Latitude": 22.625829, "Longitude": 120.363337, "IVRNo": 2099, "EXTVoiceNo": 2099, "traveltime": 0, "holidayTraveltime": 0}, {"Id": "0083", "pgp": 0, "GoBack": 1, "SID": 8320, "NameZh": "\u9ad8\u96c4\u5ba2\u904b\u9cf3\u5c71\u7ad9(\u4e2d\u5c71\u8def)", "RouteId": 5, "SeqNo": 2, "Terminal": 0, "DistrictId": 1, "Latitude": 22.624152, "Longitude": 120.357032, "IVRNo": 727, "EXTVoiceNo": 83, "traveltime": 0, "holidayTraveltime": 0}, {"Id": "9201", "pgp": 0, "GoBack": 1, "SID": 14229, "NameZh": "\u66f9\u516c\u8def", "RouteId": 5, "SeqNo": 3, "Terminal": 0, "DistrictId": 1, "Latitude": 22.628407, "Longitude": 120.357315, "IVRNo": 506, "EXTVoiceNo": 9201, "traveltime": 0, "holidayTraveltime": 0}, {"Id": "9202", "pgp": 0, "GoBack": 1, "SID": 14406, "NameZh": "\u81fa\u9435\u9cf3\u5c71\u7ad9", "RouteId": 5, "SeqNo": 4, "Terminal": 0, "DistrictId": 1, "Latitude": 22.630563, "Longitude": 120.357433, "IVRNo": 9709, "EXTVoiceNo": 9202, "traveltime": 0, "holidayTraveltime": 0}, {"Id": "9201", "pgp": 0, "GoBack": 1, "SID": 14475, "NameZh": "\u66f9\u516c\u8def", "RouteId": 5, "SeqNo": 5, "Terminal": 0, "DistrictId": 1, "Latitude": 22.628343, "Longitude": 120.357147, "IVRNo": 506, "EXTVoiceNo": 9201, "traveltime": 0, "holidayTraveltime": 0}, {"Id": "9200", "pgp": 0, "GoBack": 1, "SID": 11262, "NameZh": "\u6377\u904b\u9cf3\u5c71\u7ad9", "RouteId": 5, "SeqNo": 6, "Terminal": 0, "DistrictId": 1, "Latitude": 22.62603, "Longitude": 120.35431, "IVRNo": 9708, "EXTVoiceNo": 9200, "traveltime": 0, "holidayTraveltime": 0}, {"Id": "8970", "pgp": 0, "GoBack": 1, "SID": 11263, "NameZh": "\u81ea\u7531\u5e02\u5834", "RouteId": 5, "SeqNo": 7, "Terminal": 0, "DistrictId": 1, "Latitude": 22.62579, "Longitude": 120.35119, "IVRNo": 9707, "EXTVoiceNo": 8970, "traveltime": 0, "holidayTraveltime": 0}, {"Id": "0503", "pgp": 0, "GoBack": 1, "SID": 11909, "NameZh": "\u5a66\u5e7c\u9928", "RouteId": 5, "SeqNo": 8, "Terminal": 0, "DistrictId": 1, "Latitude": 22.629331, "Longitude": 120.347838, "IVRNo": 503, "EXTVoiceNo": 503, "traveltime": 0, "holidayTraveltime": 0}, {"Id": "7125", "pgp": 0, "GoBack": 1, "SID": 19030, "NameZh": "\u6587\u6ff1\u8def\u53e3", "RouteId": 5, "SeqNo": 9, "Terminal": 0, "DistrictId": 1, "Latitude": 22.637699, "Longitude": 120.347897, "IVRNo": 146, "EXTVoiceNo": 17125, "traveltime": 0, "holidayTraveltime": 0}, {"Id": "1019", "pgp": 0, "GoBack": 1, "SID": 8366, "NameZh": "\u9752\u5e74\u8def\u53e3(\u5efa\u570b\u8def\u4e09\u6bb5)", "RouteId": 5, "SeqNo": 10, "Terminal": 0, "DistrictId": 1, "Latitude": 22.63743, "Longitude": 120.3509, "IVRNo": 1039, "EXTVoiceNo": 1019, "traveltime": 0, "holidayTraveltime": 0}, {"Id": "2051", "pgp": 0, "GoBack": 1, "SID": 8367, "NameZh": "\u5efa\u570b\u65b0\u57ce(\u9cf3\u677e\u8def\u53e3)", "RouteId": 5, "SeqNo": 11, "Terminal": 0, "DistrictId": 1, "Latitude": 22.63563, "Longitude": 120.36063, "IVRNo": 2051, "EXTVoiceNo": 2051, "traveltime": 0, "holidayTraveltime": 0}, {"Id": "0684", "pgp": 0, "GoBack": 1, "SID": 8326, "NameZh": "\u9ad8\u65d7\u5de5\u5bb6", "RouteId": 5, "SeqNo": 12, "Terminal": 0, "DistrictId": 1, "Latitude": 22.6359, "Longitude": 120.36975, "IVRNo": 9035, "EXTVoiceNo": 20684, "traveltime": 0, "holidayTraveltime": 0}, {"Id": "0266", "pgp": 0, "GoBack": 1, "SID": 8368, "NameZh": "\u5317\u5e73\u8def\u53e3", "RouteId": 5, "SeqNo": 13, "Terminal": 0, "DistrictId": 1, "Latitude": 22.63855, "Longitude": 120.36926, "IVRNo": 8933, "EXTVoiceNo": 20266, "traveltime": 0, "holidayTraveltime": 0}, {"Id": "8928", "pgp": 0, "GoBack": 1, "SID": 8369, "NameZh": "\u529b\u884c\u8def", "RouteId": 5, "SeqNo": 14, "Terminal": 0, "DistrictId": 1, "Latitude": 22.639, "Longitude": 120.36705, "IVRNo": 4834, "EXTVoiceNo": 8928, "traveltime": 0, "holidayTraveltime": 0}, {"Id": "0291", "pgp": 0, "GoBack": 1, "SID": 938, "NameZh": "\u5317\u6587\u8857\u53e3", "RouteId": 5, "SeqNo": 15, "Terminal": 0, "DistrictId": 1, "Latitude": 22.640843, "Longitude": 120.36912, "IVRNo": 958, "EXTVoiceNo": 291, "traveltime": 0, "holidayTraveltime": 0}, {"Id": "0276", "pgp": 0, "GoBack": 1, "SID": 15265, "NameZh": "\u5317\u660c\u4e94\u8857\u53e3", "RouteId": 5, "SeqNo": 16, "Terminal": 0, "DistrictId": 1, "Latitude": 22.643066, "Longitude": 120.374104, "IVRNo": 276, "EXTVoiceNo": 276, "traveltime": 0, "holidayTraveltime": 0}, {"Id": "0292", "pgp": 0, "GoBack": 1, "SID": 939, "NameZh": "\u5317\u660c\u4e09\u8857\u53e3", "RouteId": 5, "SeqNo": 17, "Terminal": 0, "DistrictId": 1, "Latitude": 22.64533, "Longitude": 120.37276, "IVRNo": 959, "EXTVoiceNo": 292, "traveltime": 0, "holidayTraveltime": 0}, {"Id": "0276", "pgp": 0, "GoBack": 1, "SID": 15302, "NameZh": "\u5317\u660c\u4e94\u8857\u53e3", "RouteId": 5, "SeqNo": 18, "Terminal": 0, "DistrictId": 1, "Latitude": 22.64402, "Longitude": 120.373518, "IVRNo": 276, "EXTVoiceNo": 276, "traveltime": 0, "holidayTraveltime": 0}, {"Id": "0291", "pgp": 0, "GoBack": 1, "SID": 16892, "NameZh": "\u5317\u6587\u8857\u53e3", "RouteId": 5, "SeqNo": 19, "Terminal": 0, "DistrictId": 1, "Latitude": 22.640858, "Longitude": 120.369305, "IVRNo": 958, "EXTVoiceNo": 291, "traveltime": 0, "holidayTraveltime": 0}, {"Id": "0079", "pgp": 0, "GoBack": 1, "SID": 1237, "NameZh": "\u93ae\u5317\u570b\u5c0f", "RouteId": 5, "SeqNo": 20, "Terminal": 0, "DistrictId": 1, "Latitude": 22.642937, "Longitude": 120.367583, "IVRNo": 1167, "EXTVoiceNo": 79, "traveltime": 0, "holidayTraveltime": 0}, {"Id": "0080", "pgp": 0, "GoBack": 1, "SID": 2022, "NameZh": "\u725b\u6f6e\u57d4\u4f11\u9592\u516c\u5712", "RouteId": 5, "SeqNo": 21, "Terminal": 0, "DistrictId": 1, "Latitude": 22.644126, "Longitude": 120.366178, "IVRNo": 1168, "EXTVoiceNo": 80, "traveltime": 0, "holidayTraveltime": 0}, {"Id": "0516", "pgp": 0, "GoBack": 1, "SID": 8371, "NameZh": "\u725b\u7a20\u57d4(\u9cf3\u5c71)", "RouteId": 5, "SeqNo": 22, "Terminal": 0, "DistrictId": 1, "Latitude": 22.644583, "Longitude": 120.364912, "IVRNo": 516, "EXTVoiceNo": 516, "traveltime": 0, "holidayTraveltime": 0}, {"Id": "1132", "pgp": 0, "GoBack": 1, "SID": 8372, "NameZh": "\u4e09\u53e2\u7af9", "RouteId": 5, "SeqNo": 23, "Terminal": 0, "DistrictId": 1, "Latitude": 22.64958, "Longitude": 120.36538, "IVRNo": 517, "EXTVoiceNo": 21132, "traveltime": 0, "holidayTraveltime": 0}, {"Id": "0978", "pgp": 0, "GoBack": 1, "SID": 8373, "NameZh": "\u6f84\u6e05\u6e56\u8def\u53e3", "RouteId": 5, "SeqNo": 24, "Terminal": 0, "DistrictId": 1, "Latitude": 22.65863, "Longitude": 120.36435, "IVRNo": 9267, "EXTVoiceNo": 20978, "traveltime": 0, "holidayTraveltime": 0}, {"Id": "3370", "pgp": 0, "GoBack": 1, "SID": 8375, "NameZh": "\u9ce5\u677e", "RouteId": 5, "SeqNo": 25, "Terminal": 0, "DistrictId": 1, "Latitude": 22.66286, "Longitude": 120.36361, "IVRNo": 1463, "EXTVoiceNo": 13370, "traveltime": 0, "holidayTraveltime": 0}, {"Id": "9246", "pgp": 0, "GoBack": 1, "SID": 8376, "NameZh": "\u5922\u88e1\u91cc", "RouteId": 5, "SeqNo": 26, "Terminal": 0, "DistrictId": 1, "Latitude": 22.66743, "Longitude": 120.3628, "IVRNo": 9245, "EXTVoiceNo": 9246, "traveltime": 0, "holidayTraveltime": 0}, {"Id": "0024", "pgp": 0, "GoBack": 1, "SID": 8377, "NameZh": "\u5341\u4e5d\u7063", "RouteId": 5, "SeqNo": 27, "Terminal": 0, "DistrictId": 1, "Latitude": 22.67096, "Longitude": 120.3614, "IVRNo": 4835, "EXTVoiceNo": 20024, "traveltime": 0, "holidayTraveltime": 0}, {"Id": "0985", "pgp": 0, "GoBack": 1, "SID": 8378, "NameZh": "\u978f\u5a01\u65b0\u6751", "RouteId": 5, "SeqNo": 28, "Terminal": 0, "DistrictId": 1, "Latitude": 22.67431, "Longitude": 120.36365, "IVRNo": 9271, "EXTVoiceNo": 20985, "traveltime": 0, "holidayTraveltime": 0}, {"Id": "0946", "pgp": 0, "GoBack": 1, "SID": 8379, "NameZh": "\u7da0\u5712\u5c71\u838a", "RouteId": 5, "SeqNo": 29, "Terminal": 0, "DistrictId": 1, "Latitude": 22.67691, "Longitude": 120.36281, "IVRNo": 9249, "EXTVoiceNo": 20946, "traveltime": 0, "holidayTraveltime": 0}, {"Id": "0396", "pgp": 0, "GoBack": 1, "SID": 8380, "NameZh": "\u8003\u6f6d\u91cc", "RouteId": 5, "SeqNo": 30, "Terminal": 0, "DistrictId": 1, "Latitude": 22.67943, "Longitude": 120.36193, "IVRNo": 8968, "EXTVoiceNo": 20396, "traveltime": 0, "holidayTraveltime": 0}, {"Id": "3232", "pgp": 0, "GoBack": 1, "SID": 8381, "NameZh": "\u5929\u540e\u5bae(\u6210\u529f\u8def)", "RouteId": 5, "SeqNo": 31, "Terminal": 0, "DistrictId": 1, "Latitude": 22.68143, "Longitude": 120.36205, "IVRNo": 3232, "EXTVoiceNo": 3232, "traveltime": 0, "holidayTraveltime": 0}, {"Id": "0851", "pgp": 0, "GoBack": 1, "SID": 8382, "NameZh": "\u57e4\u5167\u5df7", "RouteId": 5, "SeqNo": 32, "Terminal": 0, "DistrictId": 1, "Latitude": 22.68266, "Longitude": 120.36445, "IVRNo": 851, "EXTVoiceNo": 851, "traveltime": 0, "holidayTraveltime": 0}, {"Id": "0482", "pgp": 0, "GoBack": 1, "SID": 8383, "NameZh": "\u660e\u5c71\u6148\u5b89\u5c45", "RouteId": 5, "SeqNo": 33, "Terminal": 0, "DistrictId": 1, "Latitude": 22.68477, "Longitude": 120.36433, "IVRNo": 8991, "EXTVoiceNo": 20482, "traveltime": 0, "holidayTraveltime": 0}, {"Id": "8990", "pgp": 0, "GoBack": 1, "SID": 8384, "NameZh": "\u5fe0\u5c71\u85e5\u5ee0", "RouteId": 5, "SeqNo": 34, "Terminal": 0, "DistrictId": 1, "Latitude": 22.68613, "Longitude": 120.36456, "IVRNo": 8989, "EXTVoiceNo": 8990, "traveltime": 0, "holidayTraveltime": 0}, {"Id": "8995", "pgp": 0, "GoBack": 1, "SID": 8385, "NameZh": "\u6771\u4e9e\u6f06\u5ee0", "RouteId": 5, "SeqNo": 35, "Terminal": 0, "DistrictId": 1, "Latitude": 22.68876, "Longitude": 120.36705, "IVRNo": 8994, "EXTVoiceNo": 8995, "traveltime": 0, "holidayTraveltime": 0}, {"Id": "0055", "pgp": 0, "GoBack": 1, "SID": 8386, "NameZh": "\u4e45\u4fdd\u7965\u516c\u53f8", "RouteId": 5, "SeqNo": 36, "Terminal": 0, "DistrictId": 1, "Latitude": 22.69167, "Longitude": 120.36991, "IVRNo": 8906, "EXTVoiceNo": 20055, "traveltime": 0, "holidayTraveltime": 0}, {"Id": "9028", "pgp": 0, "GoBack": 1, "SID": 8387, "NameZh": "\u70cf\u6797\u91cc", "RouteId": 5, "SeqNo": 37, "Terminal": 0, "DistrictId": 1, "Latitude": 22.69656, "Longitude": 120.3755, "IVRNo": 9028, "EXTVoiceNo": 9028, "traveltime": 0, "holidayTraveltime": 0}, {"Id": "1001", "pgp": 0, "GoBack": 1, "SID": 8388, "NameZh": "\u78da\u5ee0", "RouteId": 5, "SeqNo": 38, "Terminal": 0, "DistrictId": 1, "Latitude": 22.69873, "Longitude": 120.37971, "IVRNo": 9279, "EXTVoiceNo": 21001, "traveltime": 0, "holidayTraveltime": 0}, {"Id": "9016", "pgp": 0, "GoBack": 1, "SID": 8389, "NameZh": "\u6cb9\u5eab", "RouteId": 5, "SeqNo": 39, "Terminal": 0, "DistrictId": 1, "Latitude": 22.70095, "Longitude": 120.38793, "IVRNo": 9015, "EXTVoiceNo": 9016, "traveltime": 0, "holidayTraveltime": 0}, {"Id": "9042", "pgp": 0, "GoBack": 1, "SID": 12294, "NameZh": "\u6e05\u6de8\u5bfaA(\u4ec1\u6797\u8def)", "RouteId": 5, "SeqNo": 40, "Terminal": 0, "DistrictId": 1, "Latitude": 22.701047, "Longitude": 120.390976, "IVRNo": 9042, "EXTVoiceNo": 9042, "traveltime": 0, "holidayTraveltime": 0}, {"Id": "9045", "pgp": 0, "GoBack": 1, "SID": 12295, "NameZh": "\u6e05\u6de8\u5bfaB(\u5fe0\u7fa9\u8def)", "RouteId": 5, "SeqNo": 41, "Terminal": 0, "DistrictId": 1, "Latitude": 22.698995, "Longitude": 120.391925, "IVRNo": 9044, "EXTVoiceNo": 9045, "traveltime": 0, "holidayTraveltime": 0}, {"Id": "9446", "pgp": 0, "GoBack": 1, "SID": 8391, "NameZh": "\u95dc\u5e1d\u5edf", "RouteId": 5, "SeqNo": 42, "Terminal": 1, "DistrictId": 1, "Latitude": 22.69435, "Longitude": 120.39348, "IVRNo": 9288, "EXTVoiceNo": 9446, "traveltime": 0, "holidayTraveltime": 0}, {"Id": "9446", "pgp": 0, "GoBack": 2, "SID": 6236, "NameZh": "\u95dc\u5e1d\u5edf", "RouteId": 5, "SeqNo": 1, "Terminal": 0, "DistrictId": 1, "Latitude": 22.69435, "Longitude": 120.39348, "IVRNo": 9288, "EXTVoiceNo": 9446, "traveltime": 0, "holidayTraveltime": 0}, {"Id": "9045", "pgp": 0, "GoBack": 2, "SID": 12324, "NameZh": "\u6e05\u6de8\u5bfaB(\u5fe0\u7fa9\u8def)", "RouteId": 5, "SeqNo": 2, "Terminal": 0, "DistrictId": 1, "Latitude": 22.698995, "Longitude": 120.391925, "IVRNo": 9044, "EXTVoiceNo": 9045, "traveltime": 0, "holidayTraveltime": 0}, {"Id": "9042", "pgp": 0, "GoBack": 2, "SID": 12323, "NameZh": "\u6e05\u6de8\u5bfaA(\u4ec1\u6797\u8def)", "RouteId": 5, "SeqNo": 3, "Terminal": 0, "DistrictId": 1, "Latitude": 22.701047, "Longitude": 120.390976, "IVRNo": 9042, "EXTVoiceNo": 9042, "traveltime": 0, "holidayTraveltime": 0}, {"Id": "9016", "pgp": 0, "GoBack": 2, "SID": 8393, "NameZh": "\u6cb9\u5eab", "RouteId": 5, "SeqNo": 4, "Terminal": 0, "DistrictId": 1, "Latitude": 22.70113, "Longitude": 120.38796, "IVRNo": 9015, "EXTVoiceNo": 9016, "traveltime": 0, "holidayTraveltime": 0}, {"Id": "1001", "pgp": 0, "GoBack": 2, "SID": 8394, "NameZh": "\u78da\u5ee0", "RouteId": 5, "SeqNo": 5, "Terminal": 0, "DistrictId": 1, "Latitude": 22.69878, "Longitude": 120.3797, "IVRNo": 9279, "EXTVoiceNo": 21001, "traveltime": 0, "holidayTraveltime": 0}, {"Id": "9028", "pgp": 0, "GoBack": 2, "SID": 8395, "NameZh": "\u70cf\u6797\u91cc", "RouteId": 5, "SeqNo": 6, "Terminal": 0, "DistrictId": 1, "Latitude": 22.69663, "Longitude": 120.37551, "IVRNo": 9028, "EXTVoiceNo": 9028, "traveltime": 0, "holidayTraveltime": 0}, {"Id": "0055", "pgp": 0, "GoBack": 2, "SID": 8396, "NameZh": "\u4e45\u4fdd\u7965\u516c\u53f8", "RouteId": 5, "SeqNo": 7, "Terminal": 0, "DistrictId": 1, "Latitude": 22.6917, "Longitude": 120.36988, "IVRNo": 8906, "EXTVoiceNo": 20055, "traveltime": 0, "holidayTraveltime": 0}, {"Id": "8995", "pgp": 0, "GoBack": 2, "SID": 8397, "NameZh": "\u6771\u4e9e\u6f06\u5ee0", "RouteId": 5, "SeqNo": 8, "Terminal": 0, "DistrictId": 1, "Latitude": 22.68863, "Longitude": 120.36683, "IVRNo": 8994, "EXTVoiceNo": 8995, "traveltime": 0, "holidayTraveltime": 0}, {"Id": "8990", "pgp": 0, "GoBack": 2, "SID": 8398, "NameZh": "\u5fe0\u5c71\u85e5\u5ee0", "RouteId": 5, "SeqNo": 9, "Terminal": 0, "DistrictId": 1, "Latitude": 22.68581, "Longitude": 120.36416, "IVRNo": 8989, "EXTVoiceNo": 8990, "traveltime": 0, "holidayTraveltime": 0}, {"Id": "0482", "pgp": 0, "GoBack": 2, "SID": 8399, "NameZh": "\u660e\u5c71\u6148\u5b89\u5c45", "RouteId": 5, "SeqNo": 10, "Terminal": 0, "DistrictId": 1, "Latitude": 22.68476, "Longitude": 120.36428, "IVRNo": 8991, "EXTVoiceNo": 20482, "traveltime": 0, "holidayTraveltime": 0}, {"Id": "0851", "pgp": 0, "GoBack": 2, "SID": 8400, "NameZh": "\u57e4\u5167\u5df7", "RouteId": 5, "SeqNo": 11, "Terminal": 0, "DistrictId": 1, "Latitude": 22.68258, "Longitude": 120.36426, "IVRNo": 851, "EXTVoiceNo": 851, "traveltime": 0, "holidayTraveltime": 0}, {"Id": "3232", "pgp": 0, "GoBack": 2, "SID": 8401, "NameZh": "\u5929\u540e\u5bae(\u6210\u529f\u8def)", "RouteId": 5, "SeqNo": 12, "Terminal": 0, "DistrictId": 1, "Latitude": 22.68145, "Longitude": 120.36211, "IVRNo": 3232, "EXTVoiceNo": 3232, "traveltime": 0, "holidayTraveltime": 0}, {"Id": "0396", "pgp": 0, "GoBack": 2, "SID": 8402, "NameZh": "\u8003\u6f6d\u91cc", "RouteId": 5, "SeqNo": 13, "Terminal": 0, "DistrictId": 1, "Latitude": 22.67944, "Longitude": 120.36198, "IVRNo": 8968, "EXTVoiceNo": 20396, "traveltime": 0, "holidayTraveltime": 0}, {"Id": "0946", "pgp": 0, "GoBack": 2, "SID": 8403, "NameZh": "\u7da0\u5712\u5c71\u838a", "RouteId": 5, "SeqNo": 14, "Terminal": 0, "DistrictId": 1, "Latitude": 22.67675, "Longitude": 120.36293, "IVRNo": 9249, "EXTVoiceNo": 20946, "traveltime": 0, "holidayTraveltime": 0}, {"Id": "0985", "pgp": 0, "GoBack": 2, "SID": 8404, "NameZh": "\u978f\u5a01\u65b0\u6751", "RouteId": 5, "SeqNo": 15, "Terminal": 0, "DistrictId": 1, "Latitude": 22.67438, "Longitude": 120.36356, "IVRNo": 9271, "EXTVoiceNo": 20985, "traveltime": 0, "holidayTraveltime": 0}, {"Id": "0024", "pgp": 0, "GoBack": 2, "SID": 8405, "NameZh": "\u5341\u4e5d\u7063", "RouteId": 5, "SeqNo": 16, "Terminal": 0, "DistrictId": 1, "Latitude": 22.67091, "Longitude": 120.36123, "IVRNo": 4835, "EXTVoiceNo": 20024, "traveltime": 0, "holidayTraveltime": 0}, {"Id": "9246", "pgp": 0, "GoBack": 2, "SID": 8406, "NameZh": "\u5922\u88e1\u91cc", "RouteId": 5, "SeqNo": 17, "Terminal": 0, "DistrictId": 1, "Latitude": 22.66741, "Longitude": 120.36263, "IVRNo": 9245, "EXTVoiceNo": 9246, "traveltime": 0, "holidayTraveltime": 0}, {"Id": "3370", "pgp": 0, "GoBack": 2, "SID": 8407, "NameZh": "\u9ce5\u677e", "RouteId": 5, "SeqNo": 18, "Terminal": 0, "DistrictId": 1, "Latitude": 22.66166, "Longitude": 120.36358, "IVRNo": 1463, "EXTVoiceNo": 13370, "traveltime": 0, "holidayTraveltime": 0}, {"Id": "0978", "pgp": 0, "GoBack": 2, "SID": 8409, "NameZh": "\u6f84\u6e05\u6e56\u8def\u53e3", "RouteId": 5, "SeqNo": 19, "Terminal": 0, "DistrictId": 1, "Latitude": 22.65856, "Longitude": 120.36426, "IVRNo": 9267, "EXTVoiceNo": 20978, "traveltime": 0, "holidayTraveltime": 0}, {"Id": "1132", "pgp": 0, "GoBack": 2, "SID": 8410, "NameZh": "\u4e09\u53e2\u7af9", "RouteId": 5, "SeqNo": 20, "Terminal": 0, "DistrictId": 1, "Latitude": 22.64913, "Longitude": 120.36525, "IVRNo": 517, "EXTVoiceNo": 21132, "traveltime": 0, "holidayTraveltime": 0}, {"Id": "0516", "pgp": 0, "GoBack": 2, "SID": 8411, "NameZh": "\u725b\u7a20\u57d4(\u9cf3\u5c71)", "RouteId": 5, "SeqNo": 21, "Terminal": 0, "DistrictId": 1, "Latitude": 22.644536, "Longitude": 120.3647, "IVRNo": 516, "EXTVoiceNo": 516, "traveltime": 0, "holidayTraveltime": 0}, {"Id": "0080", "pgp": 0, "GoBack": 2, "SID": 2026, "NameZh": "\u725b\u6f6e\u57d4\u4f11\u9592\u516c\u5712", "RouteId": 5, "SeqNo": 22, "Terminal": 0, "DistrictId": 1, "Latitude": 22.644088, "Longitude": 120.366216, "IVRNo": 1168, "EXTVoiceNo": 80, "traveltime": 0, "holidayTraveltime": 0}, {"Id": "0079", "pgp": 0, "GoBack": 2, "SID": 2066, "NameZh": "\u93ae\u5317\u570b\u5c0f", "RouteId": 5, "SeqNo": 23, "Terminal": 0, "DistrictId": 1, "Latitude": 22.642969, "Longitude": 120.367407, "IVRNo": 1167, "EXTVoiceNo": 79, "traveltime": 0, "holidayTraveltime": 0}, {"Id": "0291", "pgp": 0, "GoBack": 2, "SID": 1564, "NameZh": "\u5317\u6587\u8857\u53e3", "RouteId": 5, "SeqNo": 24, "Terminal": 0, "DistrictId": 1, "Latitude": 22.640843, "Longitude": 120.36912, "IVRNo": 958, "EXTVoiceNo": 291, "traveltime": 0, "holidayTraveltime": 0}, {"Id": "0276", "pgp": 0, "GoBack": 2, "SID": 17981, "NameZh": "\u5317\u660c\u4e94\u8857\u53e3", "RouteId": 5, "SeqNo": 25, "Terminal": 0, "DistrictId": 1, "Latitude": 22.643066, "Longitude": 120.374104, "IVRNo": 276, "EXTVoiceNo": 276, "traveltime": 0, "holidayTraveltime": 0}, {"Id": "0292", "pgp": 0, "GoBack": 2, "SID": 939, "NameZh": "\u5317\u660c\u4e09\u8857\u53e3", "RouteId": 5, "SeqNo": 26, "Terminal": 0, "DistrictId": 1, "Latitude": 22.64533, "Longitude": 120.37276, "IVRNo": 959, "EXTVoiceNo": 292, "traveltime": 0, "holidayTraveltime": 0}, {"Id": "0276", "pgp": 0, "GoBack": 2, "SID": 18200, "NameZh": "\u5317\u660c\u4e94\u8857\u53e3", "RouteId": 5, "SeqNo": 27, "Terminal": 0, "DistrictId": 1, "Latitude": 22.64402, "Longitude": 120.373518, "IVRNo": 276, "EXTVoiceNo": 276, "traveltime": 0, "holidayTraveltime": 0}, {"Id": "0291", "pgp": 0, "GoBack": 2, "SID": 16961, "NameZh": "\u5317\u6587\u8857\u53e3", "RouteId": 5, "SeqNo": 28, "Terminal": 0, "DistrictId": 1, "Latitude": 22.640858, "Longitude": 120.369305, "IVRNo": 958, "EXTVoiceNo": 291, "traveltime": 0, "holidayTraveltime": 0}, {"Id": "8928", "pgp": 0, "GoBack": 2, "SID": 8413, "NameZh": "\u529b\u884c\u8def", "RouteId": 5, "SeqNo": 29, "Terminal": 0, "DistrictId": 1, "Latitude": 22.63898, "Longitude": 120.36736, "IVRNo": 4834, "EXTVoiceNo": 8928, "traveltime": 0, "holidayTraveltime": 0}, {"Id": "0266", "pgp": 0, "GoBack": 2, "SID": 8414, "NameZh": "\u5317\u5e73\u8def\u53e3", "RouteId": 5, "SeqNo": 30, "Terminal": 0, "DistrictId": 1, "Latitude": 22.63855, "Longitude": 120.36913, "IVRNo": 8933, "EXTVoiceNo": 20266, "traveltime": 0, "holidayTraveltime": 0}, {"Id": "0684", "pgp": 0, "GoBack": 2, "SID": 8356, "NameZh": "\u9ad8\u65d7\u5de5\u5bb6", "RouteId": 5, "SeqNo": 31, "Terminal": 0, "DistrictId": 1, "Latitude": 22.63598, "Longitude": 120.36976, "IVRNo": 9035, "EXTVoiceNo": 20684, "traveltime": 0, "holidayTraveltime": 0}, {"Id": "2051", "pgp": 0, "GoBack": 2, "SID": 8415, "NameZh": "\u5efa\u570b\u65b0\u57ce(\u9cf3\u677e\u8def\u53e3)", "RouteId": 5, "SeqNo": 32, "Terminal": 0, "DistrictId": 1, "Latitude": 22.63565, "Longitude": 120.36066, "IVRNo": 2051, "EXTVoiceNo": 2051, "traveltime": 0, "holidayTraveltime": 0}, {"Id": "1019", "pgp": 0, "GoBack": 2, "SID": 8416, "NameZh": "\u9752\u5e74\u8def\u53e3(\u5efa\u570b\u8def\u4e09\u6bb5)", "RouteId": 5, "SeqNo": 33, "Terminal": 0, "DistrictId": 1, "Latitude": 22.63735, "Longitude": 120.35203, "IVRNo": 1039, "EXTVoiceNo": 1019, "traveltime": 0, "holidayTraveltime": 0}, {"Id": "7125", "pgp": 0, "GoBack": 2, "SID": 12281, "NameZh": "\u6587\u6ff1\u8def\u53e3", "RouteId": 5, "SeqNo": 34, "Terminal": 0, "DistrictId": 1, "Latitude": 22.637895, "Longitude": 120.348275, "IVRNo": 146, "EXTVoiceNo": 17125, "traveltime": 0, "holidayTraveltime": 0}, {"Id": "0503", "pgp": 0, "GoBack": 2, "SID": 12064, "NameZh": "\u5a66\u5e7c\u9928", "RouteId": 5, "SeqNo": 35, "Terminal": 0, "DistrictId": 1, "Latitude": 22.629235, "Longitude": 120.348114, "IVRNo": 503, "EXTVoiceNo": 503, "traveltime": 0, "holidayTraveltime": 0}, {"Id": "8970", "pgp": 0, "GoBack": 2, "SID": 8418, "NameZh": "\u81ea\u7531\u5e02\u5834", "RouteId": 5, "SeqNo": 36, "Terminal": 0, "DistrictId": 1, "Latitude": 22.62565, "Longitude": 120.35095, "IVRNo": 9707, "EXTVoiceNo": 8970, "traveltime": 0, "holidayTraveltime": 0}, {"Id": "9200", "pgp": 0, "GoBack": 2, "SID": 11193, "NameZh": "\u6377\u904b\u9cf3\u5c71\u7ad9", "RouteId": 5, "SeqNo": 37, "Terminal": 0, "DistrictId": 1, "Latitude": 22.62598, "Longitude": 120.35614, "IVRNo": 9708, "EXTVoiceNo": 9200, "traveltime": 0, "holidayTraveltime": 0}, {"Id": "9201", "pgp": 0, "GoBack": 2, "SID": 9799, "NameZh": "\u66f9\u516c\u8def", "RouteId": 5, "SeqNo": 38, "Terminal": 0, "DistrictId": 1, "Latitude": 22.628407, "Longitude": 120.357315, "IVRNo": 506, "EXTVoiceNo": 9201, "traveltime": 0, "holidayTraveltime": 0}, {"Id": "9202", "pgp": 0, "GoBack": 2, "SID": 9833, "NameZh": "\u81fa\u9435\u9cf3\u5c71\u7ad9", "RouteId": 5, "SeqNo": 39, "Terminal": 0, "DistrictId": 1, "Latitude": 22.630563, "Longitude": 120.357433, "IVRNo": 9709, "EXTVoiceNo": 9202, "traveltime": 0, "holidayTraveltime": 0}, {"Id": "9201", "pgp": 0, "GoBack": 2, "SID": 13798, "NameZh": "\u66f9\u516c\u8def", "RouteId": 5, "SeqNo": 40, "Terminal": 0, "DistrictId": 1, "Latitude": 22.628343, "Longitude": 120.357147, "IVRNo": 506, "EXTVoiceNo": 9201, "traveltime": 0, "holidayTraveltime": 0}, {"Id": "0083", "pgp": 0, "GoBack": 2, "SID": 8362, "NameZh": "\u9ad8\u96c4\u5ba2\u904b\u9cf3\u5c71\u7ad9(\u4e2d\u5c71\u8def)", "RouteId": 5, "SeqNo": 41, "Terminal": 0, "DistrictId": 1, "Latitude": 22.624152, "Longitude": 120.357032, "IVRNo": 727, "EXTVoiceNo": 83, "traveltime": 0, "holidayTraveltime": 0}, {"Id": "2099", "pgp": 0, "GoBack": 2, "SID": 19015, "NameZh": "\u9cf3\u5c71\u8f49\u904b\u7ad9(\u6377\u904b\u5927\u6771\u7ad9)", "RouteId": 5, "SeqNo": 42, "Terminal": 1, "DistrictId": 1, "Latitude": 22.625792, "Longitude": 120.363358, "IVRNo": 2099, "EXTVoiceNo": 2099, "traveltime": 0, "holidayTraveltime": 0}]}