{"en": [{"Id": "0832", "pgp": 0, "GoBack": 1, "SID": 6485, "NameZh": "Gangshan Transfer Station (Gangshan Train Station)", "RouteId": 8040, "SeqNo": 1, "Terminal": 0, "DistrictId": 1, "Latitude": 22.792295, "Longitude": 120.299132, "IVRNo": 832, "EXTVoiceNo": 832, "traveltime": 0, "holidayTraveltime": 0}, {"Id": "0731", "pgp": 0, "GoBack": 1, "SID": 16893, "NameZh": "National Immigration Agency", "RouteId": 8040, "SeqNo": 2, "Terminal": 0, "DistrictId": 1, "Latitude": 22.7914, "Longitude": 120.29602, "IVRNo": 9214, "EXTVoiceNo": 20731, "traveltime": 0, "holidayTraveltime": 0}, {"Id": "6151", "pgp": 0, "GoBack": 1, "SID": 11551, "NameZh": "Lijhih New Village", "RouteId": 8040, "SeqNo": 3, "Terminal": 0, "DistrictId": 1, "Latitude": 22.790276, "Longitude": 120.296366, "IVRNo": 9281, "EXTVoiceNo": 26151, "traveltime": 0, "holidayTraveltime": 0}, {"Id": "9129", "pgp": 0, "GoBack": 1, "SID": 16894, "NameZh": "Wunhua St. Intersection", "RouteId": 8040, "SeqNo": 4, "Terminal": 0, "DistrictId": 1, "Latitude": 22.7878, "Longitude": 120.29653, "IVRNo": 9565, "EXTVoiceNo": 9129, "traveltime": 0, "holidayTraveltime": 0}, {"Id": "1110", "pgp": 0, "GoBack": 1, "SID": 16895, "NameZh": "Gangshan Cultural Center", "RouteId": 8040, "SeqNo": 5, "Terminal": 0, "DistrictId": 1, "Latitude": 22.78413, "Longitude": 120.29711, "IVRNo": 9564, "EXTVoiceNo": 21110, "traveltime": 0, "holidayTraveltime": 0}, {"Id": "0828", "pgp": 0, "GoBack": 1, "SID": 16896, "NameZh": "MRT Gangshan South Station", "RouteId": 8040, "SeqNo": 6, "Terminal": 0, "DistrictId": 1, "Latitude": 22.780564, "Longitude": 120.300649, "IVRNo": 828, "EXTVoiceNo": 828, "traveltime": 0, "holidayTraveltime": 0}, {"Id": "2351", "pgp": 0, "GoBack": 1, "SID": 16925, "NameZh": "Daliao Village", "RouteId": 8040, "SeqNo": 7, "Terminal": 0, "DistrictId": 1, "Latitude": 22.77525, "Longitude": 120.30154, "IVRNo": 13343, "EXTVoiceNo": 32351, "traveltime": 0, "holidayTraveltime": 0}, {"Id": "9641", "pgp": 0, "GoBack": 1, "SID": 16898, "NameZh": "Desong Rd. Intersection", "RouteId": 8040, "SeqNo": 8, "Terminal": 0, "DistrictId": 1, "Latitude": 22.763953, "Longitude": 120.307636, "IVRNo": 9541, "EXTVoiceNo": 9641, "traveltime": 0, "holidayTraveltime": 0}, {"Id": "9125", "pgp": 0, "GoBack": 1, "SID": 16899, "NameZh": "MRT Ciaotou Train Station", "RouteId": 8040, "SeqNo": 9, "Terminal": 0, "DistrictId": 1, "Latitude": 22.760793, "Longitude": 120.309259, "IVRNo": 7900, "EXTVoiceNo": 9125, "traveltime": 0, "holidayTraveltime": 0}, {"Id": "2399", "pgp": 0, "GoBack": 1, "SID": 16900, "NameZh": "Ciaotou  Market", "RouteId": 8040, "SeqNo": 10, "Terminal": 0, "DistrictId": 1, "Latitude": 22.755383, "Longitude": 120.311146, "IVRNo": 807, "EXTVoiceNo": 32399, "traveltime": 0, "holidayTraveltime": 0}, {"Id": "0377", "pgp": 0, "GoBack": 1, "SID": 16901, "NameZh": "Chenggong S. Rd.", "RouteId": 8040, "SeqNo": 11, "Terminal": 0, "DistrictId": 1, "Latitude": 22.75075, "Longitude": 120.31388, "IVRNo": 8963, "EXTVoiceNo": 20377, "traveltime": 0, "holidayTraveltime": 0}, {"Id": "2071", "pgp": 0, "GoBack": 1, "SID": 16902, "NameZh": "MRT Cingpu Station (Chenggong S. Rd.)", "RouteId": 8040, "SeqNo": 12, "Terminal": 0, "DistrictId": 1, "Latitude": 22.74371, "Longitude": 120.3167, "IVRNo": 2071, "EXTVoiceNo": 2071, "traveltime": 0, "holidayTraveltime": 0}, {"Id": "1004", "pgp": 0, "GoBack": 1, "SID": 16903, "NameZh": "Motor Vehicle office (Gaonan Rd.)", "RouteId": 8040, "SeqNo": 13, "Terminal": 0, "DistrictId": 1, "Latitude": 22.73252, "Longitude": 120.31989, "IVRNo": 1004, "EXTVoiceNo": 1004, "traveltime": 0, "holidayTraveltime": 0}, {"Id": "1283", "pgp": 0, "GoBack": 1, "SID": 16904, "NameZh": "MRT Metropolitan Park Station", "RouteId": 8040, "SeqNo": 14, "Terminal": 0, "DistrictId": 1, "Latitude": 22.72958, "Longitude": 120.32058, "IVRNo": 1283, "EXTVoiceNo": 1283, "traveltime": 0, "holidayTraveltime": 0}, {"Id": "7074", "pgp": 0, "GoBack": 1, "SID": 16905, "NameZh": "Metal Center", "RouteId": 8040, "SeqNo": 15, "Terminal": 0, "DistrictId": 1, "Latitude": 22.716, "Longitude": 120.32557, "IVRNo": 7074, "EXTVoiceNo": 7074, "traveltime": 0, "holidayTraveltime": 0}, {"Id": "4654", "pgp": 0, "GoBack": 1, "SID": 16906, "NameZh": "Rentian Village", "RouteId": 8040, "SeqNo": 16, "Terminal": 0, "DistrictId": 1, "Latitude": 22.71244, "Longitude": 120.3255, "IVRNo": 4654, "EXTVoiceNo": 4654, "traveltime": 0, "holidayTraveltime": 0}, {"Id": "0163", "pgp": 0, "GoBack": 1, "SID": 16907, "NameZh": "Jhonghua Community", "RouteId": 8040, "SeqNo": 17, "Terminal": 0, "DistrictId": 1, "Latitude": 22.70894, "Longitude": 120.32483, "IVRNo": 7020, "EXTVoiceNo": 20163, "traveltime": 0, "holidayTraveltime": 0}, {"Id": "7932", "pgp": 0, "GoBack": 1, "SID": 16908, "NameZh": "Shueiguan Rd. Intersection (Gaonan Highway)", "RouteId": 8040, "SeqNo": 18, "Terminal": 0, "DistrictId": 1, "Latitude": 22.70436, "Longitude": 120.3239, "IVRNo": 7932, "EXTVoiceNo": 7932, "traveltime": 0, "holidayTraveltime": 0}, {"Id": "4758", "pgp": 0, "GoBack": 1, "SID": 16909, "NameZh": "Banping Mountain (Gaonan Rd.)", "RouteId": 8040, "SeqNo": 19, "Terminal": 0, "DistrictId": 1, "Latitude": 22.70028, "Longitude": 120.32317, "IVRNo": 4730, "EXTVoiceNo": 4758, "traveltime": 0, "holidayTraveltime": 0}, {"Id": "0288", "pgp": 0, "GoBack": 1, "SID": 16910, "NameZh": "Taiwan Times", "RouteId": 8040, "SeqNo": 20, "Terminal": 0, "DistrictId": 1, "Latitude": 22.69784, "Longitude": 120.32268, "IVRNo": 7023, "EXTVoiceNo": 20288, "traveltime": 0, "holidayTraveltime": 0}, {"Id": "7024", "pgp": 0, "GoBack": 1, "SID": 16911, "NameZh": "Gaonan New Village", "RouteId": 8040, "SeqNo": 21, "Terminal": 0, "DistrictId": 1, "Latitude": 22.69235, "Longitude": 120.32162, "IVRNo": 476, "EXTVoiceNo": 7024, "traveltime": 0, "holidayTraveltime": 0}, {"Id": "1870", "pgp": 0, "GoBack": 1, "SID": 16912, "NameZh": "Fubin New Village", "RouteId": 8040, "SeqNo": 22, "Terminal": 0, "DistrictId": 1, "Latitude": 22.68651, "Longitude": 120.3205, "IVRNo": 11870, "EXTVoiceNo": 11870, "traveltime": 0, "holidayTraveltime": 0}, {"Id": "5762", "pgp": 0, "GoBack": 1, "SID": 16913, "NameZh": "Kaohsiung Municipal Hsinchuang Senior High School (Minzu 1st Rd.)", "RouteId": 8040, "SeqNo": 23, "Terminal": 0, "DistrictId": 1, "Latitude": 22.680705, "Longitude": 120.319421, "IVRNo": 5708, "EXTVoiceNo": 5762, "traveltime": 0, "holidayTraveltime": 0}, {"Id": "5206", "pgp": 0, "GoBack": 1, "SID": 13883, "NameZh": "Dajhong Rd. Intersection (Minzu 1st Rd.)", "RouteId": 8040, "SeqNo": 24, "Terminal": 0, "DistrictId": 1, "Latitude": 22.676644, "Longitude": 120.31885, "IVRNo": 2210, "EXTVoiceNo": 5206, "traveltime": 0, "holidayTraveltime": 0}, {"Id": "8974", "pgp": 0, "GoBack": 1, "SID": 16915, "NameZh": "Caigong Rd. Intersection (Minzu 1st Rd.)", "RouteId": 8040, "SeqNo": 25, "Terminal": 0, "DistrictId": 1, "Latitude": 22.67438, "Longitude": 120.31814, "IVRNo": 1043, "EXTVoiceNo": 8974, "traveltime": 0, "holidayTraveltime": 0}, {"Id": "5208", "pgp": 0, "GoBack": 1, "SID": 16916, "NameZh": "Wenzao Ursuline University of Languages  (Minzu 1st Rd.)", "RouteId": 8040, "SeqNo": 26, "Terminal": 0, "DistrictId": 1, "Latitude": 22.670754, "Longitude": 120.317407, "IVRNo": 453, "EXTVoiceNo": 5208, "traveltime": 0, "holidayTraveltime": 0}, {"Id": "5408", "pgp": 0, "GoBack": 1, "SID": 2685, "NameZh": "Tiansiang Rd. Intersection (Minzu 1st Rd..)", "RouteId": 8040, "SeqNo": 27, "Terminal": 0, "DistrictId": 1, "Latitude": 22.667888, "Longitude": 120.316908, "IVRNo": 2213, "EXTVoiceNo": 5408, "traveltime": 0, "holidayTraveltime": 0}, {"Id": "7032", "pgp": 0, "GoBack": 1, "SID": 8245, "NameZh": "Minzu Yucheng Rd. Intersection", "RouteId": 8040, "SeqNo": 28, "Terminal": 0, "DistrictId": 1, "Latitude": 22.664938, "Longitude": 120.316375, "IVRNo": 2214, "EXTVoiceNo": 7032, "traveltime": 0, "holidayTraveltime": 0}, {"Id": "5213", "pgp": 0, "GoBack": 1, "SID": 2693, "NameZh": "Minzu Rd. (Mingcheng Rd. Intersection)", "RouteId": 8040, "SeqNo": 29, "Terminal": 0, "DistrictId": 1, "Latitude": 22.661621, "Longitude": 120.315891, "IVRNo": 43, "EXTVoiceNo": 5213, "traveltime": 0, "holidayTraveltime": 0}, {"Id": "1164", "pgp": 0, "GoBack": 1, "SID": 7639, "NameZh": "Minzu Dashun Rd. Intersection", "RouteId": 8040, "SeqNo": 30, "Terminal": 0, "DistrictId": 1, "Latitude": 22.657316, "Longitude": 120.315714, "IVRNo": 4030, "EXTVoiceNo": 21164, "traveltime": 0, "holidayTraveltime": 0}, {"Id": "5215", "pgp": 0, "GoBack": 1, "SID": 16921, "NameZh": "Longfong Temple", "RouteId": 8040, "SeqNo": 31, "Terminal": 0, "DistrictId": 1, "Latitude": 22.65314, "Longitude": 120.31518, "IVRNo": 5215, "EXTVoiceNo": 5215, "traveltime": 0, "holidayTraveltime": 0}, {"Id": "3447", "pgp": 0, "GoBack": 1, "SID": 14315, "NameZh": "Wanzihnei", "RouteId": 8040, "SeqNo": 32, "Terminal": 0, "DistrictId": 1, "Latitude": 22.648719, "Longitude": 120.314835, "IVRNo": 5216, "EXTVoiceNo": 13447, "traveltime": 0, "holidayTraveltime": 0}, {"Id": "7377", "pgp": 0, "GoBack": 1, "SID": 19132, "NameZh": "Vegetable & Fruit Company", "RouteId": 8040, "SeqNo": 33, "Terminal": 0, "DistrictId": 1, "Latitude": 22.64504, "Longitude": 120.31458, "IVRNo": 232, "EXTVoiceNo": 7377, "traveltime": 0, "holidayTraveltime": 0}, {"Id": "0234", "pgp": 0, "GoBack": 1, "SID": 18225, "NameZh": "Gaoyi, Kaohsiung Medical University (Shihcyuan Rd.)", "RouteId": 8040, "SeqNo": 34, "Terminal": 0, "DistrictId": 1, "Latitude": 22.64503, "Longitude": 120.30943, "IVRNo": 234, "EXTVoiceNo": 234, "traveltime": 0, "holidayTraveltime": 0}, {"Id": "0235", "pgp": 0, "GoBack": 1, "SID": 1556, "NameZh": "Sanmin Junior High School", "RouteId": 8040, "SeqNo": 35, "Terminal": 0, "DistrictId": 1, "Latitude": 22.64525, "Longitude": 120.30685, "IVRNo": 235, "EXTVoiceNo": 235, "traveltime": 0, "holidayTraveltime": 0}, {"Id": "2839", "pgp": 0, "GoBack": 1, "SID": 19130, "NameZh": "Sanmin Park (Boai Rd. Intersection)", "RouteId": 8040, "SeqNo": 36, "Terminal": 0, "DistrictId": 1, "Latitude": 22.64541, "Longitude": 120.30438, "IVRNo": 236, "EXTVoiceNo": 2839, "traveltime": 0, "holidayTraveltime": 0}, {"Id": "1445", "pgp": 0, "GoBack": 1, "SID": 17721, "NameZh": "Jhongshan 1st Rd. Intersection", "RouteId": 8040, "SeqNo": 37, "Terminal": 0, "DistrictId": 1, "Latitude": 22.63422, "Longitude": 120.3036, "IVRNo": 1445, "EXTVoiceNo": 1445, "traveltime": 0, "holidayTraveltime": 0}, {"Id": "9368", "pgp": 0, "GoBack": 1, "SID": 2146, "NameZh": "Kaohsiung Station (Nanhua Rd.)", "RouteId": 8040, "SeqNo": 38, "Terminal": 1, "DistrictId": 1, "Latitude": 22.638135, "Longitude": 120.303514, "IVRNo": 9034, "EXTVoiceNo": 9368, "traveltime": 0, "holidayTraveltime": 0}, {"Id": "9368", "pgp": 0, "GoBack": 2, "SID": 2146, "NameZh": "Kaohsiung Station (Nanhua Rd.)", "RouteId": 8040, "SeqNo": 1, "Terminal": 0, "DistrictId": 1, "Latitude": 22.638135, "Longitude": 120.303514, "IVRNo": 9034, "EXTVoiceNo": 9368, "traveltime": 0, "holidayTraveltime": 0}, {"Id": "1445", "pgp": 0, "GoBack": 2, "SID": 16926, "NameZh": "Jhongshan 1st Rd. Intersection", "RouteId": 8040, "SeqNo": 2, "Terminal": 0, "DistrictId": 1, "Latitude": 22.634573, "Longitude": 120.303617, "IVRNo": 1445, "EXTVoiceNo": 1445, "traveltime": 0, "holidayTraveltime": 0}, {"Id": "2839", "pgp": 0, "GoBack": 2, "SID": 19131, "NameZh": "Sanmin Park (Boai Rd. Intersection)", "RouteId": 8040, "SeqNo": 3, "Terminal": 0, "DistrictId": 1, "Latitude": 22.645369, "Longitude": 120.303658, "IVRNo": 236, "EXTVoiceNo": 2839, "traveltime": 0, "holidayTraveltime": 0}, {"Id": "0235", "pgp": 0, "GoBack": 2, "SID": 1729, "NameZh": "Sanmin Junior High School", "RouteId": 8040, "SeqNo": 4, "Terminal": 0, "DistrictId": 1, "Latitude": 22.645219, "Longitude": 120.305816, "IVRNo": 235, "EXTVoiceNo": 235, "traveltime": 0, "holidayTraveltime": 0}, {"Id": "0234", "pgp": 0, "GoBack": 2, "SID": 15832, "NameZh": "Gaoyi, Kaohsiung Medical University (Shihcyuan Rd.)", "RouteId": 8040, "SeqNo": 5, "Terminal": 0, "DistrictId": 1, "Latitude": 22.64487, "Longitude": 120.31066, "IVRNo": 234, "EXTVoiceNo": 234, "traveltime": 0, "holidayTraveltime": 0}, {"Id": "7377", "pgp": 0, "GoBack": 2, "SID": 19133, "NameZh": "Vegetable & Fruit Company", "RouteId": 8040, "SeqNo": 6, "Terminal": 0, "DistrictId": 1, "Latitude": 22.64521, "Longitude": 120.31426, "IVRNo": 232, "EXTVoiceNo": 7377, "traveltime": 0, "holidayTraveltime": 0}, {"Id": "3447", "pgp": 0, "GoBack": 2, "SID": 3917, "NameZh": "Wanzihnei", "RouteId": 8040, "SeqNo": 7, "Terminal": 0, "DistrictId": 1, "Latitude": 22.648883, "Longitude": 120.314983, "IVRNo": 5216, "EXTVoiceNo": 13447, "traveltime": 0, "holidayTraveltime": 0}, {"Id": "5215", "pgp": 0, "GoBack": 2, "SID": 16932, "NameZh": "Longfong Temple", "RouteId": 8040, "SeqNo": 8, "Terminal": 0, "DistrictId": 1, "Latitude": 22.65306, "Longitude": 120.31534, "IVRNo": 5215, "EXTVoiceNo": 5215, "traveltime": 0, "holidayTraveltime": 0}, {"Id": "1164", "pgp": 0, "GoBack": 2, "SID": 7864, "NameZh": "Minzu Dashun Rd. Intersection", "RouteId": 8040, "SeqNo": 9, "Terminal": 0, "DistrictId": 1, "Latitude": 22.657673, "Longitude": 120.315572, "IVRNo": 4030, "EXTVoiceNo": 21164, "traveltime": 0, "holidayTraveltime": 0}, {"Id": "5213", "pgp": 0, "GoBack": 2, "SID": 3927, "NameZh": "Minzu Rd. (Mingcheng Rd. Intersection)", "RouteId": 8040, "SeqNo": 10, "Terminal": 0, "DistrictId": 1, "Latitude": 22.661294, "Longitude": 120.316005, "IVRNo": 43, "EXTVoiceNo": 5213, "traveltime": 0, "holidayTraveltime": 0}, {"Id": "7032", "pgp": 0, "GoBack": 2, "SID": 8245, "NameZh": "Minzu Yucheng Rd. Intersection", "RouteId": 8040, "SeqNo": 11, "Terminal": 0, "DistrictId": 1, "Latitude": 22.664938, "Longitude": 120.316375, "IVRNo": 2214, "EXTVoiceNo": 7032, "traveltime": 0, "holidayTraveltime": 0}, {"Id": "5408", "pgp": 0, "GoBack": 2, "SID": 2690, "NameZh": "Tiansiang Rd. Intersection (Minzu 1st Rd..)", "RouteId": 8040, "SeqNo": 12, "Terminal": 0, "DistrictId": 1, "Latitude": 22.667888, "Longitude": 120.316908, "IVRNo": 2213, "EXTVoiceNo": 5408, "traveltime": 0, "holidayTraveltime": 0}, {"Id": "5208", "pgp": 0, "GoBack": 2, "SID": 16937, "NameZh": "Wenzao Ursuline University of Languages  (Minzu 1st Rd.)", "RouteId": 8040, "SeqNo": 13, "Terminal": 0, "DistrictId": 1, "Latitude": 22.67071, "Longitude": 120.3176, "IVRNo": 453, "EXTVoiceNo": 5208, "traveltime": 0, "holidayTraveltime": 0}, {"Id": "8974", "pgp": 0, "GoBack": 2, "SID": 16938, "NameZh": "Caigong Rd. Intersection (Minzu 1st Rd.)", "RouteId": 8040, "SeqNo": 14, "Terminal": 0, "DistrictId": 1, "Latitude": 22.67521, "Longitude": 120.31846, "IVRNo": 1043, "EXTVoiceNo": 8974, "traveltime": 0, "holidayTraveltime": 0}, {"Id": "5206", "pgp": 0, "GoBack": 2, "SID": 3946, "NameZh": "Dajhong Rd. Intersection (Minzu 1st Rd.)", "RouteId": 8040, "SeqNo": 15, "Terminal": 0, "DistrictId": 1, "Latitude": 22.678058, "Longitude": 120.31893, "IVRNo": 2210, "EXTVoiceNo": 5206, "traveltime": 0, "holidayTraveltime": 0}, {"Id": "5762", "pgp": 0, "GoBack": 2, "SID": 16940, "NameZh": "Kaohsiung Municipal Hsinchuang Senior High School (Minzu 1st Rd.)", "RouteId": 8040, "SeqNo": 16, "Terminal": 0, "DistrictId": 1, "Latitude": 22.680723, "Longitude": 120.319529, "IVRNo": 5708, "EXTVoiceNo": 5762, "traveltime": 0, "holidayTraveltime": 0}, {"Id": "1870", "pgp": 0, "GoBack": 2, "SID": 16941, "NameZh": "Fubin New Village", "RouteId": 8040, "SeqNo": 17, "Terminal": 0, "DistrictId": 1, "Latitude": 22.68629, "Longitude": 120.32061, "IVRNo": 11870, "EXTVoiceNo": 11870, "traveltime": 0, "holidayTraveltime": 0}, {"Id": "7024", "pgp": 0, "GoBack": 2, "SID": 16942, "NameZh": "Gaonan New Village", "RouteId": 8040, "SeqNo": 18, "Terminal": 0, "DistrictId": 1, "Latitude": 22.69224, "Longitude": 120.32178, "IVRNo": 476, "EXTVoiceNo": 7024, "traveltime": 0, "holidayTraveltime": 0}, {"Id": "0288", "pgp": 0, "GoBack": 2, "SID": 16943, "NameZh": "Taiwan Times", "RouteId": 8040, "SeqNo": 19, "Terminal": 0, "DistrictId": 1, "Latitude": 22.69786, "Longitude": 120.32285, "IVRNo": 7023, "EXTVoiceNo": 20288, "traveltime": 0, "holidayTraveltime": 0}, {"Id": "4758", "pgp": 0, "GoBack": 2, "SID": 16944, "NameZh": "Banping Mountain (Gaonan Rd.)", "RouteId": 8040, "SeqNo": 20, "Terminal": 0, "DistrictId": 1, "Latitude": 22.70023, "Longitude": 120.3233, "IVRNo": 4730, "EXTVoiceNo": 4758, "traveltime": 0, "holidayTraveltime": 0}, {"Id": "7932", "pgp": 0, "GoBack": 2, "SID": 16946, "NameZh": "Shueiguan Rd. Intersection (Gaonan Highway)", "RouteId": 8040, "SeqNo": 21, "Terminal": 0, "DistrictId": 1, "Latitude": 22.70461, "Longitude": 120.32414, "IVRNo": 7932, "EXTVoiceNo": 7932, "traveltime": 0, "holidayTraveltime": 0}, {"Id": "0163", "pgp": 0, "GoBack": 2, "SID": 16945, "NameZh": "Jhonghua Community", "RouteId": 8040, "SeqNo": 22, "Terminal": 0, "DistrictId": 1, "Latitude": 22.7097, "Longitude": 120.3251, "IVRNo": 7020, "EXTVoiceNo": 20163, "traveltime": 0, "holidayTraveltime": 0}, {"Id": "4654", "pgp": 0, "GoBack": 2, "SID": 16947, "NameZh": "Rentian Village", "RouteId": 8040, "SeqNo": 23, "Terminal": 0, "DistrictId": 1, "Latitude": 22.7126, "Longitude": 120.3257, "IVRNo": 4654, "EXTVoiceNo": 4654, "traveltime": 0, "holidayTraveltime": 0}, {"Id": "7074", "pgp": 0, "GoBack": 2, "SID": 16948, "NameZh": "Metal Center", "RouteId": 8040, "SeqNo": 24, "Terminal": 0, "DistrictId": 1, "Latitude": 22.71576, "Longitude": 120.32581, "IVRNo": 7074, "EXTVoiceNo": 7074, "traveltime": 0, "holidayTraveltime": 0}, {"Id": "7508", "pgp": 0, "GoBack": 2, "SID": 16949, "NameZh": "Gaonan Viaduct (MRT Metropolitan Park Station)", "RouteId": 8040, "SeqNo": 25, "Terminal": 0, "DistrictId": 1, "Latitude": 22.72777, "Longitude": 120.32158, "IVRNo": 7508, "EXTVoiceNo": 7508, "traveltime": 0, "holidayTraveltime": 0}, {"Id": "1004", "pgp": 0, "GoBack": 2, "SID": 16950, "NameZh": "Motor Vehicle office (Gaonan Rd.)", "RouteId": 8040, "SeqNo": 26, "Terminal": 0, "DistrictId": 1, "Latitude": 22.73266, "Longitude": 120.32024, "IVRNo": 1004, "EXTVoiceNo": 1004, "traveltime": 0, "holidayTraveltime": 0}, {"Id": "2071", "pgp": 0, "GoBack": 2, "SID": 16951, "NameZh": "MRT Cingpu Station (Chenggong S. Rd.)", "RouteId": 8040, "SeqNo": 27, "Terminal": 0, "DistrictId": 1, "Latitude": 22.74368, "Longitude": 120.31702, "IVRNo": 2071, "EXTVoiceNo": 2071, "traveltime": 0, "holidayTraveltime": 0}, {"Id": "0377", "pgp": 0, "GoBack": 2, "SID": 16952, "NameZh": "Chenggong S. Rd.", "RouteId": 8040, "SeqNo": 28, "Terminal": 0, "DistrictId": 1, "Latitude": 22.7506, "Longitude": 120.31408, "IVRNo": 8963, "EXTVoiceNo": 20377, "traveltime": 0, "holidayTraveltime": 0}, {"Id": "2399", "pgp": 0, "GoBack": 2, "SID": 16953, "NameZh": "Ciaotou  Market", "RouteId": 8040, "SeqNo": 29, "Terminal": 0, "DistrictId": 1, "Latitude": 22.754897, "Longitude": 120.311564, "IVRNo": 807, "EXTVoiceNo": 32399, "traveltime": 0, "holidayTraveltime": 0}, {"Id": "9125", "pgp": 0, "GoBack": 2, "SID": 16954, "NameZh": "MRT Ciaotou Train Station", "RouteId": 8040, "SeqNo": 30, "Terminal": 0, "DistrictId": 1, "Latitude": 22.760793, "Longitude": 120.309259, "IVRNo": 7900, "EXTVoiceNo": 9125, "traveltime": 0, "holidayTraveltime": 0}, {"Id": "9641", "pgp": 0, "GoBack": 2, "SID": 16955, "NameZh": "Desong Rd. Intersection", "RouteId": 8040, "SeqNo": 31, "Terminal": 0, "DistrictId": 1, "Latitude": 22.763918, "Longitude": 120.307479, "IVRNo": 9541, "EXTVoiceNo": 9641, "traveltime": 0, "holidayTraveltime": 0}, {"Id": "0828", "pgp": 0, "GoBack": 2, "SID": 16957, "NameZh": "MRT Gangshan South Station", "RouteId": 8040, "SeqNo": 32, "Terminal": 0, "DistrictId": 1, "Latitude": 22.780671, "Longitude": 120.300628, "IVRNo": 828, "EXTVoiceNo": 828, "traveltime": 0, "holidayTraveltime": 0}, {"Id": "1110", "pgp": 0, "GoBack": 2, "SID": 16958, "NameZh": "Gangshan Cultural Center", "RouteId": 8040, "SeqNo": 33, "Terminal": 0, "DistrictId": 1, "Latitude": 22.78406, "Longitude": 120.29732, "IVRNo": 9564, "EXTVoiceNo": 21110, "traveltime": 0, "holidayTraveltime": 0}, {"Id": "9129", "pgp": 0, "GoBack": 2, "SID": 16959, "NameZh": "Wunhua St. Intersection", "RouteId": 8040, "SeqNo": 34, "Terminal": 0, "DistrictId": 1, "Latitude": 22.78859, "Longitude": 120.29659, "IVRNo": 9565, "EXTVoiceNo": 9129, "traveltime": 0, "holidayTraveltime": 0}, {"Id": "6151", "pgp": 0, "GoBack": 2, "SID": 14863, "NameZh": "Lijhih New Village", "RouteId": 8040, "SeqNo": 35, "Terminal": 0, "DistrictId": 1, "Latitude": 22.789953, "Longitude": 120.296269, "IVRNo": 9281, "EXTVoiceNo": 26151, "traveltime": 0, "holidayTraveltime": 0}, {"Id": "0731", "pgp": 0, "GoBack": 2, "SID": 16960, "NameZh": "National Immigration Agency", "RouteId": 8040, "SeqNo": 36, "Terminal": 0, "DistrictId": 1, "Latitude": 22.79138, "Longitude": 120.29621, "IVRNo": 9214, "EXTVoiceNo": 20731, "traveltime": 0, "holidayTraveltime": 0}, {"Id": "0832", "pgp": 0, "GoBack": 2, "SID": 6486, "NameZh": "Gangshan Transfer Station (Gangshan Train Station)", "RouteId": 8040, "SeqNo": 37, "Terminal": 1, "DistrictId": 1, "Latitude": 22.792295, "Longitude": 120.299132, "IVRNo": 832, "EXTVoiceNo": 832, "traveltime": 0, "holidayTraveltime": 0}], "zh": [{"Id": "0832", "pgp": 0, "GoBack": 1, "SID": 6485, "NameZh": "\u5ca1\u5c71\u8f49\u904b\u7ad9(\u5ca1\u5c71\u706b\u8eca\u7ad9)", "RouteId": 8040, "SeqNo": 1, "Terminal": 0, "DistrictId": 1, "Latitude": 22.792295, "Longitude": 120.299132, "IVRNo": 832, "EXTVoiceNo": 832, "traveltime": 0, "holidayTraveltime": 0}, {"Id": "0731", "pgp": 0, "GoBack": 1, "SID": 16893, "NameZh": "\u79fb\u6c11\u7f72", "RouteId": 8040, "SeqNo": 2, "Terminal": 0, "DistrictId": 1, "Latitude": 22.7914, "Longitude": 120.29602, "IVRNo": 9214, "EXTVoiceNo": 20731, "traveltime": 0, "holidayTraveltime": 0}, {"Id": "6151", "pgp": 0, "GoBack": 1, "SID": 11551, "NameZh": "\u52f5\u5fd7\u65b0\u57ce", "RouteId": 8040, "SeqNo": 3, "Terminal": 0, "DistrictId": 1, "Latitude": 22.790276, "Longitude": 120.296366, "IVRNo": 9281, "EXTVoiceNo": 26151, "traveltime": 0, "holidayTraveltime": 0}, {"Id": "9129", "pgp": 0, "GoBack": 1, "SID": 16894, "NameZh": "\u6587\u5316\u8857\u53e3", "RouteId": 8040, "SeqNo": 4, "Terminal": 0, "DistrictId": 1, "Latitude": 22.7878, "Longitude": 120.29653, "IVRNo": 9565, "EXTVoiceNo": 9129, "traveltime": 0, "holidayTraveltime": 0}, {"Id": "1110", "pgp": 0, "GoBack": 1, "SID": 16895, "NameZh": "\u5ca1\u5c71\u6587\u5316\u4e2d\u5fc3", "RouteId": 8040, "SeqNo": 5, "Terminal": 0, "DistrictId": 1, "Latitude": 22.78413, "Longitude": 120.29711, "IVRNo": 9564, "EXTVoiceNo": 21110, "traveltime": 0, "holidayTraveltime": 0}, {"Id": "0828", "pgp": 0, "GoBack": 1, "SID": 16896, "NameZh": "\u6377\u904b\u5357\u5ca1\u5c71\u7ad9", "RouteId": 8040, "SeqNo": 6, "Terminal": 0, "DistrictId": 1, "Latitude": 22.780564, "Longitude": 120.300649, "IVRNo": 828, "EXTVoiceNo": 828, "traveltime": 0, "holidayTraveltime": 0}, {"Id": "2351", "pgp": 0, "GoBack": 1, "SID": 16925, "NameZh": "\u5927\u907c\u91cc", "RouteId": 8040, "SeqNo": 7, "Terminal": 0, "DistrictId": 1, "Latitude": 22.77525, "Longitude": 120.30154, "IVRNo": 13343, "EXTVoiceNo": 32351, "traveltime": 0, "holidayTraveltime": 0}, {"Id": "9641", "pgp": 0, "GoBack": 1, "SID": 16898, "NameZh": "\u5fb7\u677e\u8def\u53e3", "RouteId": 8040, "SeqNo": 8, "Terminal": 0, "DistrictId": 1, "Latitude": 22.763953, "Longitude": 120.307636, "IVRNo": 9541, "EXTVoiceNo": 9641, "traveltime": 0, "holidayTraveltime": 0}, {"Id": "9125", "pgp": 0, "GoBack": 1, "SID": 16899, "NameZh": "\u6377\u904b\u6a4b\u982d\u706b\u8eca\u7ad9", "RouteId": 8040, "SeqNo": 9, "Terminal": 0, "DistrictId": 1, "Latitude": 22.760793, "Longitude": 120.309259, "IVRNo": 7900, "EXTVoiceNo": 9125, "traveltime": 0, "holidayTraveltime": 0}, {"Id": "2399", "pgp": 0, "GoBack": 1, "SID": 16900, "NameZh": "\u6a4b\u982d\u5e02\u5834", "RouteId": 8040, "SeqNo": 10, "Terminal": 0, "DistrictId": 1, "Latitude": 22.755383, "Longitude": 120.311146, "IVRNo": 807, "EXTVoiceNo": 32399, "traveltime": 0, "holidayTraveltime": 0}, {"Id": "0377", "pgp": 0, "GoBack": 1, "SID": 16901, "NameZh": "\u6210\u529f\u5357\u8def", "RouteId": 8040, "SeqNo": 11, "Terminal": 0, "DistrictId": 1, "Latitude": 22.75075, "Longitude": 120.31388, "IVRNo": 8963, "EXTVoiceNo": 20377, "traveltime": 0, "holidayTraveltime": 0}, {"Id": "2071", "pgp": 0, "GoBack": 1, "SID": 16902, "NameZh": "\u6377\u904b\u9752\u57d4\u7ad9(\u6210\u529f\u5357\u8def)", "RouteId": 8040, "SeqNo": 12, "Terminal": 0, "DistrictId": 1, "Latitude": 22.74371, "Longitude": 120.3167, "IVRNo": 2071, "EXTVoiceNo": 2071, "traveltime": 0, "holidayTraveltime": 0}, {"Id": "1004", "pgp": 0, "GoBack": 1, "SID": 16903, "NameZh": "\u76e3\u7406\u6240(\u9ad8\u6960\u8def)", "RouteId": 8040, "SeqNo": 13, "Terminal": 0, "DistrictId": 1, "Latitude": 22.73252, "Longitude": 120.31989, "IVRNo": 1004, "EXTVoiceNo": 1004, "traveltime": 0, "holidayTraveltime": 0}, {"Id": "1283", "pgp": 0, "GoBack": 1, "SID": 16904, "NameZh": "\u6377\u904b\u90fd\u6703\u516c\u5712\u7ad9", "RouteId": 8040, "SeqNo": 14, "Terminal": 0, "DistrictId": 1, "Latitude": 22.72958, "Longitude": 120.32058, "IVRNo": 1283, "EXTVoiceNo": 1283, "traveltime": 0, "holidayTraveltime": 0}, {"Id": "7074", "pgp": 0, "GoBack": 1, "SID": 16905, "NameZh": "\u91d1\u5c6c\u4e2d\u5fc3", "RouteId": 8040, "SeqNo": 15, "Terminal": 0, "DistrictId": 1, "Latitude": 22.716, "Longitude": 120.32557, "IVRNo": 7074, "EXTVoiceNo": 7074, "traveltime": 0, "holidayTraveltime": 0}, {"Id": "4654", "pgp": 0, "GoBack": 1, "SID": 16906, "NameZh": "\u7a14\u7530\u91cc", "RouteId": 8040, "SeqNo": 16, "Terminal": 0, "DistrictId": 1, "Latitude": 22.71244, "Longitude": 120.3255, "IVRNo": 4654, "EXTVoiceNo": 4654, "traveltime": 0, "holidayTraveltime": 0}, {"Id": "0163", "pgp": 0, "GoBack": 1, "SID": 16907, "NameZh": "\u4e2d\u83ef\u793e\u5340", "RouteId": 8040, "SeqNo": 17, "Terminal": 0, "DistrictId": 1, "Latitude": 22.70894, "Longitude": 120.32483, "IVRNo": 7020, "EXTVoiceNo": 20163, "traveltime": 0, "holidayTraveltime": 0}, {"Id": "7932", "pgp": 0, "GoBack": 1, "SID": 16908, "NameZh": "\u6c34\u7ba1\u8def\u53e3(\u9ad8\u6960\u516c\u8def)", "RouteId": 8040, "SeqNo": 18, "Terminal": 0, "DistrictId": 1, "Latitude": 22.70436, "Longitude": 120.3239, "IVRNo": 7932, "EXTVoiceNo": 7932, "traveltime": 0, "holidayTraveltime": 0}, {"Id": "4758", "pgp": 0, "GoBack": 1, "SID": 16909, "NameZh": "\u534a\u5c4f\u5c71(\u9ad8\u6960\u8def)", "RouteId": 8040, "SeqNo": 19, "Terminal": 0, "DistrictId": 1, "Latitude": 22.70028, "Longitude": 120.32317, "IVRNo": 4730, "EXTVoiceNo": 4758, "traveltime": 0, "holidayTraveltime": 0}, {"Id": "0288", "pgp": 0, "GoBack": 1, "SID": 16910, "NameZh": "\u53f0\u7063\u6642\u5831", "RouteId": 8040, "SeqNo": 20, "Terminal": 0, "DistrictId": 1, "Latitude": 22.69784, "Longitude": 120.32268, "IVRNo": 7023, "EXTVoiceNo": 20288, "traveltime": 0, "holidayTraveltime": 0}, {"Id": "7024", "pgp": 0, "GoBack": 1, "SID": 16911, "NameZh": "\u9ad8\u6960\u65b0\u6751", "RouteId": 8040, "SeqNo": 21, "Terminal": 0, "DistrictId": 1, "Latitude": 22.69235, "Longitude": 120.32162, "IVRNo": 476, "EXTVoiceNo": 7024, "traveltime": 0, "holidayTraveltime": 0}, {"Id": "1870", "pgp": 0, "GoBack": 1, "SID": 16912, "NameZh": "\u798f\u6ab3\u65b0\u6751", "RouteId": 8040, "SeqNo": 22, "Terminal": 0, "DistrictId": 1, "Latitude": 22.68651, "Longitude": 120.3205, "IVRNo": 11870, "EXTVoiceNo": 11870, "traveltime": 0, "holidayTraveltime": 0}, {"Id": "5762", "pgp": 0, "GoBack": 1, "SID": 16913, "NameZh": "\u65b0\u838a\u9ad8\u4e2d(\u6c11\u65cf\u4e00\u8def)", "RouteId": 8040, "SeqNo": 23, "Terminal": 0, "DistrictId": 1, "Latitude": 22.680705, "Longitude": 120.319421, "IVRNo": 5708, "EXTVoiceNo": 5762, "traveltime": 0, "holidayTraveltime": 0}, {"Id": "5206", "pgp": 0, "GoBack": 1, "SID": 13883, "NameZh": "\u5927\u4e2d\u8def\u53e3(\u6c11\u65cf\u4e00\u8def)", "RouteId": 8040, "SeqNo": 24, "Terminal": 0, "DistrictId": 1, "Latitude": 22.676644, "Longitude": 120.31885, "IVRNo": 2210, "EXTVoiceNo": 5206, "traveltime": 0, "holidayTraveltime": 0}, {"Id": "8974", "pgp": 0, "GoBack": 1, "SID": 16915, "NameZh": "\u83dc\u516c\u8def\u53e3(\u6c11\u65cf\u4e00\u8def)", "RouteId": 8040, "SeqNo": 25, "Terminal": 0, "DistrictId": 1, "Latitude": 22.67438, "Longitude": 120.31814, "IVRNo": 1043, "EXTVoiceNo": 8974, "traveltime": 0, "holidayTraveltime": 0}, {"Id": "5208", "pgp": 0, "GoBack": 1, "SID": 16916, "NameZh": "\u6587\u85fb\u5916\u8a9e\u5927\u5b78(\u6c11\u65cf\u4e00\u8def)", "RouteId": 8040, "SeqNo": 26, "Terminal": 0, "DistrictId": 1, "Latitude": 22.670754, "Longitude": 120.317407, "IVRNo": 453, "EXTVoiceNo": 5208, "traveltime": 0, "holidayTraveltime": 0}, {"Id": "5408", "pgp": 0, "GoBack": 1, "SID": 2685, "NameZh": "\u5929\u7965\u8def\u53e3(\u6c11\u65cf\u4e00\u8def)", "RouteId": 8040, "SeqNo": 27, "Terminal": 0, "DistrictId": 1, "Latitude": 22.667888, "Longitude": 120.316908, "IVRNo": 2213, "EXTVoiceNo": 5408, "traveltime": 0, "holidayTraveltime": 0}, {"Id": "7032", "pgp": 0, "GoBack": 1, "SID": 8245, "NameZh": "\u6c11\u65cf\u88d5\u8aa0\u8def\u53e3", "RouteId": 8040, "SeqNo": 28, "Terminal": 0, "DistrictId": 1, "Latitude": 22.664938, "Longitude": 120.316375, "IVRNo": 2214, "EXTVoiceNo": 7032, "traveltime": 0, "holidayTraveltime": 0}, {"Id": "5213", "pgp": 0, "GoBack": 1, "SID": 2693, "NameZh": "\u6c11\u65cf\u8def(\u660e\u8aa0\u8def\u53e3)", "RouteId": 8040, "SeqNo": 29, "Terminal": 0, "DistrictId": 1, "Latitude": 22.661621, "Longitude": 120.315891, "IVRNo": 43, "EXTVoiceNo": 5213, "traveltime": 0, "holidayTraveltime": 0}, {"Id": "1164", "pgp": 0, "GoBack": 1, "SID": 7639, "NameZh": "\u6c11\u65cf\u5927\u9806\u8def\u53e3", "RouteId": 8040, "SeqNo": 30, "Terminal": 0, "DistrictId": 1, "Latitude": 22.657316, "Longitude": 120.315714, "IVRNo": 4030, "EXTVoiceNo": 21164, "traveltime": 0, "holidayTraveltime": 0}, {"Id": "5215", "pgp": 0, "GoBack": 1, "SID": 16921, "NameZh": "\u9686\u5cf0\u5bfa", "RouteId": 8040, "SeqNo": 31, "Terminal": 0, "DistrictId": 1, "Latitude": 22.65314, "Longitude": 120.31518, "IVRNo": 5215, "EXTVoiceNo": 5215, "traveltime": 0, "holidayTraveltime": 0}, {"Id": "3447", "pgp": 0, "GoBack": 1, "SID": 14315, "NameZh": "\u7063\u4ed4\u5167", "RouteId": 8040, "SeqNo": 32, "Terminal": 0, "DistrictId": 1, "Latitude": 22.648719, "Longitude": 120.314835, "IVRNo": 5216, "EXTVoiceNo": 13447, "traveltime": 0, "holidayTraveltime": 0}, {"Id": "7377", "pgp": 0, "GoBack": 1, "SID": 19132, "NameZh": "\u679c\u83dc\u516c\u53f8", "RouteId": 8040, "SeqNo": 33, "Terminal": 0, "DistrictId": 1, "Latitude": 22.64504, "Longitude": 120.31458, "IVRNo": 232, "EXTVoiceNo": 7377, "traveltime": 0, "holidayTraveltime": 0}, {"Id": "0234", "pgp": 0, "GoBack": 1, "SID": 18225, "NameZh": "\u9ad8\u91ab(\u5341\u5168\u8def)", "RouteId": 8040, "SeqNo": 34, "Terminal": 0, "DistrictId": 1, "Latitude": 22.64503, "Longitude": 120.30943, "IVRNo": 234, "EXTVoiceNo": 234, "traveltime": 0, "holidayTraveltime": 0}, {"Id": "0235", "pgp": 0, "GoBack": 1, "SID": 1556, "NameZh": "\u4e09\u6c11\u570b\u4e2d", "RouteId": 8040, "SeqNo": 35, "Terminal": 0, "DistrictId": 1, "Latitude": 22.64525, "Longitude": 120.30685, "IVRNo": 235, "EXTVoiceNo": 235, "traveltime": 0, "holidayTraveltime": 0}, {"Id": "2839", "pgp": 0, "GoBack": 1, "SID": 19130, "NameZh": "\u4e09\u6c11\u516c\u5712(\u535a\u611b\u8def\u53e3)", "RouteId": 8040, "SeqNo": 36, "Terminal": 0, "DistrictId": 1, "Latitude": 22.64541, "Longitude": 120.30438, "IVRNo": 236, "EXTVoiceNo": 2839, "traveltime": 0, "holidayTraveltime": 0}, {"Id": "1445", "pgp": 0, "GoBack": 1, "SID": 17721, "NameZh": "\u4e2d\u5c71\u4e00\u8def\u53e3", "RouteId": 8040, "SeqNo": 37, "Terminal": 0, "DistrictId": 1, "Latitude": 22.63422, "Longitude": 120.3036, "IVRNo": 1445, "EXTVoiceNo": 1445, "traveltime": 0, "holidayTraveltime": 0}, {"Id": "9368", "pgp": 0, "GoBack": 1, "SID": 2146, "NameZh": "\u9ad8\u96c4\u7ad9(\u5357\u83ef\u8def)", "RouteId": 8040, "SeqNo": 38, "Terminal": 1, "DistrictId": 1, "Latitude": 22.638135, "Longitude": 120.303514, "IVRNo": 9034, "EXTVoiceNo": 9368, "traveltime": 0, "holidayTraveltime": 0}, {"Id": "9368", "pgp": 0, "GoBack": 2, "SID": 2146, "NameZh": "\u9ad8\u96c4\u7ad9(\u5357\u83ef\u8def)", "RouteId": 8040, "SeqNo": 1, "Terminal": 0, "DistrictId": 1, "Latitude": 22.638135, "Longitude": 120.303514, "IVRNo": 9034, "EXTVoiceNo": 9368, "traveltime": 0, "holidayTraveltime": 0}, {"Id": "1445", "pgp": 0, "GoBack": 2, "SID": 16926, "NameZh": "\u4e2d\u5c71\u4e00\u8def\u53e3", "RouteId": 8040, "SeqNo": 2, "Terminal": 0, "DistrictId": 1, "Latitude": 22.634573, "Longitude": 120.303617, "IVRNo": 1445, "EXTVoiceNo": 1445, "traveltime": 0, "holidayTraveltime": 0}, {"Id": "2839", "pgp": 0, "GoBack": 2, "SID": 19131, "NameZh": "\u4e09\u6c11\u516c\u5712(\u535a\u611b\u8def\u53e3)", "RouteId": 8040, "SeqNo": 3, "Terminal": 0, "DistrictId": 1, "Latitude": 22.645369, "Longitude": 120.303658, "IVRNo": 236, "EXTVoiceNo": 2839, "traveltime": 0, "holidayTraveltime": 0}, {"Id": "0235", "pgp": 0, "GoBack": 2, "SID": 1729, "NameZh": "\u4e09\u6c11\u570b\u4e2d", "RouteId": 8040, "SeqNo": 4, "Terminal": 0, "DistrictId": 1, "Latitude": 22.645219, "Longitude": 120.305816, "IVRNo": 235, "EXTVoiceNo": 235, "traveltime": 0, "holidayTraveltime": 0}, {"Id": "0234", "pgp": 0, "GoBack": 2, "SID": 15832, "NameZh": "\u9ad8\u91ab(\u5341\u5168\u8def)", "RouteId": 8040, "SeqNo": 5, "Terminal": 0, "DistrictId": 1, "Latitude": 22.64487, "Longitude": 120.31066, "IVRNo": 234, "EXTVoiceNo": 234, "traveltime": 0, "holidayTraveltime": 0}, {"Id": "7377", "pgp": 0, "GoBack": 2, "SID": 19133, "NameZh": "\u679c\u83dc\u516c\u53f8", "RouteId": 8040, "SeqNo": 6, "Terminal": 0, "DistrictId": 1, "Latitude": 22.64521, "Longitude": 120.31426, "IVRNo": 232, "EXTVoiceNo": 7377, "traveltime": 0, "holidayTraveltime": 0}, {"Id": "3447", "pgp": 0, "GoBack": 2, "SID": 3917, "NameZh": "\u7063\u4ed4\u5167", "RouteId": 8040, "SeqNo": 7, "Terminal": 0, "DistrictId": 1, "Latitude": 22.648883, "Longitude": 120.314983, "IVRNo": 5216, "EXTVoiceNo": 13447, "traveltime": 0, "holidayTraveltime": 0}, {"Id": "5215", "pgp": 0, "GoBack": 2, "SID": 16932, "NameZh": "\u9686\u5cf0\u5bfa", "RouteId": 8040, "SeqNo": 8, "Terminal": 0, "DistrictId": 1, "Latitude": 22.65306, "Longitude": 120.31534, "IVRNo": 5215, "EXTVoiceNo": 5215, "traveltime": 0, "holidayTraveltime": 0}, {"Id": "1164", "pgp": 0, "GoBack": 2, "SID": 7864, "NameZh": "\u6c11\u65cf\u5927\u9806\u8def\u53e3", "RouteId": 8040, "SeqNo": 9, "Terminal": 0, "DistrictId": 1, "Latitude": 22.657673, "Longitude": 120.315572, "IVRNo": 4030, "EXTVoiceNo": 21164, "traveltime": 0, "holidayTraveltime": 0}, {"Id": "5213", "pgp": 0, "GoBack": 2, "SID": 3927, "NameZh": "\u6c11\u65cf\u8def(\u660e\u8aa0\u8def\u53e3)", "RouteId": 8040, "SeqNo": 10, "Terminal": 0, "DistrictId": 1, "Latitude": 22.661294, "Longitude": 120.316005, "IVRNo": 43, "EXTVoiceNo": 5213, "traveltime": 0, "holidayTraveltime": 0}, {"Id": "7032", "pgp": 0, "GoBack": 2, "SID": 8245, "NameZh": "\u6c11\u65cf\u88d5\u8aa0\u8def\u53e3", "RouteId": 8040, "SeqNo": 11, "Terminal": 0, "DistrictId": 1, "Latitude": 22.664938, "Longitude": 120.316375, "IVRNo": 2214, "EXTVoiceNo": 7032, "traveltime": 0, "holidayTraveltime": 0}, {"Id": "5408", "pgp": 0, "GoBack": 2, "SID": 2690, "NameZh": "\u5929\u7965\u8def\u53e3(\u6c11\u65cf\u4e00\u8def)", "RouteId": 8040, "SeqNo": 12, "Terminal": 0, "DistrictId": 1, "Latitude": 22.667888, "Longitude": 120.316908, "IVRNo": 2213, "EXTVoiceNo": 5408, "traveltime": 0, "holidayTraveltime": 0}, {"Id": "5208", "pgp": 0, "GoBack": 2, "SID": 16937, "NameZh": "\u6587\u85fb\u5916\u8a9e\u5927\u5b78(\u6c11\u65cf\u4e00\u8def)", "RouteId": 8040, "SeqNo": 13, "Terminal": 0, "DistrictId": 1, "Latitude": 22.67071, "Longitude": 120.3176, "IVRNo": 453, "EXTVoiceNo": 5208, "traveltime": 0, "holidayTraveltime": 0}, {"Id": "8974", "pgp": 0, "GoBack": 2, "SID": 16938, "NameZh": "\u83dc\u516c\u8def\u53e3(\u6c11\u65cf\u4e00\u8def)", "RouteId": 8040, "SeqNo": 14, "Terminal": 0, "DistrictId": 1, "Latitude": 22.67521, "Longitude": 120.31846, "IVRNo": 1043, "EXTVoiceNo": 8974, "traveltime": 0, "holidayTraveltime": 0}, {"Id": "5206", "pgp": 0, "GoBack": 2, "SID": 3946, "NameZh": "\u5927\u4e2d\u8def\u53e3(\u6c11\u65cf\u4e00\u8def)", "RouteId": 8040, "SeqNo": 15, "Terminal": 0, "DistrictId": 1, "Latitude": 22.678058, "Longitude": 120.31893, "IVRNo": 2210, "EXTVoiceNo": 5206, "traveltime": 0, "holidayTraveltime": 0}, {"Id": "5762", "pgp": 0, "GoBack": 2, "SID": 16940, "NameZh": "\u65b0\u838a\u9ad8\u4e2d(\u6c11\u65cf\u4e00\u8def)", "RouteId": 8040, "SeqNo": 16, "Terminal": 0, "DistrictId": 1, "Latitude": 22.680723, "Longitude": 120.319529, "IVRNo": 5708, "EXTVoiceNo": 5762, "traveltime": 0, "holidayTraveltime": 0}, {"Id": "1870", "pgp": 0, "GoBack": 2, "SID": 16941, "NameZh": "\u798f\u6ab3\u65b0\u6751", "RouteId": 8040, "SeqNo": 17, "Terminal": 0, "DistrictId": 1, "Latitude": 22.68629, "Longitude": 120.32061, "IVRNo": 11870, "EXTVoiceNo": 11870, "traveltime": 0, "holidayTraveltime": 0}, {"Id": "7024", "pgp": 0, "GoBack": 2, "SID": 16942, "NameZh": "\u9ad8\u6960\u65b0\u6751", "RouteId": 8040, "SeqNo": 18, "Terminal": 0, "DistrictId": 1, "Latitude": 22.69224, "Longitude": 120.32178, "IVRNo": 476, "EXTVoiceNo": 7024, "traveltime": 0, "holidayTraveltime": 0}, {"Id": "0288", "pgp": 0, "GoBack": 2, "SID": 16943, "NameZh": "\u53f0\u7063\u6642\u5831", "RouteId": 8040, "SeqNo": 19, "Terminal": 0, "DistrictId": 1, "Latitude": 22.69786, "Longitude": 120.32285, "IVRNo": 7023, "EXTVoiceNo": 20288, "traveltime": 0, "holidayTraveltime": 0}, {"Id": "4758", "pgp": 0, "GoBack": 2, "SID": 16944, "NameZh": "\u534a\u5c4f\u5c71(\u9ad8\u6960\u8def)", "RouteId": 8040, "SeqNo": 20, "Terminal": 0, "DistrictId": 1, "Latitude": 22.70023, "Longitude": 120.3233, "IVRNo": 4730, "EXTVoiceNo": 4758, "traveltime": 0, "holidayTraveltime": 0}, {"Id": "7932", "pgp": 0, "GoBack": 2, "SID": 16946, "NameZh": "\u6c34\u7ba1\u8def\u53e3(\u9ad8\u6960\u516c\u8def)", "RouteId": 8040, "SeqNo": 21, "Terminal": 0, "DistrictId": 1, "Latitude": 22.70461, "Longitude": 120.32414, "IVRNo": 7932, "EXTVoiceNo": 7932, "traveltime": 0, "holidayTraveltime": 0}, {"Id": "0163", "pgp": 0, "GoBack": 2, "SID": 16945, "NameZh": "\u4e2d\u83ef\u793e\u5340", "RouteId": 8040, "SeqNo": 22, "Terminal": 0, "DistrictId": 1, "Latitude": 22.7097, "Longitude": 120.3251, "IVRNo": 7020, "EXTVoiceNo": 20163, "traveltime": 0, "holidayTraveltime": 0}, {"Id": "4654", "pgp": 0, "GoBack": 2, "SID": 16947, "NameZh": "\u7a14\u7530\u91cc", "RouteId": 8040, "SeqNo": 23, "Terminal": 0, "DistrictId": 1, "Latitude": 22.7126, "Longitude": 120.3257, "IVRNo": 4654, "EXTVoiceNo": 4654, "traveltime": 0, "holidayTraveltime": 0}, {"Id": "7074", "pgp": 0, "GoBack": 2, "SID": 16948, "NameZh": "\u91d1\u5c6c\u4e2d\u5fc3", "RouteId": 8040, "SeqNo": 24, "Terminal": 0, "DistrictId": 1, "Latitude": 22.71576, "Longitude": 120.32581, "IVRNo": 7074, "EXTVoiceNo": 7074, "traveltime": 0, "holidayTraveltime": 0}, {"Id": "7508", "pgp": 0, "GoBack": 2, "SID": 16949, "NameZh": "\u9ad8\u6960\u9678\u6a4b(\u6377\u904b\u90fd\u6703\u516c\u5712\u7ad9)", "RouteId": 8040, "SeqNo": 25, "Terminal": 0, "DistrictId": 1, "Latitude": 22.72777, "Longitude": 120.32158, "IVRNo": 7508, "EXTVoiceNo": 7508, "traveltime": 0, "holidayTraveltime": 0}, {"Id": "1004", "pgp": 0, "GoBack": 2, "SID": 16950, "NameZh": "\u76e3\u7406\u6240(\u9ad8\u6960\u8def)", "RouteId": 8040, "SeqNo": 26, "Terminal": 0, "DistrictId": 1, "Latitude": 22.73266, "Longitude": 120.32024, "IVRNo": 1004, "EXTVoiceNo": 1004, "traveltime": 0, "holidayTraveltime": 0}, {"Id": "2071", "pgp": 0, "GoBack": 2, "SID": 16951, "NameZh": "\u6377\u904b\u9752\u57d4\u7ad9(\u6210\u529f\u5357\u8def)", "RouteId": 8040, "SeqNo": 27, "Terminal": 0, "DistrictId": 1, "Latitude": 22.74368, "Longitude": 120.31702, "IVRNo": 2071, "EXTVoiceNo": 2071, "traveltime": 0, "holidayTraveltime": 0}, {"Id": "0377", "pgp": 0, "GoBack": 2, "SID": 16952, "NameZh": "\u6210\u529f\u5357\u8def", "RouteId": 8040, "SeqNo": 28, "Terminal": 0, "DistrictId": 1, "Latitude": 22.7506, "Longitude": 120.31408, "IVRNo": 8963, "EXTVoiceNo": 20377, "traveltime": 0, "holidayTraveltime": 0}, {"Id": "2399", "pgp": 0, "GoBack": 2, "SID": 16953, "NameZh": "\u6a4b\u982d\u5e02\u5834", "RouteId": 8040, "SeqNo": 29, "Terminal": 0, "DistrictId": 1, "Latitude": 22.754897, "Longitude": 120.311564, "IVRNo": 807, "EXTVoiceNo": 32399, "traveltime": 0, "holidayTraveltime": 0}, {"Id": "9125", "pgp": 0, "GoBack": 2, "SID": 16954, "NameZh": "\u6377\u904b\u6a4b\u982d\u706b\u8eca\u7ad9", "RouteId": 8040, "SeqNo": 30, "Terminal": 0, "DistrictId": 1, "Latitude": 22.760793, "Longitude": 120.309259, "IVRNo": 7900, "EXTVoiceNo": 9125, "traveltime": 0, "holidayTraveltime": 0}, {"Id": "9641", "pgp": 0, "GoBack": 2, "SID": 16955, "NameZh": "\u5fb7\u677e\u8def\u53e3", "RouteId": 8040, "SeqNo": 31, "Terminal": 0, "DistrictId": 1, "Latitude": 22.763918, "Longitude": 120.307479, "IVRNo": 9541, "EXTVoiceNo": 9641, "traveltime": 0, "holidayTraveltime": 0}, {"Id": "0828", "pgp": 0, "GoBack": 2, "SID": 16957, "NameZh": "\u6377\u904b\u5357\u5ca1\u5c71\u7ad9", "RouteId": 8040, "SeqNo": 32, "Terminal": 0, "DistrictId": 1, "Latitude": 22.780671, "Longitude": 120.300628, "IVRNo": 828, "EXTVoiceNo": 828, "traveltime": 0, "holidayTraveltime": 0}, {"Id": "1110", "pgp": 0, "GoBack": 2, "SID": 16958, "NameZh": "\u5ca1\u5c71\u6587\u5316\u4e2d\u5fc3", "RouteId": 8040, "SeqNo": 33, "Terminal": 0, "DistrictId": 1, "Latitude": 22.78406, "Longitude": 120.29732, "IVRNo": 9564, "EXTVoiceNo": 21110, "traveltime": 0, "holidayTraveltime": 0}, {"Id": "9129", "pgp": 0, "GoBack": 2, "SID": 16959, "NameZh": "\u6587\u5316\u8857\u53e3", "RouteId": 8040, "SeqNo": 34, "Terminal": 0, "DistrictId": 1, "Latitude": 22.78859, "Longitude": 120.29659, "IVRNo": 9565, "EXTVoiceNo": 9129, "traveltime": 0, "holidayTraveltime": 0}, {"Id": "6151", "pgp": 0, "GoBack": 2, "SID": 14863, "NameZh": "\u52f5\u5fd7\u65b0\u57ce", "RouteId": 8040, "SeqNo": 35, "Terminal": 0, "DistrictId": 1, "Latitude": 22.789953, "Longitude": 120.296269, "IVRNo": 9281, "EXTVoiceNo": 26151, "traveltime": 0, "holidayTraveltime": 0}, {"Id": "0731", "pgp": 0, "GoBack": 2, "SID": 16960, "NameZh": "\u79fb\u6c11\u7f72", "RouteId": 8040, "SeqNo": 36, "Terminal": 0, "DistrictId": 1, "Latitude": 22.79138, "Longitude": 120.29621, "IVRNo": 9214, "EXTVoiceNo": 20731, "traveltime": 0, "holidayTraveltime": 0}, {"Id": "0832", "pgp": 0, "GoBack": 2, "SID": 6486, "NameZh": "\u5ca1\u5c71\u8f49\u904b\u7ad9(\u5ca1\u5c71\u706b\u8eca\u7ad9)", "RouteId": 8040, "SeqNo": 37, "Terminal": 1, "DistrictId": 1, "Latitude": 22.792295, "Longitude": 120.299132, "IVRNo": 832, "EXTVoiceNo": 832, "traveltime": 0, "holidayTraveltime": 0}]}