{"en": [{"Id": "2029", "pgp": 0, "GoBack": 1, "SID": 1369, "NameZh": "Houan Rd.", "RouteId": 807, "SeqNo": 1, "Terminal": 0, "DistrictId": 1, "Latitude": 22.57303, "Longitude": 120.32191, "IVRNo": 2177, "EXTVoiceNo": 2029, "traveltime": 0, "holidayTraveltime": 0}, {"Id": "8931", "pgp": 0, "GoBack": 1, "SID": 5530, "NameZh": "Fode St. Intersection", "RouteId": 807, "SeqNo": 2, "Terminal": 0, "DistrictId": 1, "Latitude": 22.57618, "Longitude": 120.32306, "IVRNo": 8521, "EXTVoiceNo": 8931, "traveltime": 0, "holidayTraveltime": 0}, {"Id": "8930", "pgp": 0, "GoBack": 1, "SID": 1051, "NameZh": "MRT Caoya Station", "RouteId": 807, "SeqNo": 3, "Terminal": 0, "DistrictId": 1, "Latitude": 22.57995, "Longitude": 120.32845, "IVRNo": 2064, "EXTVoiceNo": 8930, "traveltime": 0, "holidayTraveltime": 0}, {"Id": "2631", "pgp": 0, "GoBack": 1, "SID": 1912, "NameZh": "Kaohsiung Rapid Transit Corp. (MRT Caoya Station)", "RouteId": 807, "SeqNo": 4, "Terminal": 0, "DistrictId": 1, "Latitude": 22.58191, "Longitude": 120.3317, "IVRNo": 2631, "EXTVoiceNo": 2631, "traveltime": 0, "holidayTraveltime": 0}, {"Id": "2630", "pgp": 0, "GoBack": 1, "SID": 1913, "NameZh": "Mingjheng Village", "RouteId": 807, "SeqNo": 5, "Terminal": 0, "DistrictId": 1, "Latitude": 22.58293, "Longitude": 120.33546, "IVRNo": 2630, "EXTVoiceNo": 2630, "traveltime": 0, "holidayTraveltime": 0}, {"Id": "2634", "pgp": 0, "GoBack": 1, "SID": 6094, "NameZh": "Mingfong 3rd Rd. Intersection", "RouteId": 807, "SeqNo": 6, "Terminal": 0, "DistrictId": 1, "Latitude": 22.583008, "Longitude": 120.337393, "IVRNo": 2634, "EXTVoiceNo": 2634, "traveltime": 0, "holidayTraveltime": 0}, {"Id": "2629", "pgp": 0, "GoBack": 1, "SID": 1916, "NameZh": "Jhongcuo Village", "RouteId": 807, "SeqNo": 7, "Terminal": 0, "DistrictId": 1, "Latitude": 22.58311, "Longitude": 120.341615, "IVRNo": 2629, "EXTVoiceNo": 2629, "traveltime": 0, "holidayTraveltime": 0}, {"Id": "8507", "pgp": 0, "GoBack": 1, "SID": 5531, "NameZh": "Mingsheng St. Intersection", "RouteId": 807, "SeqNo": 8, "Terminal": 0, "DistrictId": 1, "Latitude": 22.583109, "Longitude": 120.343402, "IVRNo": 8507, "EXTVoiceNo": 8507, "traveltime": 0, "holidayTraveltime": 0}, {"Id": "8508", "pgp": 0, "GoBack": 1, "SID": 5532, "NameZh": "Fuan Temple", "RouteId": 807, "SeqNo": 9, "Terminal": 0, "DistrictId": 1, "Latitude": 22.58375, "Longitude": 120.34615, "IVRNo": 8508, "EXTVoiceNo": 8508, "traveltime": 0, "holidayTraveltime": 0}, {"Id": "8509", "pgp": 0, "GoBack": 1, "SID": 5533, "NameZh": "Deren Rd. Intersection", "RouteId": 807, "SeqNo": 10, "Terminal": 0, "DistrictId": 1, "Latitude": 22.58461, "Longitude": 120.349, "IVRNo": 8509, "EXTVoiceNo": 8509, "traveltime": 0, "holidayTraveltime": 0}, {"Id": "8510", "pgp": 0, "GoBack": 1, "SID": 5534, "NameZh": "Guei-Lin Elementary School (Air Coffee)", "RouteId": 807, "SeqNo": 11, "Terminal": 0, "DistrictId": 1, "Latitude": 22.58333, "Longitude": 120.35006, "IVRNo": 8510, "EXTVoiceNo": 8510, "traveltime": 0, "holidayTraveltime": 0}, {"Id": "8511", "pgp": 0, "GoBack": 1, "SID": 5535, "NameZh": "Gueilin Church", "RouteId": 807, "SeqNo": 12, "Terminal": 0, "DistrictId": 1, "Latitude": 22.58336, "Longitude": 120.35451, "IVRNo": 8511, "EXTVoiceNo": 8511, "traveltime": 0, "holidayTraveltime": 0}, {"Id": "0615", "pgp": 0, "GoBack": 1, "SID": 17867, "NameZh": "Gueide St. Intersection", "RouteId": 807, "SeqNo": 13, "Terminal": 0, "DistrictId": 1, "Latitude": 22.583284, "Longitude": 120.357446, "IVRNo": 9451, "EXTVoiceNo": 615, "traveltime": 0, "holidayTraveltime": 0}, {"Id": "2713", "pgp": 0, "GoBack": 1, "SID": 5654, "NameZh": "Kongfong Rd. Intersection", "RouteId": 807, "SeqNo": 14, "Terminal": 0, "DistrictId": 1, "Latitude": 22.58403, "Longitude": 120.3588, "IVRNo": 8639, "EXTVoiceNo": 2713, "traveltime": 0, "holidayTraveltime": 0}, {"Id": "8516", "pgp": 0, "GoBack": 1, "SID": 5536, "NameZh": "Sinchang St. Intersetion", "RouteId": 807, "SeqNo": 15, "Terminal": 0, "DistrictId": 1, "Latitude": 22.584815, "Longitude": 120.361895, "IVRNo": 8513, "EXTVoiceNo": 8516, "traveltime": 0, "holidayTraveltime": 0}, {"Id": "1275", "pgp": 0, "GoBack": 1, "SID": 1934, "NameZh": "Jhongan Rd. (Shengan St. Intersection)", "RouteId": 807, "SeqNo": 16, "Terminal": 0, "DistrictId": 1, "Latitude": 22.58472, "Longitude": 120.36443, "IVRNo": 1275, "EXTVoiceNo": 1275, "traveltime": 0, "holidayTraveltime": 0}, {"Id": "2618", "pgp": 0, "GoBack": 1, "SID": 1939, "NameZh": "East Kaohsiung", "RouteId": 807, "SeqNo": 17, "Terminal": 0, "DistrictId": 1, "Latitude": 22.58433, "Longitude": 120.3687, "IVRNo": 2618, "EXTVoiceNo": 2618, "traveltime": 0, "holidayTraveltime": 0}, {"Id": "2617", "pgp": 0, "GoBack": 1, "SID": 16788, "NameZh": "Kongjhai", "RouteId": 807, "SeqNo": 18, "Terminal": 1, "DistrictId": 1, "Latitude": 22.57951, "Longitude": 120.37135, "IVRNo": 2617, "EXTVoiceNo": 2617, "traveltime": 0, "holidayTraveltime": 0}, {"Id": "2617", "pgp": 0, "GoBack": 2, "SID": 1940, "NameZh": "Kongjhai", "RouteId": 807, "SeqNo": 1, "Terminal": 0, "DistrictId": 1, "Latitude": 22.57951, "Longitude": 120.37135, "IVRNo": 2617, "EXTVoiceNo": 2617, "traveltime": 0, "holidayTraveltime": 0}, {"Id": "0486", "pgp": 0, "GoBack": 2, "SID": 5610, "NameZh": "Mingyi Junior High School", "RouteId": 807, "SeqNo": 2, "Terminal": 0, "DistrictId": 1, "Latitude": 22.581218, "Longitude": 120.367865, "IVRNo": 8599, "EXTVoiceNo": 20486, "traveltime": 0, "holidayTraveltime": 0}, {"Id": "2621", "pgp": 0, "GoBack": 2, "SID": 1877, "NameZh": "Jincheng Rd. Intersection", "RouteId": 807, "SeqNo": 3, "Terminal": 0, "DistrictId": 1, "Latitude": 22.58125, "Longitude": 120.36545, "IVRNo": 2621, "EXTVoiceNo": 2621, "traveltime": 0, "holidayTraveltime": 0}, {"Id": "8514", "pgp": 0, "GoBack": 2, "SID": 5537, "NameZh": "Fuhua St. Intersection", "RouteId": 807, "SeqNo": 4, "Terminal": 0, "DistrictId": 1, "Latitude": 22.58132, "Longitude": 120.36337, "IVRNo": 8514, "EXTVoiceNo": 8514, "traveltime": 0, "holidayTraveltime": 0}, {"Id": "8515", "pgp": 0, "GoBack": 2, "SID": 5538, "NameZh": "Huachang Rd.", "RouteId": 807, "SeqNo": 5, "Terminal": 0, "DistrictId": 1, "Latitude": 22.58356, "Longitude": 120.36278, "IVRNo": 8515, "EXTVoiceNo": 8515, "traveltime": 0, "holidayTraveltime": 0}, {"Id": "8516", "pgp": 0, "GoBack": 2, "SID": 5539, "NameZh": "Sinchang St. Intersetion", "RouteId": 807, "SeqNo": 6, "Terminal": 0, "DistrictId": 1, "Latitude": 22.58491, "Longitude": 120.36156, "IVRNo": 8513, "EXTVoiceNo": 8516, "traveltime": 0, "holidayTraveltime": 0}, {"Id": "8641", "pgp": 0, "GoBack": 2, "SID": 5655, "NameZh": "Fongding Rd.", "RouteId": 807, "SeqNo": 7, "Terminal": 0, "DistrictId": 1, "Latitude": 22.585, "Longitude": 120.35798, "IVRNo": 8641, "EXTVoiceNo": 8641, "traveltime": 0, "holidayTraveltime": 0}, {"Id": "8517", "pgp": 0, "GoBack": 2, "SID": 5540, "NameZh": "Gueiyuan Rd. Intersection", "RouteId": 807, "SeqNo": 8, "Terminal": 0, "DistrictId": 1, "Latitude": 22.58486, "Longitude": 120.3552, "IVRNo": 8517, "EXTVoiceNo": 8517, "traveltime": 0, "holidayTraveltime": 0}, {"Id": "8509", "pgp": 0, "GoBack": 2, "SID": 5541, "NameZh": "Deren Rd. Intersection", "RouteId": 807, "SeqNo": 9, "Terminal": 0, "DistrictId": 1, "Latitude": 22.58464, "Longitude": 120.34898, "IVRNo": 8509, "EXTVoiceNo": 8509, "traveltime": 0, "holidayTraveltime": 0}, {"Id": "8508", "pgp": 0, "GoBack": 2, "SID": 5542, "NameZh": "Fuan Temple", "RouteId": 807, "SeqNo": 10, "Terminal": 0, "DistrictId": 1, "Latitude": 22.583856, "Longitude": 120.346073, "IVRNo": 8508, "EXTVoiceNo": 8508, "traveltime": 0, "holidayTraveltime": 0}, {"Id": "8507", "pgp": 0, "GoBack": 2, "SID": 5543, "NameZh": "Mingsheng St. Intersection", "RouteId": 807, "SeqNo": 11, "Terminal": 0, "DistrictId": 1, "Latitude": 22.583209, "Longitude": 120.343917, "IVRNo": 8507, "EXTVoiceNo": 8507, "traveltime": 0, "holidayTraveltime": 0}, {"Id": "2629", "pgp": 0, "GoBack": 2, "SID": 1888, "NameZh": "Jhongcuo Village", "RouteId": 807, "SeqNo": 12, "Terminal": 0, "DistrictId": 1, "Latitude": 22.583186, "Longitude": 120.341623, "IVRNo": 2629, "EXTVoiceNo": 2629, "traveltime": 0, "holidayTraveltime": 0}, {"Id": "2634", "pgp": 0, "GoBack": 2, "SID": 1896, "NameZh": "Mingfong 3rd Rd. Intersection", "RouteId": 807, "SeqNo": 13, "Terminal": 0, "DistrictId": 1, "Latitude": 22.5832, "Longitude": 120.337417, "IVRNo": 2634, "EXTVoiceNo": 2634, "traveltime": 0, "holidayTraveltime": 0}, {"Id": "2630", "pgp": 0, "GoBack": 2, "SID": 1890, "NameZh": "Mingjheng Village", "RouteId": 807, "SeqNo": 14, "Terminal": 0, "DistrictId": 1, "Latitude": 22.58306, "Longitude": 120.33545, "IVRNo": 2630, "EXTVoiceNo": 2630, "traveltime": 0, "holidayTraveltime": 0}, {"Id": "2631", "pgp": 0, "GoBack": 2, "SID": 1893, "NameZh": "Kaohsiung Rapid Transit Corp. (MRT Caoya Station)", "RouteId": 807, "SeqNo": 15, "Terminal": 0, "DistrictId": 1, "Latitude": 22.582503, "Longitude": 120.332092, "IVRNo": 2631, "EXTVoiceNo": 2631, "traveltime": 0, "holidayTraveltime": 0}, {"Id": "8930", "pgp": 0, "GoBack": 2, "SID": 1143, "NameZh": "MRT Caoya Station", "RouteId": 807, "SeqNo": 16, "Terminal": 0, "DistrictId": 1, "Latitude": 22.57983, "Longitude": 120.32815, "IVRNo": 2064, "EXTVoiceNo": 8930, "traveltime": 0, "holidayTraveltime": 0}, {"Id": "8931", "pgp": 0, "GoBack": 2, "SID": 5544, "NameZh": "Fode St. Intersection", "RouteId": 807, "SeqNo": 17, "Terminal": 0, "DistrictId": 1, "Latitude": 22.57616, "Longitude": 120.323, "IVRNo": 8521, "EXTVoiceNo": 8931, "traveltime": 0, "holidayTraveltime": 0}, {"Id": "2029", "pgp": 0, "GoBack": 2, "SID": 1368, "NameZh": "Houan Rd.", "RouteId": 807, "SeqNo": 18, "Terminal": 1, "DistrictId": 1, "Latitude": 22.57298, "Longitude": 120.32188, "IVRNo": 2177, "EXTVoiceNo": 2029, "traveltime": 0, "holidayTraveltime": 0}], "zh": [{"Id": "2029", "pgp": 0, "GoBack": 1, "SID": 1369, "NameZh": "\u540e\u5b89\u8def", "RouteId": 807, "SeqNo": 1, "Terminal": 0, "DistrictId": 1, "Latitude": 22.57303, "Longitude": 120.32191, "IVRNo": 2177, "EXTVoiceNo": 2029, "traveltime": 0, "holidayTraveltime": 0}, {"Id": "8931", "pgp": 0, "GoBack": 1, "SID": 5530, "NameZh": "\u4f5b\u5fb7\u8857\u53e3", "RouteId": 807, "SeqNo": 2, "Terminal": 0, "DistrictId": 1, "Latitude": 22.57618, "Longitude": 120.32306, "IVRNo": 8521, "EXTVoiceNo": 8931, "traveltime": 0, "holidayTraveltime": 0}, {"Id": "8930", "pgp": 0, "GoBack": 1, "SID": 1051, "NameZh": "\u6377\u904b\u8349\u8859\u7ad9", "RouteId": 807, "SeqNo": 3, "Terminal": 0, "DistrictId": 1, "Latitude": 22.57995, "Longitude": 120.32845, "IVRNo": 2064, "EXTVoiceNo": 8930, "traveltime": 0, "holidayTraveltime": 0}, {"Id": "2631", "pgp": 0, "GoBack": 1, "SID": 1912, "NameZh": "\u6377\u904b\u516c\u53f8(\u6377\u904b\u8349\u8859\u7ad9)", "RouteId": 807, "SeqNo": 4, "Terminal": 0, "DistrictId": 1, "Latitude": 22.58191, "Longitude": 120.3317, "IVRNo": 2631, "EXTVoiceNo": 2631, "traveltime": 0, "holidayTraveltime": 0}, {"Id": "2630", "pgp": 0, "GoBack": 1, "SID": 1913, "NameZh": "\u660e\u6b63\u91cc", "RouteId": 807, "SeqNo": 5, "Terminal": 0, "DistrictId": 1, "Latitude": 22.58293, "Longitude": 120.33546, "IVRNo": 2630, "EXTVoiceNo": 2630, "traveltime": 0, "holidayTraveltime": 0}, {"Id": "2634", "pgp": 0, "GoBack": 1, "SID": 6094, "NameZh": "\u660e\u9cf3\u4e09\u8def\u53e3", "RouteId": 807, "SeqNo": 6, "Terminal": 0, "DistrictId": 1, "Latitude": 22.583008, "Longitude": 120.337393, "IVRNo": 2634, "EXTVoiceNo": 2634, "traveltime": 0, "holidayTraveltime": 0}, {"Id": "2629", "pgp": 0, "GoBack": 1, "SID": 1916, "NameZh": "\u4e2d\u539d\u91cc", "RouteId": 807, "SeqNo": 7, "Terminal": 0, "DistrictId": 1, "Latitude": 22.58311, "Longitude": 120.341615, "IVRNo": 2629, "EXTVoiceNo": 2629, "traveltime": 0, "holidayTraveltime": 0}, {"Id": "8507", "pgp": 0, "GoBack": 1, "SID": 5531, "NameZh": "\u660e\u8056\u8857\u53e3", "RouteId": 807, "SeqNo": 8, "Terminal": 0, "DistrictId": 1, "Latitude": 22.583109, "Longitude": 120.343402, "IVRNo": 8507, "EXTVoiceNo": 8507, "traveltime": 0, "holidayTraveltime": 0}, {"Id": "8508", "pgp": 0, "GoBack": 1, "SID": 5532, "NameZh": "\u798f\u5b89\u5bae", "RouteId": 807, "SeqNo": 9, "Terminal": 0, "DistrictId": 1, "Latitude": 22.58375, "Longitude": 120.34615, "IVRNo": 8508, "EXTVoiceNo": 8508, "traveltime": 0, "holidayTraveltime": 0}, {"Id": "8509", "pgp": 0, "GoBack": 1, "SID": 5533, "NameZh": "\u5fb7\u4ec1\u8def\u53e3", "RouteId": 807, "SeqNo": 10, "Terminal": 0, "DistrictId": 1, "Latitude": 22.58461, "Longitude": 120.349, "IVRNo": 8509, "EXTVoiceNo": 8509, "traveltime": 0, "holidayTraveltime": 0}, {"Id": "8510", "pgp": 0, "GoBack": 1, "SID": 5534, "NameZh": "\u6842\u6797\u570b\u5c0f(\u6a5f\u5834\u5496\u5561)", "RouteId": 807, "SeqNo": 11, "Terminal": 0, "DistrictId": 1, "Latitude": 22.58333, "Longitude": 120.35006, "IVRNo": 8510, "EXTVoiceNo": 8510, "traveltime": 0, "holidayTraveltime": 0}, {"Id": "8511", "pgp": 0, "GoBack": 1, "SID": 5535, "NameZh": "\u6842\u6797\u6559\u6703", "RouteId": 807, "SeqNo": 12, "Terminal": 0, "DistrictId": 1, "Latitude": 22.58336, "Longitude": 120.35451, "IVRNo": 8511, "EXTVoiceNo": 8511, "traveltime": 0, "holidayTraveltime": 0}, {"Id": "0615", "pgp": 0, "GoBack": 1, "SID": 17867, "NameZh": "\u6842\u5fb7\u8857\u53e3", "RouteId": 807, "SeqNo": 13, "Terminal": 0, "DistrictId": 1, "Latitude": 22.583284, "Longitude": 120.357446, "IVRNo": 9451, "EXTVoiceNo": 615, "traveltime": 0, "holidayTraveltime": 0}, {"Id": "2713", "pgp": 0, "GoBack": 1, "SID": 5654, "NameZh": "\u5b54\u9cf3\u8def\u53e3", "RouteId": 807, "SeqNo": 14, "Terminal": 0, "DistrictId": 1, "Latitude": 22.58403, "Longitude": 120.3588, "IVRNo": 8639, "EXTVoiceNo": 2713, "traveltime": 0, "holidayTraveltime": 0}, {"Id": "8516", "pgp": 0, "GoBack": 1, "SID": 5536, "NameZh": "\u65b0\u660c\u8857\u53e3", "RouteId": 807, "SeqNo": 15, "Terminal": 0, "DistrictId": 1, "Latitude": 22.584815, "Longitude": 120.361895, "IVRNo": 8513, "EXTVoiceNo": 8516, "traveltime": 0, "holidayTraveltime": 0}, {"Id": "1275", "pgp": 0, "GoBack": 1, "SID": 1934, "NameZh": "\u4e2d\u5b89\u8def(\u52dd\u5b89\u8857\u53e3)", "RouteId": 807, "SeqNo": 16, "Terminal": 0, "DistrictId": 1, "Latitude": 22.58472, "Longitude": 120.36443, "IVRNo": 1275, "EXTVoiceNo": 1275, "traveltime": 0, "holidayTraveltime": 0}, {"Id": "2618", "pgp": 0, "GoBack": 1, "SID": 1939, "NameZh": "\u6771\u9ad8\u96c4", "RouteId": 807, "SeqNo": 17, "Terminal": 0, "DistrictId": 1, "Latitude": 22.58433, "Longitude": 120.3687, "IVRNo": 2618, "EXTVoiceNo": 2618, "traveltime": 0, "holidayTraveltime": 0}, {"Id": "2617", "pgp": 0, "GoBack": 1, "SID": 16788, "NameZh": "\u5b54\u5b85", "RouteId": 807, "SeqNo": 18, "Terminal": 1, "DistrictId": 1, "Latitude": 22.57951, "Longitude": 120.37135, "IVRNo": 2617, "EXTVoiceNo": 2617, "traveltime": 0, "holidayTraveltime": 0}, {"Id": "2617", "pgp": 0, "GoBack": 2, "SID": 1940, "NameZh": "\u5b54\u5b85", "RouteId": 807, "SeqNo": 1, "Terminal": 0, "DistrictId": 1, "Latitude": 22.57951, "Longitude": 120.37135, "IVRNo": 2617, "EXTVoiceNo": 2617, "traveltime": 0, "holidayTraveltime": 0}, {"Id": "0486", "pgp": 0, "GoBack": 2, "SID": 5610, "NameZh": "\u660e\u7fa9\u570b\u4e2d", "RouteId": 807, "SeqNo": 2, "Terminal": 0, "DistrictId": 1, "Latitude": 22.581218, "Longitude": 120.367865, "IVRNo": 8599, "EXTVoiceNo": 20486, "traveltime": 0, "holidayTraveltime": 0}, {"Id": "2621", "pgp": 0, "GoBack": 2, "SID": 1877, "NameZh": "\u91d1\u57ce\u8def\u53e3", "RouteId": 807, "SeqNo": 3, "Terminal": 0, "DistrictId": 1, "Latitude": 22.58125, "Longitude": 120.36545, "IVRNo": 2621, "EXTVoiceNo": 2621, "traveltime": 0, "holidayTraveltime": 0}, {"Id": "8514", "pgp": 0, "GoBack": 2, "SID": 5537, "NameZh": "\u5fa9\u83ef\u8857\u53e3", "RouteId": 807, "SeqNo": 4, "Terminal": 0, "DistrictId": 1, "Latitude": 22.58132, "Longitude": 120.36337, "IVRNo": 8514, "EXTVoiceNo": 8514, "traveltime": 0, "holidayTraveltime": 0}, {"Id": "8515", "pgp": 0, "GoBack": 2, "SID": 5538, "NameZh": "\u83ef\u660c\u8def", "RouteId": 807, "SeqNo": 5, "Terminal": 0, "DistrictId": 1, "Latitude": 22.58356, "Longitude": 120.36278, "IVRNo": 8515, "EXTVoiceNo": 8515, "traveltime": 0, "holidayTraveltime": 0}, {"Id": "8516", "pgp": 0, "GoBack": 2, "SID": 5539, "NameZh": "\u65b0\u660c\u8857\u53e3", "RouteId": 807, "SeqNo": 6, "Terminal": 0, "DistrictId": 1, "Latitude": 22.58491, "Longitude": 120.36156, "IVRNo": 8513, "EXTVoiceNo": 8516, "traveltime": 0, "holidayTraveltime": 0}, {"Id": "8641", "pgp": 0, "GoBack": 2, "SID": 5655, "NameZh": "\u9cf3\u9802\u8def", "RouteId": 807, "SeqNo": 7, "Terminal": 0, "DistrictId": 1, "Latitude": 22.585, "Longitude": 120.35798, "IVRNo": 8641, "EXTVoiceNo": 8641, "traveltime": 0, "holidayTraveltime": 0}, {"Id": "8517", "pgp": 0, "GoBack": 2, "SID": 5540, "NameZh": "\u6842\u5712\u8def\u53e3", "RouteId": 807, "SeqNo": 8, "Terminal": 0, "DistrictId": 1, "Latitude": 22.58486, "Longitude": 120.3552, "IVRNo": 8517, "EXTVoiceNo": 8517, "traveltime": 0, "holidayTraveltime": 0}, {"Id": "8509", "pgp": 0, "GoBack": 2, "SID": 5541, "NameZh": "\u5fb7\u4ec1\u8def\u53e3", "RouteId": 807, "SeqNo": 9, "Terminal": 0, "DistrictId": 1, "Latitude": 22.58464, "Longitude": 120.34898, "IVRNo": 8509, "EXTVoiceNo": 8509, "traveltime": 0, "holidayTraveltime": 0}, {"Id": "8508", "pgp": 0, "GoBack": 2, "SID": 5542, "NameZh": "\u798f\u5b89\u5bae", "RouteId": 807, "SeqNo": 10, "Terminal": 0, "DistrictId": 1, "Latitude": 22.583856, "Longitude": 120.346073, "IVRNo": 8508, "EXTVoiceNo": 8508, "traveltime": 0, "holidayTraveltime": 0}, {"Id": "8507", "pgp": 0, "GoBack": 2, "SID": 5543, "NameZh": "\u660e\u8056\u8857\u53e3", "RouteId": 807, "SeqNo": 11, "Terminal": 0, "DistrictId": 1, "Latitude": 22.583209, "Longitude": 120.343917, "IVRNo": 8507, "EXTVoiceNo": 8507, "traveltime": 0, "holidayTraveltime": 0}, {"Id": "2629", "pgp": 0, "GoBack": 2, "SID": 1888, "NameZh": "\u4e2d\u539d\u91cc", "RouteId": 807, "SeqNo": 12, "Terminal": 0, "DistrictId": 1, "Latitude": 22.583186, "Longitude": 120.341623, "IVRNo": 2629, "EXTVoiceNo": 2629, "traveltime": 0, "holidayTraveltime": 0}, {"Id": "2634", "pgp": 0, "GoBack": 2, "SID": 1896, "NameZh": "\u660e\u9cf3\u4e09\u8def\u53e3", "RouteId": 807, "SeqNo": 13, "Terminal": 0, "DistrictId": 1, "Latitude": 22.5832, "Longitude": 120.337417, "IVRNo": 2634, "EXTVoiceNo": 2634, "traveltime": 0, "holidayTraveltime": 0}, {"Id": "2630", "pgp": 0, "GoBack": 2, "SID": 1890, "NameZh": "\u660e\u6b63\u91cc", "RouteId": 807, "SeqNo": 14, "Terminal": 0, "DistrictId": 1, "Latitude": 22.58306, "Longitude": 120.33545, "IVRNo": 2630, "EXTVoiceNo": 2630, "traveltime": 0, "holidayTraveltime": 0}, {"Id": "2631", "pgp": 0, "GoBack": 2, "SID": 1893, "NameZh": "\u6377\u904b\u516c\u53f8(\u6377\u904b\u8349\u8859\u7ad9)", "RouteId": 807, "SeqNo": 15, "Terminal": 0, "DistrictId": 1, "Latitude": 22.582503, "Longitude": 120.332092, "IVRNo": 2631, "EXTVoiceNo": 2631, "traveltime": 0, "holidayTraveltime": 0}, {"Id": "8930", "pgp": 0, "GoBack": 2, "SID": 1143, "NameZh": "\u6377\u904b\u8349\u8859\u7ad9", "RouteId": 807, "SeqNo": 16, "Terminal": 0, "DistrictId": 1, "Latitude": 22.57983, "Longitude": 120.32815, "IVRNo": 2064, "EXTVoiceNo": 8930, "traveltime": 0, "holidayTraveltime": 0}, {"Id": "8931", "pgp": 0, "GoBack": 2, "SID": 5544, "NameZh": "\u4f5b\u5fb7\u8857\u53e3", "RouteId": 807, "SeqNo": 17, "Terminal": 0, "DistrictId": 1, "Latitude": 22.57616, "Longitude": 120.323, "IVRNo": 8521, "EXTVoiceNo": 8931, "traveltime": 0, "holidayTraveltime": 0}, {"Id": "2029", "pgp": 0, "GoBack": 2, "SID": 1368, "NameZh": "\u540e\u5b89\u8def", "RouteId": 807, "SeqNo": 18, "Terminal": 1, "DistrictId": 1, "Latitude": 22.57298, "Longitude": 120.32188, "IVRNo": 2177, "EXTVoiceNo": 2029, "traveltime": 0, "holidayTraveltime": 0}]}