{"en": [{"Id": "9495", "pgp": 0, "GoBack": 1, "SID": 6093, "NameZh": "Songhua Rd.", "RouteId": 801, "SeqNo": 1, "Terminal": 0, "DistrictId": 1, "Latitude": 22.5677, "Longitude": 120.37302, "IVRNo": 8998, "EXTVoiceNo": 9495, "traveltime": 0, "holidayTraveltime": 0}, {"Id": "8563", "pgp": 0, "GoBack": 1, "SID": 5568, "NameZh": "Songfu St. Intersection", "RouteId": 801, "SeqNo": 2, "Terminal": 0, "DistrictId": 1, "Latitude": 22.56796, "Longitude": 120.371618, "IVRNo": 8563, "EXTVoiceNo": 8563, "traveltime": 0, "holidayTraveltime": 0}, {"Id": "2612", "pgp": 0, "GoBack": 1, "SID": 5526, "NameZh": "National Kaohsiung University of Hospitality and Tourism", "RouteId": 801, "SeqNo": 3, "Terminal": 0, "DistrictId": 1, "Latitude": 22.565929, "Longitude": 120.371392, "IVRNo": 2612, "EXTVoiceNo": 2612, "traveltime": 0, "holidayTraveltime": 0}, {"Id": "2608", "pgp": 0, "GoBack": 1, "SID": 1849, "NameZh": "Songyi St. Intersection", "RouteId": 801, "SeqNo": 4, "Terminal": 0, "DistrictId": 1, "Latitude": 22.564026, "Longitude": 120.373648, "IVRNo": 2608, "EXTVoiceNo": 2608, "traveltime": 0, "holidayTraveltime": 0}, {"Id": "2609", "pgp": 0, "GoBack": 1, "SID": 1850, "NameZh": "Syueming Community", "RouteId": 801, "SeqNo": 5, "Terminal": 0, "DistrictId": 1, "Latitude": 22.560836, "Longitude": 120.373317, "IVRNo": 2609, "EXTVoiceNo": 2609, "traveltime": 0, "holidayTraveltime": 0}, {"Id": "8572", "pgp": 0, "GoBack": 1, "SID": 5573, "NameZh": "Fong Yang Primary School", "RouteId": 801, "SeqNo": 6, "Terminal": 0, "DistrictId": 1, "Latitude": 22.56074, "Longitude": 120.36999, "IVRNo": 8572, "EXTVoiceNo": 8572, "traveltime": 0, "holidayTraveltime": 0}, {"Id": "0133", "pgp": 0, "GoBack": 1, "SID": 5570, "NameZh": "Shanming Village Community Center", "RouteId": 801, "SeqNo": 7, "Terminal": 0, "DistrictId": 1, "Latitude": 22.561503, "Longitude": 120.367891, "IVRNo": 8565, "EXTVoiceNo": 20133, "traveltime": 0, "holidayTraveltime": 0}, {"Id": "0240", "pgp": 0, "GoBack": 1, "SID": 5571, "NameZh": "Shueisiou Rd.", "RouteId": 801, "SeqNo": 8, "Terminal": 0, "DistrictId": 1, "Latitude": 22.564718, "Longitude": 120.366707, "IVRNo": 8566, "EXTVoiceNo": 20240, "traveltime": 0, "holidayTraveltime": 0}, {"Id": "2611", "pgp": 0, "GoBack": 1, "SID": 5594, "NameZh": "Shanta", "RouteId": 801, "SeqNo": 9, "Terminal": 0, "DistrictId": 1, "Latitude": 22.565622, "Longitude": 120.367498, "IVRNo": 2611, "EXTVoiceNo": 2611, "traveltime": 0, "holidayTraveltime": 0}, {"Id": "8589", "pgp": 0, "GoBack": 1, "SID": 5596, "NameZh": "Meilihua Building (Beautiful Construction)", "RouteId": 801, "SeqNo": 10, "Terminal": 0, "DistrictId": 1, "Latitude": 22.568531, "Longitude": 120.365812, "IVRNo": 8589, "EXTVoiceNo": 8589, "traveltime": 0, "holidayTraveltime": 0}, {"Id": "0131", "pgp": 0, "GoBack": 1, "SID": 5597, "NameZh": "Siaogang Emergency Room (Zihsin Kindergarten)", "RouteId": 801, "SeqNo": 11, "Terminal": 0, "DistrictId": 1, "Latitude": 22.5682, "Longitude": 120.36318, "IVRNo": 8590, "EXTVoiceNo": 20131, "traveltime": 0, "holidayTraveltime": 0}, {"Id": "2309", "pgp": 0, "GoBack": 1, "SID": 1511, "NameZh": "Sinfong St. Intersection", "RouteId": 801, "SeqNo": 12, "Terminal": 0, "DistrictId": 1, "Latitude": 22.567208, "Longitude": 120.360575, "IVRNo": 2309, "EXTVoiceNo": 2309, "traveltime": 0, "holidayTraveltime": 0}, {"Id": "2307", "pgp": 0, "GoBack": 1, "SID": 1519, "NameZh": "Siaogang Senior High School", "RouteId": 801, "SeqNo": 13, "Terminal": 0, "DistrictId": 1, "Latitude": 22.566943, "Longitude": 120.357453, "IVRNo": 2307, "EXTVoiceNo": 2307, "traveltime": 0, "holidayTraveltime": 0}, {"Id": "2306", "pgp": 0, "GoBack": 1, "SID": 1528, "NameZh": "Kaohsiung Municipal Chungshang Junior High School", "RouteId": 801, "SeqNo": 14, "Terminal": 0, "DistrictId": 1, "Latitude": 22.566942, "Longitude": 120.354997, "IVRNo": 2306, "EXTVoiceNo": 2306, "traveltime": 0, "holidayTraveltime": 0}, {"Id": "6028", "pgp": 0, "GoBack": 1, "SID": 9777, "NameZh": "MRT Siaogang Station", "RouteId": 801, "SeqNo": 15, "Terminal": 1, "DistrictId": 1, "Latitude": 22.564926, "Longitude": 120.353538, "IVRNo": 2040, "EXTVoiceNo": 6028, "traveltime": 0, "holidayTraveltime": 0}, {"Id": "6028", "pgp": 0, "GoBack": 2, "SID": 4483, "NameZh": "MRT Siaogang Station", "RouteId": 801, "SeqNo": 1, "Terminal": 0, "DistrictId": 1, "Latitude": 22.564926, "Longitude": 120.353538, "IVRNo": 2040, "EXTVoiceNo": 6028, "traveltime": 0, "holidayTraveltime": 0}, {"Id": "0781", "pgp": 0, "GoBack": 2, "SID": 14796, "NameZh": "Fongyi Temple", "RouteId": 801, "SeqNo": 2, "Terminal": 0, "DistrictId": 1, "Latitude": 22.56365, "Longitude": 120.3519, "IVRNo": 781, "EXTVoiceNo": 781, "traveltime": 0, "holidayTraveltime": 0}, {"Id": "2339", "pgp": 0, "GoBack": 2, "SID": 4478, "NameZh": "Erling Elementary School (MRT Siaogang Station)", "RouteId": 801, "SeqNo": 3, "Terminal": 0, "DistrictId": 1, "Latitude": 22.56575, "Longitude": 120.35182, "IVRNo": 2339, "EXTVoiceNo": 2339, "traveltime": 0, "holidayTraveltime": 0}, {"Id": "2306", "pgp": 0, "GoBack": 2, "SID": 1439, "NameZh": "Kaohsiung Municipal Chungshang Junior High School", "RouteId": 801, "SeqNo": 4, "Terminal": 0, "DistrictId": 1, "Latitude": 22.566836, "Longitude": 120.355311, "IVRNo": 2306, "EXTVoiceNo": 2306, "traveltime": 0, "holidayTraveltime": 0}, {"Id": "2307", "pgp": 0, "GoBack": 2, "SID": 1442, "NameZh": "Siaogang Senior High School", "RouteId": 801, "SeqNo": 5, "Terminal": 0, "DistrictId": 1, "Latitude": 22.566829, "Longitude": 120.357581, "IVRNo": 2307, "EXTVoiceNo": 2307, "traveltime": 0, "holidayTraveltime": 0}, {"Id": "2309", "pgp": 0, "GoBack": 2, "SID": 1453, "NameZh": "Sinfong St. Intersection", "RouteId": 801, "SeqNo": 6, "Terminal": 0, "DistrictId": 1, "Latitude": 22.567082, "Longitude": 120.360464, "IVRNo": 2309, "EXTVoiceNo": 2309, "traveltime": 0, "holidayTraveltime": 0}, {"Id": "2430", "pgp": 0, "GoBack": 2, "SID": 1615, "NameZh": "Kaohsiung Municipal Siaogang Hospital (Hanmin Rd. Intersection)", "RouteId": 801, "SeqNo": 7, "Terminal": 0, "DistrictId": 1, "Latitude": 22.568244, "Longitude": 120.3624, "IVRNo": 2430, "EXTVoiceNo": 2430, "traveltime": 0, "holidayTraveltime": 0}, {"Id": "2410", "pgp": 0, "GoBack": 2, "SID": 5598, "NameZh": "Shanming Rd. (Hongping Rd. Intersection)", "RouteId": 801, "SeqNo": 8, "Terminal": 0, "DistrictId": 1, "Latitude": 22.569312, "Longitude": 120.361997, "IVRNo": 2410, "EXTVoiceNo": 2410, "traveltime": 0, "holidayTraveltime": 0}, {"Id": "2014", "pgp": 0, "GoBack": 2, "SID": 13801, "NameZh": "Songbo St. Intersection", "RouteId": 801, "SeqNo": 9, "Terminal": 0, "DistrictId": 1, "Latitude": 22.57039, "Longitude": 120.362392, "IVRNo": 2014, "EXTVoiceNo": 2014, "traveltime": 0, "holidayTraveltime": 0}, {"Id": "0426", "pgp": 0, "GoBack": 2, "SID": 5599, "NameZh": "Hongguang St. Intersection (Hongping Kindergarten)", "RouteId": 801, "SeqNo": 10, "Terminal": 0, "DistrictId": 1, "Latitude": 22.570663, "Longitude": 120.363925, "IVRNo": 8592, "EXTVoiceNo": 20426, "traveltime": 0, "holidayTraveltime": 0}, {"Id": "8589", "pgp": 0, "GoBack": 2, "SID": 5600, "NameZh": "Meilihua Building (Beautiful Construction)", "RouteId": 801, "SeqNo": 11, "Terminal": 0, "DistrictId": 1, "Latitude": 22.56873, "Longitude": 120.36558, "IVRNo": 8589, "EXTVoiceNo": 8589, "traveltime": 0, "holidayTraveltime": 0}, {"Id": "2020", "pgp": 0, "GoBack": 2, "SID": 5601, "NameZh": "Shanming Rd. Intersection (Huashan Rd.)", "RouteId": 801, "SeqNo": 12, "Terminal": 0, "DistrictId": 1, "Latitude": 22.566518, "Longitude": 120.367504, "IVRNo": 2020, "EXTVoiceNo": 2020, "traveltime": 0, "holidayTraveltime": 0}, {"Id": "2611", "pgp": 0, "GoBack": 2, "SID": 1856, "NameZh": "Shanta", "RouteId": 801, "SeqNo": 13, "Terminal": 0, "DistrictId": 1, "Latitude": 22.565622, "Longitude": 120.367498, "IVRNo": 2611, "EXTVoiceNo": 2611, "traveltime": 0, "holidayTraveltime": 0}, {"Id": "0240", "pgp": 0, "GoBack": 2, "SID": 5576, "NameZh": "Shueisiou Rd.", "RouteId": 801, "SeqNo": 14, "Terminal": 0, "DistrictId": 1, "Latitude": 22.564718, "Longitude": 120.366707, "IVRNo": 8566, "EXTVoiceNo": 20240, "traveltime": 0, "holidayTraveltime": 0}, {"Id": "0133", "pgp": 0, "GoBack": 2, "SID": 5575, "NameZh": "Shanming Village Community Center", "RouteId": 801, "SeqNo": 15, "Terminal": 0, "DistrictId": 1, "Latitude": 22.561503, "Longitude": 120.367891, "IVRNo": 8565, "EXTVoiceNo": 20133, "traveltime": 0, "holidayTraveltime": 0}, {"Id": "8572", "pgp": 0, "GoBack": 2, "SID": 5574, "NameZh": "Fong Yang Primary School", "RouteId": 801, "SeqNo": 16, "Terminal": 0, "DistrictId": 1, "Latitude": 22.56074, "Longitude": 120.36999, "IVRNo": 8572, "EXTVoiceNo": 8572, "traveltime": 0, "holidayTraveltime": 0}, {"Id": "2609", "pgp": 0, "GoBack": 2, "SID": 5567, "NameZh": "Syueming Community", "RouteId": 801, "SeqNo": 17, "Terminal": 0, "DistrictId": 1, "Latitude": 22.560836, "Longitude": 120.373317, "IVRNo": 2609, "EXTVoiceNo": 2609, "traveltime": 0, "holidayTraveltime": 0}, {"Id": "2608", "pgp": 0, "GoBack": 2, "SID": 5566, "NameZh": "Songyi St. Intersection", "RouteId": 801, "SeqNo": 18, "Terminal": 0, "DistrictId": 1, "Latitude": 22.563928, "Longitude": 120.373717, "IVRNo": 2608, "EXTVoiceNo": 2608, "traveltime": 0, "holidayTraveltime": 0}, {"Id": "9495", "pgp": 0, "GoBack": 2, "SID": 6203, "NameZh": "Songhua Rd.", "RouteId": 801, "SeqNo": 19, "Terminal": 0, "DistrictId": 1, "Latitude": 22.5677, "Longitude": 120.37302, "IVRNo": 8998, "EXTVoiceNo": 9495, "traveltime": 0, "holidayTraveltime": 0}, {"Id": "8563", "pgp": 0, "GoBack": 2, "SID": 5569, "NameZh": "Songfu St. Intersection", "RouteId": 801, "SeqNo": 20, "Terminal": 0, "DistrictId": 1, "Latitude": 22.56794, "Longitude": 120.37159, "IVRNo": 8563, "EXTVoiceNo": 8563, "traveltime": 0, "holidayTraveltime": 0}, {"Id": "2612", "pgp": 0, "GoBack": 2, "SID": 5565, "NameZh": "National Kaohsiung University of Hospitality and Tourism", "RouteId": 801, "SeqNo": 21, "Terminal": 1, "DistrictId": 1, "Latitude": 22.565929, "Longitude": 120.371392, "IVRNo": 2612, "EXTVoiceNo": 2612, "traveltime": 0, "holidayTraveltime": 0}], "zh": [{"Id": "9495", "pgp": 0, "GoBack": 1, "SID": 6093, "NameZh": "\u677e\u83ef\u8def", "RouteId": 801, "SeqNo": 1, "Terminal": 0, "DistrictId": 1, "Latitude": 22.5677, "Longitude": 120.37302, "IVRNo": 8998, "EXTVoiceNo": 9495, "traveltime": 0, "holidayTraveltime": 0}, {"Id": "8563", "pgp": 0, "GoBack": 1, "SID": 5568, "NameZh": "\u677e\u798f\u8857\u53e3", "RouteId": 801, "SeqNo": 2, "Terminal": 0, "DistrictId": 1, "Latitude": 22.56796, "Longitude": 120.371618, "IVRNo": 8563, "EXTVoiceNo": 8563, "traveltime": 0, "holidayTraveltime": 0}, {"Id": "2612", "pgp": 0, "GoBack": 1, "SID": 5526, "NameZh": "\u9ad8\u96c4\u9910\u65c5\u5927\u5b78", "RouteId": 801, "SeqNo": 3, "Terminal": 0, "DistrictId": 1, "Latitude": 22.565929, "Longitude": 120.371392, "IVRNo": 2612, "EXTVoiceNo": 2612, "traveltime": 0, "holidayTraveltime": 0}, {"Id": "2608", "pgp": 0, "GoBack": 1, "SID": 1849, "NameZh": "\u677e\u7fa9\u8857\u53e3", "RouteId": 801, "SeqNo": 4, "Terminal": 0, "DistrictId": 1, "Latitude": 22.564026, "Longitude": 120.373648, "IVRNo": 2608, "EXTVoiceNo": 2608, "traveltime": 0, "holidayTraveltime": 0}, {"Id": "2609", "pgp": 0, "GoBack": 1, "SID": 1850, "NameZh": "\u5b78\u660e\u793e\u5340", "RouteId": 801, "SeqNo": 5, "Terminal": 0, "DistrictId": 1, "Latitude": 22.560836, "Longitude": 120.373317, "IVRNo": 2609, "EXTVoiceNo": 2609, "traveltime": 0, "holidayTraveltime": 0}, {"Id": "8572", "pgp": 0, "GoBack": 1, "SID": 5573, "NameZh": "\u9cf3\u967d\u570b\u5c0f", "RouteId": 801, "SeqNo": 6, "Terminal": 0, "DistrictId": 1, "Latitude": 22.56074, "Longitude": 120.36999, "IVRNo": 8572, "EXTVoiceNo": 8572, "traveltime": 0, "holidayTraveltime": 0}, {"Id": "0133", "pgp": 0, "GoBack": 1, "SID": 5570, "NameZh": "\u5c71\u660e\u91cc\u6d3b\u52d5\u4e2d\u5fc3", "RouteId": 801, "SeqNo": 7, "Terminal": 0, "DistrictId": 1, "Latitude": 22.561503, "Longitude": 120.367891, "IVRNo": 8565, "EXTVoiceNo": 20133, "traveltime": 0, "holidayTraveltime": 0}, {"Id": "0240", "pgp": 0, "GoBack": 1, "SID": 5571, "NameZh": "\u6c34\u79c0\u8def", "RouteId": 801, "SeqNo": 8, "Terminal": 0, "DistrictId": 1, "Latitude": 22.564718, "Longitude": 120.366707, "IVRNo": 8566, "EXTVoiceNo": 20240, "traveltime": 0, "holidayTraveltime": 0}, {"Id": "2611", "pgp": 0, "GoBack": 1, "SID": 5594, "NameZh": "\u5c71\u6c93", "RouteId": 801, "SeqNo": 9, "Terminal": 0, "DistrictId": 1, "Latitude": 22.565622, "Longitude": 120.367498, "IVRNo": 2611, "EXTVoiceNo": 2611, "traveltime": 0, "holidayTraveltime": 0}, {"Id": "8589", "pgp": 0, "GoBack": 1, "SID": 5596, "NameZh": "\u7f8e\u9e97\u83ef\u5927\u5ec8", "RouteId": 801, "SeqNo": 10, "Terminal": 0, "DistrictId": 1, "Latitude": 22.568531, "Longitude": 120.365812, "IVRNo": 8589, "EXTVoiceNo": 8589, "traveltime": 0, "holidayTraveltime": 0}, {"Id": "0131", "pgp": 0, "GoBack": 1, "SID": 5597, "NameZh": "\u5c0f\u6e2f\u91ab\u9662\u6025\u8a3a\u5ba4(\u5b50\u4fe1\u5e7c\u7a1a\u5712)", "RouteId": 801, "SeqNo": 11, "Terminal": 0, "DistrictId": 1, "Latitude": 22.5682, "Longitude": 120.36318, "IVRNo": 8590, "EXTVoiceNo": 20131, "traveltime": 0, "holidayTraveltime": 0}, {"Id": "2309", "pgp": 0, "GoBack": 1, "SID": 1511, "NameZh": "\u65b0\u8c50\u8857\u53e3", "RouteId": 801, "SeqNo": 12, "Terminal": 0, "DistrictId": 1, "Latitude": 22.567208, "Longitude": 120.360575, "IVRNo": 2309, "EXTVoiceNo": 2309, "traveltime": 0, "holidayTraveltime": 0}, {"Id": "2307", "pgp": 0, "GoBack": 1, "SID": 1519, "NameZh": "\u5c0f\u6e2f\u9ad8\u4e2d", "RouteId": 801, "SeqNo": 13, "Terminal": 0, "DistrictId": 1, "Latitude": 22.566943, "Longitude": 120.357453, "IVRNo": 2307, "EXTVoiceNo": 2307, "traveltime": 0, "holidayTraveltime": 0}, {"Id": "2306", "pgp": 0, "GoBack": 1, "SID": 1528, "NameZh": "\u4e2d\u5c71\u570b\u4e2d", "RouteId": 801, "SeqNo": 14, "Terminal": 0, "DistrictId": 1, "Latitude": 22.566942, "Longitude": 120.354997, "IVRNo": 2306, "EXTVoiceNo": 2306, "traveltime": 0, "holidayTraveltime": 0}, {"Id": "6028", "pgp": 0, "GoBack": 1, "SID": 9777, "NameZh": "\u6377\u904b\u5c0f\u6e2f\u7ad9", "RouteId": 801, "SeqNo": 15, "Terminal": 1, "DistrictId": 1, "Latitude": 22.564926, "Longitude": 120.353538, "IVRNo": 2040, "EXTVoiceNo": 6028, "traveltime": 0, "holidayTraveltime": 0}, {"Id": "6028", "pgp": 0, "GoBack": 2, "SID": 4483, "NameZh": "\u6377\u904b\u5c0f\u6e2f\u7ad9", "RouteId": 801, "SeqNo": 1, "Terminal": 0, "DistrictId": 1, "Latitude": 22.564926, "Longitude": 120.353538, "IVRNo": 2040, "EXTVoiceNo": 6028, "traveltime": 0, "holidayTraveltime": 0}, {"Id": "0781", "pgp": 0, "GoBack": 2, "SID": 14796, "NameZh": "\u9cf3\u5100\u5bae", "RouteId": 801, "SeqNo": 2, "Terminal": 0, "DistrictId": 1, "Latitude": 22.56365, "Longitude": 120.3519, "IVRNo": 781, "EXTVoiceNo": 781, "traveltime": 0, "holidayTraveltime": 0}, {"Id": "2339", "pgp": 0, "GoBack": 2, "SID": 4478, "NameZh": "\u4e8c\u82d3\u570b\u5c0f(\u6377\u904b\u5c0f\u6e2f\u7ad9)", "RouteId": 801, "SeqNo": 3, "Terminal": 0, "DistrictId": 1, "Latitude": 22.56575, "Longitude": 120.35182, "IVRNo": 2339, "EXTVoiceNo": 2339, "traveltime": 0, "holidayTraveltime": 0}, {"Id": "2306", "pgp": 0, "GoBack": 2, "SID": 1439, "NameZh": "\u4e2d\u5c71\u570b\u4e2d", "RouteId": 801, "SeqNo": 4, "Terminal": 0, "DistrictId": 1, "Latitude": 22.566836, "Longitude": 120.355311, "IVRNo": 2306, "EXTVoiceNo": 2306, "traveltime": 0, "holidayTraveltime": 0}, {"Id": "2307", "pgp": 0, "GoBack": 2, "SID": 1442, "NameZh": "\u5c0f\u6e2f\u9ad8\u4e2d", "RouteId": 801, "SeqNo": 5, "Terminal": 0, "DistrictId": 1, "Latitude": 22.566829, "Longitude": 120.357581, "IVRNo": 2307, "EXTVoiceNo": 2307, "traveltime": 0, "holidayTraveltime": 0}, {"Id": "2309", "pgp": 0, "GoBack": 2, "SID": 1453, "NameZh": "\u65b0\u8c50\u8857\u53e3", "RouteId": 801, "SeqNo": 6, "Terminal": 0, "DistrictId": 1, "Latitude": 22.567082, "Longitude": 120.360464, "IVRNo": 2309, "EXTVoiceNo": 2309, "traveltime": 0, "holidayTraveltime": 0}, {"Id": "2430", "pgp": 0, "GoBack": 2, "SID": 1615, "NameZh": "\u5c0f\u6e2f\u91ab\u9662(\u6f22\u6c11\u8def\u53e3)", "RouteId": 801, "SeqNo": 7, "Terminal": 0, "DistrictId": 1, "Latitude": 22.568244, "Longitude": 120.3624, "IVRNo": 2430, "EXTVoiceNo": 2430, "traveltime": 0, "holidayTraveltime": 0}, {"Id": "2410", "pgp": 0, "GoBack": 2, "SID": 5598, "NameZh": "\u5c71\u660e\u8def(\u5b8f\u5e73\u8def\u53e3)", "RouteId": 801, "SeqNo": 8, "Terminal": 0, "DistrictId": 1, "Latitude": 22.569312, "Longitude": 120.361997, "IVRNo": 2410, "EXTVoiceNo": 2410, "traveltime": 0, "holidayTraveltime": 0}, {"Id": "2014", "pgp": 0, "GoBack": 2, "SID": 13801, "NameZh": "\u677e\u67cf\u8857\u53e3", "RouteId": 801, "SeqNo": 9, "Terminal": 0, "DistrictId": 1, "Latitude": 22.57039, "Longitude": 120.362392, "IVRNo": 2014, "EXTVoiceNo": 2014, "traveltime": 0, "holidayTraveltime": 0}, {"Id": "0426", "pgp": 0, "GoBack": 2, "SID": 5599, "NameZh": "\u5b8f\u5149\u8857\u53e3(\u5b8f\u5e73\u5e7c\u5152\u5712)", "RouteId": 801, "SeqNo": 10, "Terminal": 0, "DistrictId": 1, "Latitude": 22.570663, "Longitude": 120.363925, "IVRNo": 8592, "EXTVoiceNo": 20426, "traveltime": 0, "holidayTraveltime": 0}, {"Id": "8589", "pgp": 0, "GoBack": 2, "SID": 5600, "NameZh": "\u7f8e\u9e97\u83ef\u5927\u5ec8", "RouteId": 801, "SeqNo": 11, "Terminal": 0, "DistrictId": 1, "Latitude": 22.56873, "Longitude": 120.36558, "IVRNo": 8589, "EXTVoiceNo": 8589, "traveltime": 0, "holidayTraveltime": 0}, {"Id": "2020", "pgp": 0, "GoBack": 2, "SID": 5601, "NameZh": "\u5c71\u660e\u8def\u53e3(\u83ef\u5c71\u8def)", "RouteId": 801, "SeqNo": 12, "Terminal": 0, "DistrictId": 1, "Latitude": 22.566518, "Longitude": 120.367504, "IVRNo": 2020, "EXTVoiceNo": 2020, "traveltime": 0, "holidayTraveltime": 0}, {"Id": "2611", "pgp": 0, "GoBack": 2, "SID": 1856, "NameZh": "\u5c71\u6c93", "RouteId": 801, "SeqNo": 13, "Terminal": 0, "DistrictId": 1, "Latitude": 22.565622, "Longitude": 120.367498, "IVRNo": 2611, "EXTVoiceNo": 2611, "traveltime": 0, "holidayTraveltime": 0}, {"Id": "0240", "pgp": 0, "GoBack": 2, "SID": 5576, "NameZh": "\u6c34\u79c0\u8def", "RouteId": 801, "SeqNo": 14, "Terminal": 0, "DistrictId": 1, "Latitude": 22.564718, "Longitude": 120.366707, "IVRNo": 8566, "EXTVoiceNo": 20240, "traveltime": 0, "holidayTraveltime": 0}, {"Id": "0133", "pgp": 0, "GoBack": 2, "SID": 5575, "NameZh": "\u5c71\u660e\u91cc\u6d3b\u52d5\u4e2d\u5fc3", "RouteId": 801, "SeqNo": 15, "Terminal": 0, "DistrictId": 1, "Latitude": 22.561503, "Longitude": 120.367891, "IVRNo": 8565, "EXTVoiceNo": 20133, "traveltime": 0, "holidayTraveltime": 0}, {"Id": "8572", "pgp": 0, "GoBack": 2, "SID": 5574, "NameZh": "\u9cf3\u967d\u570b\u5c0f", "RouteId": 801, "SeqNo": 16, "Terminal": 0, "DistrictId": 1, "Latitude": 22.56074, "Longitude": 120.36999, "IVRNo": 8572, "EXTVoiceNo": 8572, "traveltime": 0, "holidayTraveltime": 0}, {"Id": "2609", "pgp": 0, "GoBack": 2, "SID": 5567, "NameZh": "\u5b78\u660e\u793e\u5340", "RouteId": 801, "SeqNo": 17, "Terminal": 0, "DistrictId": 1, "Latitude": 22.560836, "Longitude": 120.373317, "IVRNo": 2609, "EXTVoiceNo": 2609, "traveltime": 0, "holidayTraveltime": 0}, {"Id": "2608", "pgp": 0, "GoBack": 2, "SID": 5566, "NameZh": "\u677e\u7fa9\u8857\u53e3", "RouteId": 801, "SeqNo": 18, "Terminal": 0, "DistrictId": 1, "Latitude": 22.563928, "Longitude": 120.373717, "IVRNo": 2608, "EXTVoiceNo": 2608, "traveltime": 0, "holidayTraveltime": 0}, {"Id": "9495", "pgp": 0, "GoBack": 2, "SID": 6203, "NameZh": "\u677e\u83ef\u8def", "RouteId": 801, "SeqNo": 19, "Terminal": 0, "DistrictId": 1, "Latitude": 22.5677, "Longitude": 120.37302, "IVRNo": 8998, "EXTVoiceNo": 9495, "traveltime": 0, "holidayTraveltime": 0}, {"Id": "8563", "pgp": 0, "GoBack": 2, "SID": 5569, "NameZh": "\u677e\u798f\u8857\u53e3", "RouteId": 801, "SeqNo": 20, "Terminal": 0, "DistrictId": 1, "Latitude": 22.56794, "Longitude": 120.37159, "IVRNo": 8563, "EXTVoiceNo": 8563, "traveltime": 0, "holidayTraveltime": 0}, {"Id": "2612", "pgp": 0, "GoBack": 2, "SID": 5565, "NameZh": "\u9ad8\u96c4\u9910\u65c5\u5927\u5b78", "RouteId": 801, "SeqNo": 21, "Terminal": 1, "DistrictId": 1, "Latitude": 22.565929, "Longitude": 120.371392, "IVRNo": 2612, "EXTVoiceNo": 2612, "traveltime": 0, "holidayTraveltime": 0}]}