{"en": [{"Id": "7001", "pgp": 0, "GoBack": 1, "SID": 4554, "NameZh": "Jiachang Station", "RouteId": 28, "SeqNo": 1, "Terminal": 0, "DistrictId": 1, "Latitude": 22.719128, "Longitude": 120.298488, "IVRNo": 7000, "EXTVoiceNo": 7001, "traveltime": 0, "holidayTraveltime": 0}, {"Id": "7089", "pgp": 0, "GoBack": 1, "SID": 4562, "NameZh": "Jiachang Elementary School", "RouteId": 28, "SeqNo": 2, "Terminal": 0, "DistrictId": 1, "Latitude": 22.72025, "Longitude": 120.296386, "IVRNo": 7003, "EXTVoiceNo": 7089, "traveltime": 0, "holidayTraveltime": 0}, {"Id": "7088", "pgp": 0, "GoBack": 1, "SID": 4568, "NameZh": "Shoumin Rd.", "RouteId": 28, "SeqNo": 3, "Terminal": 0, "DistrictId": 1, "Latitude": 22.721563, "Longitude": 120.296522, "IVRNo": 7004, "EXTVoiceNo": 7088, "traveltime": 0, "holidayTraveltime": 0}, {"Id": "7005", "pgp": 0, "GoBack": 1, "SID": 4570, "NameZh": "Waihuan W. Rd.", "RouteId": 28, "SeqNo": 4, "Terminal": 0, "DistrictId": 1, "Latitude": 22.721461, "Longitude": 120.298583, "IVRNo": 7005, "EXTVoiceNo": 7005, "traveltime": 0, "holidayTraveltime": 0}, {"Id": "4746", "pgp": 0, "GoBack": 1, "SID": 3350, "NameZh": "Nanzih Export Processing Zone", "RouteId": 28, "SeqNo": 5, "Terminal": 0, "DistrictId": 1, "Latitude": 22.716825, "Longitude": 120.302343, "IVRNo": 4742, "EXTVoiceNo": 4746, "traveltime": 0, "holidayTraveltime": 0}, {"Id": "7084", "pgp": 0, "GoBack": 1, "SID": 4574, "NameZh": "MRT Nanzih Export Processing Zone", "RouteId": 28, "SeqNo": 6, "Terminal": 0, "DistrictId": 1, "Latitude": 22.718318, "Longitude": 120.30647, "IVRNo": 7008, "EXTVoiceNo": 7084, "traveltime": 0, "holidayTraveltime": 0}, {"Id": "4747", "pgp": 0, "GoBack": 1, "SID": 3354, "NameZh": "Entrance of East Gate", "RouteId": 28, "SeqNo": 7, "Terminal": 0, "DistrictId": 1, "Latitude": 22.719129, "Longitude": 120.308497, "IVRNo": 42, "EXTVoiceNo": 4747, "traveltime": 0, "holidayTraveltime": 0}, {"Id": "4748", "pgp": 0, "GoBack": 1, "SID": 3360, "NameZh": "Jiachang Rd.", "RouteId": 28, "SeqNo": 8, "Terminal": 0, "DistrictId": 1, "Latitude": 22.719847, "Longitude": 120.31035, "IVRNo": 4740, "EXTVoiceNo": 4748, "traveltime": 0, "holidayTraveltime": 0}, {"Id": "7009", "pgp": 0, "GoBack": 1, "SID": 4577, "NameZh": "Houjin Elementary School (MRT Houjin Station)", "RouteId": 28, "SeqNo": 9, "Terminal": 0, "DistrictId": 1, "Latitude": 22.721158, "Longitude": 120.313597, "IVRNo": 7083, "EXTVoiceNo": 7009, "traveltime": 0, "holidayTraveltime": 0}, {"Id": "7010", "pgp": 0, "GoBack": 1, "SID": 4583, "NameZh": "Houjin Junior High School (MRT Houjin Station)", "RouteId": 28, "SeqNo": 10, "Terminal": 0, "DistrictId": 1, "Latitude": 22.72194, "Longitude": 120.315696, "IVRNo": 7010, "EXTVoiceNo": 7010, "traveltime": 0, "holidayTraveltime": 0}, {"Id": "7011", "pgp": 0, "GoBack": 1, "SID": 4588, "NameZh": "Nanyang Elementary School", "RouteId": 28, "SeqNo": 11, "Terminal": 0, "DistrictId": 1, "Latitude": 22.724996, "Longitude": 120.329837, "IVRNo": 7011, "EXTVoiceNo": 7011, "traveltime": 0, "holidayTraveltime": 0}, {"Id": "8043", "pgp": 0, "GoBack": 1, "SID": 4646, "NameZh": "Jiannan Rd. Intersection", "RouteId": 28, "SeqNo": 12, "Terminal": 0, "DistrictId": 1, "Latitude": 22.727225, "Longitude": 120.32938, "IVRNo": 7063, "EXTVoiceNo": 8043, "traveltime": 0, "holidayTraveltime": 0}, {"Id": "9995", "pgp": 0, "GoBack": 1, "SID": 4597, "NameZh": "Nanzih Farmers` Association", "RouteId": 28, "SeqNo": 13, "Terminal": 0, "DistrictId": 1, "Latitude": 22.728641, "Longitude": 120.329513, "IVRNo": 18165, "EXTVoiceNo": 19995, "traveltime": 0, "holidayTraveltime": 0}, {"Id": "1132", "pgp": 0, "GoBack": 1, "SID": 4706, "NameZh": "Nanzih Police Station (Nanzih Rd.)", "RouteId": 28, "SeqNo": 14, "Terminal": 0, "DistrictId": 1, "Latitude": 22.730947, "Longitude": 120.328628, "IVRNo": 1132, "EXTVoiceNo": 1132, "traveltime": 0, "holidayTraveltime": 0}, {"Id": "7077", "pgp": 0, "GoBack": 1, "SID": 4603, "NameZh": "Cihyun Temple (Nanzih District Office)", "RouteId": 28, "SeqNo": 15, "Terminal": 0, "DistrictId": 1, "Latitude": 22.730236, "Longitude": 120.327036, "IVRNo": 7015, "EXTVoiceNo": 7077, "traveltime": 0, "holidayTraveltime": 0}, {"Id": "7076", "pgp": 0, "GoBack": 1, "SID": 4604, "NameZh": "Nanzih Railway Station", "RouteId": 28, "SeqNo": 16, "Terminal": 0, "DistrictId": 1, "Latitude": 22.727566, "Longitude": 120.325352, "IVRNo": 7016, "EXTVoiceNo": 7076, "traveltime": 0, "holidayTraveltime": 0}, {"Id": "7075", "pgp": 0, "GoBack": 1, "SID": 4607, "NameZh": "Nanzih Land Bridge", "RouteId": 28, "SeqNo": 17, "Terminal": 0, "DistrictId": 1, "Latitude": 22.72485, "Longitude": 120.323766, "IVRNo": 7017, "EXTVoiceNo": 7075, "traveltime": 0, "holidayTraveltime": 0}, {"Id": "7074", "pgp": 0, "GoBack": 1, "SID": 4608, "NameZh": "Metal Center", "RouteId": 28, "SeqNo": 18, "Terminal": 0, "DistrictId": 1, "Latitude": 22.71453, "Longitude": 120.32583, "IVRNo": 7074, "EXTVoiceNo": 7074, "traveltime": 0, "holidayTraveltime": 0}, {"Id": "4654", "pgp": 0, "GoBack": 1, "SID": 4609, "NameZh": "Rentian Village", "RouteId": 28, "SeqNo": 19, "Terminal": 0, "DistrictId": 1, "Latitude": 22.712516, "Longitude": 120.325383, "IVRNo": 4654, "EXTVoiceNo": 4654, "traveltime": 0, "holidayTraveltime": 0}, {"Id": "0163", "pgp": 0, "GoBack": 1, "SID": 4610, "NameZh": "Jhonghua Community", "RouteId": 28, "SeqNo": 20, "Terminal": 0, "DistrictId": 1, "Latitude": 22.708947, "Longitude": 120.324694, "IVRNo": 7020, "EXTVoiceNo": 20163, "traveltime": 0, "holidayTraveltime": 0}, {"Id": "0243", "pgp": 0, "GoBack": 1, "SID": 4611, "NameZh": "Shueiguan Rd. Intersection (Gaonan Highway)", "RouteId": 28, "SeqNo": 21, "Terminal": 0, "DistrictId": 1, "Latitude": 22.70426, "Longitude": 120.32397, "IVRNo": 7932, "EXTVoiceNo": 20243, "traveltime": 0, "holidayTraveltime": 0}, {"Id": "4758", "pgp": 0, "GoBack": 1, "SID": 4612, "NameZh": "Banping Mountain (Gaonan Rd.)", "RouteId": 28, "SeqNo": 22, "Terminal": 0, "DistrictId": 1, "Latitude": 22.70106, "Longitude": 120.32333, "IVRNo": 4730, "EXTVoiceNo": 4758, "traveltime": 0, "holidayTraveltime": 0}, {"Id": "0288", "pgp": 0, "GoBack": 1, "SID": 4614, "NameZh": "Taiwan Times", "RouteId": 28, "SeqNo": 23, "Terminal": 0, "DistrictId": 1, "Latitude": 22.69807, "Longitude": 120.32273, "IVRNo": 7023, "EXTVoiceNo": 20288, "traveltime": 0, "holidayTraveltime": 0}, {"Id": "7024", "pgp": 0, "GoBack": 1, "SID": 4615, "NameZh": "Gaonan New Village", "RouteId": 28, "SeqNo": 24, "Terminal": 0, "DistrictId": 1, "Latitude": 22.69203, "Longitude": 120.32156, "IVRNo": 476, "EXTVoiceNo": 7024, "traveltime": 0, "holidayTraveltime": 0}, {"Id": "7067", "pgp": 0, "GoBack": 1, "SID": 4616, "NameZh": "Fubin Community", "RouteId": 28, "SeqNo": 25, "Terminal": 0, "DistrictId": 1, "Latitude": 22.68655, "Longitude": 120.320366, "IVRNo": 7025, "EXTVoiceNo": 7067, "traveltime": 0, "holidayTraveltime": 0}, {"Id": "5762", "pgp": 0, "GoBack": 1, "SID": 4335, "NameZh": "Kaohsiung Municipal Hsinchuang Senior High School (Minzu 1st Rd.)", "RouteId": 28, "SeqNo": 26, "Terminal": 0, "DistrictId": 1, "Latitude": 22.68083, "Longitude": 120.31938, "IVRNo": 5708, "EXTVoiceNo": 5762, "traveltime": 0, "holidayTraveltime": 0}, {"Id": "5005", "pgp": 0, "GoBack": 1, "SID": 3680, "NameZh": "Kaohsiung Veterans General Hospital", "RouteId": 28, "SeqNo": 27, "Terminal": 0, "DistrictId": 1, "Latitude": 22.677169, "Longitude": 120.321975, "IVRNo": 5005, "EXTVoiceNo": 5005, "traveltime": 0, "holidayTraveltime": 0}, {"Id": "5004", "pgp": 0, "GoBack": 1, "SID": 3688, "NameZh": "Shihhu Elementary School (Dingjhong Rd.)", "RouteId": 28, "SeqNo": 28, "Terminal": 0, "DistrictId": 1, "Latitude": 22.674085, "Longitude": 120.321665, "IVRNo": 1713, "EXTVoiceNo": 5004, "traveltime": 0, "holidayTraveltime": 0}, {"Id": "1097", "pgp": 0, "GoBack": 1, "SID": 3696, "NameZh": "Wenzao Ursuline University of Languages (Dingjhong Rd.)", "RouteId": 28, "SeqNo": 29, "Terminal": 0, "DistrictId": 1, "Latitude": 22.670927, "Longitude": 120.320688, "IVRNo": 1097, "EXTVoiceNo": 1097, "traveltime": 0, "holidayTraveltime": 0}, {"Id": "1093", "pgp": 0, "GoBack": 1, "SID": 4709, "NameZh": "Dingjhong (Tiansiang 1st Rd.)", "RouteId": 28, "SeqNo": 30, "Terminal": 0, "DistrictId": 1, "Latitude": 22.668296, "Longitude": 120.31995, "IVRNo": 1093, "EXTVoiceNo": 1093, "traveltime": 0, "holidayTraveltime": 0}, {"Id": "7062", "pgp": 0, "GoBack": 1, "SID": 4626, "NameZh": "Tiansiang 1st Rd.", "RouteId": 28, "SeqNo": 31, "Terminal": 0, "DistrictId": 1, "Latitude": 22.667718, "Longitude": 120.319155, "IVRNo": 7030, "EXTVoiceNo": 7062, "traveltime": 0, "holidayTraveltime": 0}, {"Id": "7032", "pgp": 0, "GoBack": 1, "SID": 4629, "NameZh": "Minzu Yucheng Rd. Intersection", "RouteId": 28, "SeqNo": 32, "Terminal": 0, "DistrictId": 1, "Latitude": 22.664685, "Longitude": 120.316171, "IVRNo": 2214, "EXTVoiceNo": 7032, "traveltime": 0, "holidayTraveltime": 0}, {"Id": "5213", "pgp": 0, "GoBack": 1, "SID": 3888, "NameZh": "Minzu Rd. (Mingcheng Rd. Intersection)", "RouteId": 28, "SeqNo": 33, "Terminal": 0, "DistrictId": 1, "Latitude": 22.661627, "Longitude": 120.315775, "IVRNo": 43, "EXTVoiceNo": 5213, "traveltime": 0, "holidayTraveltime": 0}, {"Id": "1164", "pgp": 0, "GoBack": 1, "SID": 3891, "NameZh": "Minzu Dashun Rd. Intersection", "RouteId": 28, "SeqNo": 34, "Terminal": 0, "DistrictId": 1, "Latitude": 22.657775, "Longitude": 120.315416, "IVRNo": 4030, "EXTVoiceNo": 21164, "traveltime": 0, "holidayTraveltime": 0}, {"Id": "5215", "pgp": 0, "GoBack": 1, "SID": 3894, "NameZh": "Longfong Temple", "RouteId": 28, "SeqNo": 35, "Terminal": 0, "DistrictId": 1, "Latitude": 22.652769, "Longitude": 120.315011, "IVRNo": 5215, "EXTVoiceNo": 5215, "traveltime": 0, "holidayTraveltime": 0}, {"Id": "3447", "pgp": 0, "GoBack": 1, "SID": 3896, "NameZh": "Wanzihnei", "RouteId": 28, "SeqNo": 36, "Terminal": 0, "DistrictId": 1, "Latitude": 22.648755, "Longitude": 120.314755, "IVRNo": 5216, "EXTVoiceNo": 13447, "traveltime": 0, "holidayTraveltime": 0}, {"Id": "7377", "pgp": 0, "GoBack": 1, "SID": 1477, "NameZh": "Vegetable & Fruit Company", "RouteId": 28, "SeqNo": 37, "Terminal": 0, "DistrictId": 1, "Latitude": 22.645005, "Longitude": 120.314188, "IVRNo": 232, "EXTVoiceNo": 7377, "traveltime": 0, "holidayTraveltime": 0}, {"Id": "0233", "pgp": 0, "GoBack": 1, "SID": 1499, "NameZh": "Aiguo Elementary School", "RouteId": 28, "SeqNo": 38, "Terminal": 0, "DistrictId": 1, "Latitude": 22.644764, "Longitude": 120.313119, "IVRNo": 233, "EXTVoiceNo": 233, "traveltime": 0, "holidayTraveltime": 0}, {"Id": "0234", "pgp": 0, "GoBack": 1, "SID": 14317, "NameZh": "Gaoyi, Kaohsiung Medical University (Shihcyuan Rd.)", "RouteId": 28, "SeqNo": 39, "Terminal": 0, "DistrictId": 1, "Latitude": 22.645033, "Longitude": 120.309415, "IVRNo": 234, "EXTVoiceNo": 234, "traveltime": 0, "holidayTraveltime": 0}, {"Id": "0235", "pgp": 0, "GoBack": 1, "SID": 1556, "NameZh": "Sanmin Junior High School", "RouteId": 28, "SeqNo": 40, "Terminal": 0, "DistrictId": 1, "Latitude": 22.64525, "Longitude": 120.30685, "IVRNo": 235, "EXTVoiceNo": 235, "traveltime": 0, "holidayTraveltime": 0}, {"Id": "2839", "pgp": 0, "GoBack": 1, "SID": 1560, "NameZh": "Sanmin Park (Boai Rd. Intersection)", "RouteId": 28, "SeqNo": 41, "Terminal": 0, "DistrictId": 1, "Latitude": 22.645517, "Longitude": 120.303533, "IVRNo": 236, "EXTVoiceNo": 2839, "traveltime": 0, "holidayTraveltime": 0}, {"Id": "0237", "pgp": 0, "GoBack": 1, "SID": 1575, "NameZh": "Tianjin St. Intersection", "RouteId": 28, "SeqNo": 42, "Terminal": 0, "DistrictId": 1, "Latitude": 22.64565, "Longitude": 120.301402, "IVRNo": 249, "EXTVoiceNo": 237, "traveltime": 0, "holidayTraveltime": 0}, {"Id": "0242", "pgp": 0, "GoBack": 1, "SID": 1637, "NameZh": "Shihcyuan Elementary School", "RouteId": 28, "SeqNo": 43, "Terminal": 0, "DistrictId": 1, "Latitude": 22.645872, "Longitude": 120.298211, "IVRNo": 242, "EXTVoiceNo": 242, "traveltime": 0, "holidayTraveltime": 0}, {"Id": "9993", "pgp": 0, "GoBack": 1, "SID": 1589, "NameZh": "Ksbus Zihli Station", "RouteId": 28, "SeqNo": 44, "Terminal": 0, "DistrictId": 1, "Latitude": 22.644853, "Longitude": 120.296387, "IVRNo": 19993, "EXTVoiceNo": 19993, "traveltime": 0, "holidayTraveltime": 0}, {"Id": "0239", "pgp": 0, "GoBack": 1, "SID": 1594, "NameZh": "Liaoning St. Intersection (Zihli Rd.)", "RouteId": 28, "SeqNo": 45, "Terminal": 0, "DistrictId": 1, "Latitude": 22.642169, "Longitude": 120.2961, "IVRNo": 239, "EXTVoiceNo": 239, "traveltime": 0, "holidayTraveltime": 0}, {"Id": "0240", "pgp": 0, "GoBack": 1, "SID": 1606, "NameZh": "Kaohsiung Senior High School", "RouteId": 28, "SeqNo": 46, "Terminal": 0, "DistrictId": 1, "Latitude": 22.637866, "Longitude": 120.297322, "IVRNo": 240, "EXTVoiceNo": 240, "traveltime": 0, "holidayTraveltime": 0}, {"Id": "0248", "pgp": 0, "GoBack": 1, "SID": 7925, "NameZh": "Kaohsiung Train Station (Tungai St. Intersection)", "RouteId": 28, "SeqNo": 47, "Terminal": 0, "DistrictId": 1, "Latitude": 22.637845, "Longitude": 120.301119, "IVRNo": 241, "EXTVoiceNo": 20248, "traveltime": 0, "holidayTraveltime": 0}, {"Id": "0248", "pgp": 0, "GoBack": 2, "SID": 2893, "NameZh": "Kaohsiung Train Station (Tungai St. Intersection)", "RouteId": 28, "SeqNo": 1, "Terminal": 0, "DistrictId": 1, "Latitude": 22.637845, "Longitude": 120.301119, "IVRNo": 241, "EXTVoiceNo": 20248, "traveltime": 0, "holidayTraveltime": 0}, {"Id": "0240", "pgp": 0, "GoBack": 2, "SID": 2903, "NameZh": "Kaohsiung Senior High School", "RouteId": 28, "SeqNo": 2, "Terminal": 0, "DistrictId": 1, "Latitude": 22.63798, "Longitude": 120.297336, "IVRNo": 240, "EXTVoiceNo": 240, "traveltime": 0, "holidayTraveltime": 0}, {"Id": "0239", "pgp": 0, "GoBack": 2, "SID": 1669, "NameZh": "Liaoning St. Intersection (Zihli Rd.)", "RouteId": 28, "SeqNo": 3, "Terminal": 0, "DistrictId": 1, "Latitude": 22.642119, "Longitude": 120.296202, "IVRNo": 239, "EXTVoiceNo": 239, "traveltime": 0, "holidayTraveltime": 0}, {"Id": "9993", "pgp": 0, "GoBack": 2, "SID": 1690, "NameZh": "Ksbus Zihli Station", "RouteId": 28, "SeqNo": 4, "Terminal": 0, "DistrictId": 1, "Latitude": 22.6452, "Longitude": 120.296655, "IVRNo": 19993, "EXTVoiceNo": 19993, "traveltime": 0, "holidayTraveltime": 0}, {"Id": "0242", "pgp": 0, "GoBack": 2, "SID": 2065, "NameZh": "Shihcyuan Elementary School", "RouteId": 28, "SeqNo": 5, "Terminal": 0, "DistrictId": 1, "Latitude": 22.645753, "Longitude": 120.298111, "IVRNo": 242, "EXTVoiceNo": 242, "traveltime": 0, "holidayTraveltime": 0}, {"Id": "0237", "pgp": 0, "GoBack": 2, "SID": 1705, "NameZh": "Tianjin St. Intersection", "RouteId": 28, "SeqNo": 6, "Terminal": 0, "DistrictId": 1, "Latitude": 22.645636, "Longitude": 120.301124, "IVRNo": 249, "EXTVoiceNo": 237, "traveltime": 0, "holidayTraveltime": 0}, {"Id": "2839", "pgp": 0, "GoBack": 2, "SID": 1719, "NameZh": "Sanmin Park (Boai Rd. Intersection)", "RouteId": 28, "SeqNo": 7, "Terminal": 0, "DistrictId": 1, "Latitude": 22.645369, "Longitude": 120.303658, "IVRNo": 236, "EXTVoiceNo": 2839, "traveltime": 0, "holidayTraveltime": 0}, {"Id": "0235", "pgp": 0, "GoBack": 2, "SID": 1729, "NameZh": "Sanmin Junior High School", "RouteId": 28, "SeqNo": 8, "Terminal": 0, "DistrictId": 1, "Latitude": 22.645219, "Longitude": 120.305816, "IVRNo": 235, "EXTVoiceNo": 235, "traveltime": 0, "holidayTraveltime": 0}, {"Id": "0234", "pgp": 0, "GoBack": 2, "SID": 1736, "NameZh": "Gaoyi, Kaohsiung Medical University (Shihcyuan Rd.)", "RouteId": 28, "SeqNo": 9, "Terminal": 0, "DistrictId": 1, "Latitude": 22.644867, "Longitude": 120.310589, "IVRNo": 234, "EXTVoiceNo": 234, "traveltime": 0, "holidayTraveltime": 0}, {"Id": "0233", "pgp": 0, "GoBack": 2, "SID": 1745, "NameZh": "Aiguo Elementary School", "RouteId": 28, "SeqNo": 10, "Terminal": 0, "DistrictId": 1, "Latitude": 22.64468, "Longitude": 120.313094, "IVRNo": 233, "EXTVoiceNo": 233, "traveltime": 0, "holidayTraveltime": 0}, {"Id": "7377", "pgp": 0, "GoBack": 2, "SID": 1769, "NameZh": "Vegetable & Fruit Company", "RouteId": 28, "SeqNo": 11, "Terminal": 0, "DistrictId": 1, "Latitude": 22.645033, "Longitude": 120.31448, "IVRNo": 232, "EXTVoiceNo": 7377, "traveltime": 0, "holidayTraveltime": 0}, {"Id": "3447", "pgp": 0, "GoBack": 2, "SID": 3918, "NameZh": "Wanzihnei", "RouteId": 28, "SeqNo": 12, "Terminal": 0, "DistrictId": 1, "Latitude": 22.648958, "Longitude": 120.3149, "IVRNo": 5216, "EXTVoiceNo": 13447, "traveltime": 0, "holidayTraveltime": 0}, {"Id": "5215", "pgp": 0, "GoBack": 2, "SID": 3919, "NameZh": "Longfong Temple", "RouteId": 28, "SeqNo": 13, "Terminal": 0, "DistrictId": 1, "Latitude": 22.652623, "Longitude": 120.315175, "IVRNo": 5215, "EXTVoiceNo": 5215, "traveltime": 0, "holidayTraveltime": 0}, {"Id": "1164", "pgp": 0, "GoBack": 2, "SID": 3924, "NameZh": "Minzu Dashun Rd. Intersection", "RouteId": 28, "SeqNo": 14, "Terminal": 0, "DistrictId": 1, "Latitude": 22.656722, "Longitude": 120.315472, "IVRNo": 4030, "EXTVoiceNo": 21164, "traveltime": 0, "holidayTraveltime": 0}, {"Id": "5213", "pgp": 0, "GoBack": 2, "SID": 3925, "NameZh": "Minzu Rd. (Mingcheng Rd. Intersection)", "RouteId": 28, "SeqNo": 15, "Terminal": 0, "DistrictId": 1, "Latitude": 22.661294, "Longitude": 120.316005, "IVRNo": 43, "EXTVoiceNo": 5213, "traveltime": 0, "holidayTraveltime": 0}, {"Id": "7032", "pgp": 0, "GoBack": 2, "SID": 8245, "NameZh": "Minzu Yucheng Rd. Intersection", "RouteId": 28, "SeqNo": 16, "Terminal": 0, "DistrictId": 1, "Latitude": 22.664938, "Longitude": 120.316375, "IVRNo": 2214, "EXTVoiceNo": 7032, "traveltime": 0, "holidayTraveltime": 0}, {"Id": "7062", "pgp": 0, "GoBack": 2, "SID": 4637, "NameZh": "Tiansiang 1st Rd.", "RouteId": 28, "SeqNo": 17, "Terminal": 0, "DistrictId": 1, "Latitude": 22.667723, "Longitude": 120.318646, "IVRNo": 7030, "EXTVoiceNo": 7062, "traveltime": 0, "holidayTraveltime": 0}, {"Id": "1093", "pgp": 0, "GoBack": 2, "SID": 4712, "NameZh": "Dingjhong (Tiansiang 1st Rd.)", "RouteId": 28, "SeqNo": 18, "Terminal": 0, "DistrictId": 1, "Latitude": 22.668397, "Longitude": 120.320032, "IVRNo": 1093, "EXTVoiceNo": 1093, "traveltime": 0, "holidayTraveltime": 0}, {"Id": "1097", "pgp": 0, "GoBack": 2, "SID": 3560, "NameZh": "Wenzao Ursuline University of Languages (Dingjhong Rd.)", "RouteId": 28, "SeqNo": 19, "Terminal": 0, "DistrictId": 1, "Latitude": 22.670986, "Longitude": 120.320755, "IVRNo": 1097, "EXTVoiceNo": 1097, "traveltime": 0, "holidayTraveltime": 0}, {"Id": "5004", "pgp": 0, "GoBack": 2, "SID": 3562, "NameZh": "Shihhu Elementary School (Dingjhong Rd.)", "RouteId": 28, "SeqNo": 20, "Terminal": 0, "DistrictId": 1, "Latitude": 22.673447, "Longitude": 120.321497, "IVRNo": 1713, "EXTVoiceNo": 5004, "traveltime": 0, "holidayTraveltime": 0}, {"Id": "5005", "pgp": 0, "GoBack": 2, "SID": 3570, "NameZh": "Kaohsiung Veterans General Hospital", "RouteId": 28, "SeqNo": 21, "Terminal": 0, "DistrictId": 1, "Latitude": 22.677494, "Longitude": 120.32208, "IVRNo": 5005, "EXTVoiceNo": 5005, "traveltime": 0, "holidayTraveltime": 0}, {"Id": "5762", "pgp": 0, "GoBack": 2, "SID": 4287, "NameZh": "Kaohsiung Municipal Hsinchuang Senior High School (Minzu 1st Rd.)", "RouteId": 28, "SeqNo": 22, "Terminal": 0, "DistrictId": 1, "Latitude": 22.68061, "Longitude": 120.31958, "IVRNo": 5708, "EXTVoiceNo": 5762, "traveltime": 0, "holidayTraveltime": 0}, {"Id": "7067", "pgp": 0, "GoBack": 2, "SID": 4647, "NameZh": "Fubin Community", "RouteId": 28, "SeqNo": 23, "Terminal": 0, "DistrictId": 1, "Latitude": 22.68645, "Longitude": 120.32063, "IVRNo": 7025, "EXTVoiceNo": 7067, "traveltime": 0, "holidayTraveltime": 0}, {"Id": "7024", "pgp": 0, "GoBack": 2, "SID": 4648, "NameZh": "Gaonan New Village", "RouteId": 28, "SeqNo": 24, "Terminal": 0, "DistrictId": 1, "Latitude": 22.69218, "Longitude": 120.32175, "IVRNo": 476, "EXTVoiceNo": 7024, "traveltime": 0, "holidayTraveltime": 0}, {"Id": "0288", "pgp": 0, "GoBack": 2, "SID": 4649, "NameZh": "Taiwan Times", "RouteId": 28, "SeqNo": 25, "Terminal": 0, "DistrictId": 1, "Latitude": 22.698, "Longitude": 120.3229, "IVRNo": 7023, "EXTVoiceNo": 20288, "traveltime": 0, "holidayTraveltime": 0}, {"Id": "4758", "pgp": 0, "GoBack": 2, "SID": 4650, "NameZh": "Banping Mountain (Gaonan Rd.)", "RouteId": 28, "SeqNo": 26, "Terminal": 0, "DistrictId": 1, "Latitude": 22.70107, "Longitude": 120.32346, "IVRNo": 4730, "EXTVoiceNo": 4758, "traveltime": 0, "holidayTraveltime": 0}, {"Id": "0243", "pgp": 0, "GoBack": 2, "SID": 4652, "NameZh": "Shueiguan Rd. Intersection (Gaonan Highway)", "RouteId": 28, "SeqNo": 27, "Terminal": 0, "DistrictId": 1, "Latitude": 22.704566, "Longitude": 120.324041, "IVRNo": 7932, "EXTVoiceNo": 20243, "traveltime": 0, "holidayTraveltime": 0}, {"Id": "0163", "pgp": 0, "GoBack": 2, "SID": 4653, "NameZh": "Jhonghua Community", "RouteId": 28, "SeqNo": 28, "Terminal": 0, "DistrictId": 1, "Latitude": 22.708933, "Longitude": 120.324894, "IVRNo": 7020, "EXTVoiceNo": 20163, "traveltime": 0, "holidayTraveltime": 0}, {"Id": "4654", "pgp": 0, "GoBack": 2, "SID": 4654, "NameZh": "Rentian Village", "RouteId": 28, "SeqNo": 29, "Terminal": 0, "DistrictId": 1, "Latitude": 22.712619, "Longitude": 120.325608, "IVRNo": 4654, "EXTVoiceNo": 4654, "traveltime": 0, "holidayTraveltime": 0}, {"Id": "7074", "pgp": 0, "GoBack": 2, "SID": 4655, "NameZh": "Metal Center", "RouteId": 28, "SeqNo": 30, "Terminal": 0, "DistrictId": 1, "Latitude": 22.71431, "Longitude": 120.32598, "IVRNo": 7074, "EXTVoiceNo": 7074, "traveltime": 0, "holidayTraveltime": 0}, {"Id": "7075", "pgp": 0, "GoBack": 2, "SID": 4656, "NameZh": "Nanzih Land Bridge", "RouteId": 28, "SeqNo": 31, "Terminal": 0, "DistrictId": 1, "Latitude": 22.724897, "Longitude": 120.323908, "IVRNo": 7017, "EXTVoiceNo": 7075, "traveltime": 0, "holidayTraveltime": 0}, {"Id": "7076", "pgp": 0, "GoBack": 2, "SID": 4657, "NameZh": "Nanzih Railway Station", "RouteId": 28, "SeqNo": 32, "Terminal": 0, "DistrictId": 1, "Latitude": 22.727638, "Longitude": 120.325552, "IVRNo": 7016, "EXTVoiceNo": 7076, "traveltime": 0, "holidayTraveltime": 0}, {"Id": "7077", "pgp": 0, "GoBack": 2, "SID": 4666, "NameZh": "Cihyun Temple (Nanzih District Office)", "RouteId": 28, "SeqNo": 33, "Terminal": 0, "DistrictId": 1, "Latitude": 22.73014, "Longitude": 120.32726, "IVRNo": 7015, "EXTVoiceNo": 7077, "traveltime": 0, "holidayTraveltime": 0}, {"Id": "1132", "pgp": 0, "GoBack": 2, "SID": 4708, "NameZh": "Nanzih Police Station (Nanzih Rd.)", "RouteId": 28, "SeqNo": 34, "Terminal": 0, "DistrictId": 1, "Latitude": 22.730754, "Longitude": 120.328456, "IVRNo": 1132, "EXTVoiceNo": 1132, "traveltime": 0, "holidayTraveltime": 0}, {"Id": "9995", "pgp": 0, "GoBack": 2, "SID": 4669, "NameZh": "Nanzih Farmers` Association", "RouteId": 28, "SeqNo": 35, "Terminal": 0, "DistrictId": 1, "Latitude": 22.728444, "Longitude": 120.329555, "IVRNo": 18165, "EXTVoiceNo": 19995, "traveltime": 0, "holidayTraveltime": 0}, {"Id": "8043", "pgp": 0, "GoBack": 2, "SID": 5444, "NameZh": "Jiannan Rd. Intersection", "RouteId": 28, "SeqNo": 36, "Terminal": 0, "DistrictId": 1, "Latitude": 22.727211, "Longitude": 120.329304, "IVRNo": 7063, "EXTVoiceNo": 8043, "traveltime": 0, "holidayTraveltime": 0}, {"Id": "7011", "pgp": 0, "GoBack": 2, "SID": 4675, "NameZh": "Nanyang Elementary School", "RouteId": 28, "SeqNo": 37, "Terminal": 0, "DistrictId": 1, "Latitude": 22.725028, "Longitude": 120.329486, "IVRNo": 7011, "EXTVoiceNo": 7011, "traveltime": 0, "holidayTraveltime": 0}, {"Id": "8752", "pgp": 0, "GoBack": 2, "SID": 11311, "NameZh": "Jianren Hospital", "RouteId": 28, "SeqNo": 38, "Terminal": 0, "DistrictId": 1, "Latitude": 22.72378, "Longitude": 120.32938, "IVRNo": 8752, "EXTVoiceNo": 8752, "traveltime": 0, "holidayTraveltime": 0}, {"Id": "7010", "pgp": 0, "GoBack": 2, "SID": 4680, "NameZh": "Houjin Junior High School (MRT Houjin Station)", "RouteId": 28, "SeqNo": 39, "Terminal": 0, "DistrictId": 1, "Latitude": 22.722133, "Longitude": 120.315466, "IVRNo": 7010, "EXTVoiceNo": 7010, "traveltime": 0, "holidayTraveltime": 0}, {"Id": "7009", "pgp": 0, "GoBack": 2, "SID": 4685, "NameZh": "Houjin Elementary School (MRT Houjin Station)", "RouteId": 28, "SeqNo": 40, "Terminal": 0, "DistrictId": 1, "Latitude": 22.721158, "Longitude": 120.313597, "IVRNo": 7083, "EXTVoiceNo": 7009, "traveltime": 0, "holidayTraveltime": 0}, {"Id": "4748", "pgp": 0, "GoBack": 2, "SID": 3337, "NameZh": "Jiachang Rd.", "RouteId": 28, "SeqNo": 41, "Terminal": 0, "DistrictId": 1, "Latitude": 22.720077, "Longitude": 120.310261, "IVRNo": 4740, "EXTVoiceNo": 4748, "traveltime": 0, "holidayTraveltime": 0}, {"Id": "4747", "pgp": 0, "GoBack": 2, "SID": 3338, "NameZh": "Entrance of East Gate", "RouteId": 28, "SeqNo": 42, "Terminal": 0, "DistrictId": 1, "Latitude": 22.719525, "Longitude": 120.308783, "IVRNo": 42, "EXTVoiceNo": 4747, "traveltime": 0, "holidayTraveltime": 0}, {"Id": "7084", "pgp": 0, "GoBack": 2, "SID": 4689, "NameZh": "MRT Nanzih Export Processing Zone", "RouteId": 28, "SeqNo": 43, "Terminal": 0, "DistrictId": 1, "Latitude": 22.718541, "Longitude": 120.306562, "IVRNo": 7008, "EXTVoiceNo": 7084, "traveltime": 0, "holidayTraveltime": 0}, {"Id": "4746", "pgp": 0, "GoBack": 2, "SID": 3346, "NameZh": "Nanzih Export Processing Zone", "RouteId": 28, "SeqNo": 44, "Terminal": 0, "DistrictId": 1, "Latitude": 22.717387, "Longitude": 120.303127, "IVRNo": 4742, "EXTVoiceNo": 4746, "traveltime": 0, "holidayTraveltime": 0}, {"Id": "7005", "pgp": 0, "GoBack": 2, "SID": 4695, "NameZh": "Waihuan W. Rd.", "RouteId": 28, "SeqNo": 45, "Terminal": 0, "DistrictId": 1, "Latitude": 22.721508, "Longitude": 120.298791, "IVRNo": 7005, "EXTVoiceNo": 7005, "traveltime": 0, "holidayTraveltime": 0}, {"Id": "7088", "pgp": 0, "GoBack": 2, "SID": 4696, "NameZh": "Shoumin Rd.", "RouteId": 28, "SeqNo": 46, "Terminal": 0, "DistrictId": 1, "Latitude": 22.721691, "Longitude": 120.296536, "IVRNo": 7004, "EXTVoiceNo": 7088, "traveltime": 0, "holidayTraveltime": 0}, {"Id": "7089", "pgp": 0, "GoBack": 2, "SID": 4703, "NameZh": "Jiachang Elementary School", "RouteId": 28, "SeqNo": 47, "Terminal": 0, "DistrictId": 1, "Latitude": 22.720369, "Longitude": 120.296213, "IVRNo": 7003, "EXTVoiceNo": 7089, "traveltime": 0, "holidayTraveltime": 0}, {"Id": "7001", "pgp": 0, "GoBack": 2, "SID": 4546, "NameZh": "Jiachang Station", "RouteId": 28, "SeqNo": 48, "Terminal": 1, "DistrictId": 1, "Latitude": 22.719042, "Longitude": 120.298619, "IVRNo": 7000, "EXTVoiceNo": 7001, "traveltime": 0, "holidayTraveltime": 0}], "zh": [{"Id": "7001", "pgp": 0, "GoBack": 1, "SID": 4554, "NameZh": "\u52a0\u660c\u7ad9", "RouteId": 28, "SeqNo": 1, "Terminal": 0, "DistrictId": 1, "Latitude": 22.719128, "Longitude": 120.298488, "IVRNo": 7000, "EXTVoiceNo": 7001, "traveltime": 0, "holidayTraveltime": 0}, {"Id": "7089", "pgp": 0, "GoBack": 1, "SID": 4562, "NameZh": "\u52a0\u660c\u570b\u5c0f", "RouteId": 28, "SeqNo": 2, "Terminal": 0, "DistrictId": 1, "Latitude": 22.72025, "Longitude": 120.296386, "IVRNo": 7003, "EXTVoiceNo": 7089, "traveltime": 0, "holidayTraveltime": 0}, {"Id": "7088", "pgp": 0, "GoBack": 1, "SID": 4568, "NameZh": "\u58fd\u6c11\u8def", "RouteId": 28, "SeqNo": 3, "Terminal": 0, "DistrictId": 1, "Latitude": 22.721563, "Longitude": 120.296522, "IVRNo": 7004, "EXTVoiceNo": 7088, "traveltime": 0, "holidayTraveltime": 0}, {"Id": "7005", "pgp": 0, "GoBack": 1, "SID": 4570, "NameZh": "\u5916\u74b0\u897f\u8def", "RouteId": 28, "SeqNo": 4, "Terminal": 0, "DistrictId": 1, "Latitude": 22.721461, "Longitude": 120.298583, "IVRNo": 7005, "EXTVoiceNo": 7005, "traveltime": 0, "holidayTraveltime": 0}, {"Id": "4746", "pgp": 0, "GoBack": 1, "SID": 3350, "NameZh": "\u6960\u6893\u52a0\u5de5\u5340", "RouteId": 28, "SeqNo": 5, "Terminal": 0, "DistrictId": 1, "Latitude": 22.716825, "Longitude": 120.302343, "IVRNo": 4742, "EXTVoiceNo": 4746, "traveltime": 0, "holidayTraveltime": 0}, {"Id": "7084", "pgp": 0, "GoBack": 1, "SID": 4574, "NameZh": "\u6377\u904b\u6960\u6893\u52a0\u5de5\u5340\u7ad9", "RouteId": 28, "SeqNo": 6, "Terminal": 0, "DistrictId": 1, "Latitude": 22.718318, "Longitude": 120.30647, "IVRNo": 7008, "EXTVoiceNo": 7084, "traveltime": 0, "holidayTraveltime": 0}, {"Id": "4747", "pgp": 0, "GoBack": 1, "SID": 3354, "NameZh": "\u6771\u9580\u5165\u53e3", "RouteId": 28, "SeqNo": 7, "Terminal": 0, "DistrictId": 1, "Latitude": 22.719129, "Longitude": 120.308497, "IVRNo": 42, "EXTVoiceNo": 4747, "traveltime": 0, "holidayTraveltime": 0}, {"Id": "4748", "pgp": 0, "GoBack": 1, "SID": 3360, "NameZh": "\u52a0\u660c\u8def", "RouteId": 28, "SeqNo": 8, "Terminal": 0, "DistrictId": 1, "Latitude": 22.719847, "Longitude": 120.31035, "IVRNo": 4740, "EXTVoiceNo": 4748, "traveltime": 0, "holidayTraveltime": 0}, {"Id": "7009", "pgp": 0, "GoBack": 1, "SID": 4577, "NameZh": "\u5f8c\u52c1\u570b\u5c0f(\u6377\u904b\u5f8c\u52c1\u7ad9)", "RouteId": 28, "SeqNo": 9, "Terminal": 0, "DistrictId": 1, "Latitude": 22.721158, "Longitude": 120.313597, "IVRNo": 7083, "EXTVoiceNo": 7009, "traveltime": 0, "holidayTraveltime": 0}, {"Id": "7010", "pgp": 0, "GoBack": 1, "SID": 4583, "NameZh": "\u5f8c\u52c1\u570b\u4e2d(\u6377\u904b\u5f8c\u52c1\u7ad9)", "RouteId": 28, "SeqNo": 10, "Terminal": 0, "DistrictId": 1, "Latitude": 22.72194, "Longitude": 120.315696, "IVRNo": 7010, "EXTVoiceNo": 7010, "traveltime": 0, "holidayTraveltime": 0}, {"Id": "7011", "pgp": 0, "GoBack": 1, "SID": 4588, "NameZh": "\u6960\u967d\u570b\u5c0f", "RouteId": 28, "SeqNo": 11, "Terminal": 0, "DistrictId": 1, "Latitude": 22.724996, "Longitude": 120.329837, "IVRNo": 7011, "EXTVoiceNo": 7011, "traveltime": 0, "holidayTraveltime": 0}, {"Id": "8043", "pgp": 0, "GoBack": 1, "SID": 4646, "NameZh": "\u5efa\u6960\u8def\u53e3", "RouteId": 28, "SeqNo": 12, "Terminal": 0, "DistrictId": 1, "Latitude": 22.727225, "Longitude": 120.32938, "IVRNo": 7063, "EXTVoiceNo": 8043, "traveltime": 0, "holidayTraveltime": 0}, {"Id": "9995", "pgp": 0, "GoBack": 1, "SID": 4597, "NameZh": "\u6960\u6893\u8fb2\u6703", "RouteId": 28, "SeqNo": 13, "Terminal": 0, "DistrictId": 1, "Latitude": 22.728641, "Longitude": 120.329513, "IVRNo": 18165, "EXTVoiceNo": 19995, "traveltime": 0, "holidayTraveltime": 0}, {"Id": "1132", "pgp": 0, "GoBack": 1, "SID": 4706, "NameZh": "\u6960\u6893\u6d3e\u51fa\u6240(\u6960\u6893\u8def)", "RouteId": 28, "SeqNo": 14, "Terminal": 0, "DistrictId": 1, "Latitude": 22.730947, "Longitude": 120.328628, "IVRNo": 1132, "EXTVoiceNo": 1132, "traveltime": 0, "holidayTraveltime": 0}, {"Id": "7077", "pgp": 0, "GoBack": 1, "SID": 4603, "NameZh": "\u6148\u96f2\u5bfa(\u6960\u6893\u5340\u516c\u6240)", "RouteId": 28, "SeqNo": 15, "Terminal": 0, "DistrictId": 1, "Latitude": 22.730236, "Longitude": 120.327036, "IVRNo": 7015, "EXTVoiceNo": 7077, "traveltime": 0, "holidayTraveltime": 0}, {"Id": "7076", "pgp": 0, "GoBack": 1, "SID": 4604, "NameZh": "\u6960\u6893\u706b\u8eca\u7ad9", "RouteId": 28, "SeqNo": 16, "Terminal": 0, "DistrictId": 1, "Latitude": 22.727566, "Longitude": 120.325352, "IVRNo": 7016, "EXTVoiceNo": 7076, "traveltime": 0, "holidayTraveltime": 0}, {"Id": "7075", "pgp": 0, "GoBack": 1, "SID": 4607, "NameZh": "\u6960\u6893\u9678\u6a4b", "RouteId": 28, "SeqNo": 17, "Terminal": 0, "DistrictId": 1, "Latitude": 22.72485, "Longitude": 120.323766, "IVRNo": 7017, "EXTVoiceNo": 7075, "traveltime": 0, "holidayTraveltime": 0}, {"Id": "7074", "pgp": 0, "GoBack": 1, "SID": 4608, "NameZh": "\u91d1\u5c6c\u4e2d\u5fc3", "RouteId": 28, "SeqNo": 18, "Terminal": 0, "DistrictId": 1, "Latitude": 22.71453, "Longitude": 120.32583, "IVRNo": 7074, "EXTVoiceNo": 7074, "traveltime": 0, "holidayTraveltime": 0}, {"Id": "4654", "pgp": 0, "GoBack": 1, "SID": 4609, "NameZh": "\u7a14\u7530\u91cc", "RouteId": 28, "SeqNo": 19, "Terminal": 0, "DistrictId": 1, "Latitude": 22.712516, "Longitude": 120.325383, "IVRNo": 4654, "EXTVoiceNo": 4654, "traveltime": 0, "holidayTraveltime": 0}, {"Id": "0163", "pgp": 0, "GoBack": 1, "SID": 4610, "NameZh": "\u4e2d\u83ef\u793e\u5340", "RouteId": 28, "SeqNo": 20, "Terminal": 0, "DistrictId": 1, "Latitude": 22.708947, "Longitude": 120.324694, "IVRNo": 7020, "EXTVoiceNo": 20163, "traveltime": 0, "holidayTraveltime": 0}, {"Id": "0243", "pgp": 0, "GoBack": 1, "SID": 4611, "NameZh": "\u6c34\u7ba1\u8def\u53e3(\u9ad8\u6960\u516c\u8def)", "RouteId": 28, "SeqNo": 21, "Terminal": 0, "DistrictId": 1, "Latitude": 22.70426, "Longitude": 120.32397, "IVRNo": 7932, "EXTVoiceNo": 20243, "traveltime": 0, "holidayTraveltime": 0}, {"Id": "4758", "pgp": 0, "GoBack": 1, "SID": 4612, "NameZh": "\u534a\u5c4f\u5c71(\u9ad8\u6960\u8def)", "RouteId": 28, "SeqNo": 22, "Terminal": 0, "DistrictId": 1, "Latitude": 22.70106, "Longitude": 120.32333, "IVRNo": 4730, "EXTVoiceNo": 4758, "traveltime": 0, "holidayTraveltime": 0}, {"Id": "0288", "pgp": 0, "GoBack": 1, "SID": 4614, "NameZh": "\u53f0\u7063\u6642\u5831", "RouteId": 28, "SeqNo": 23, "Terminal": 0, "DistrictId": 1, "Latitude": 22.69807, "Longitude": 120.32273, "IVRNo": 7023, "EXTVoiceNo": 20288, "traveltime": 0, "holidayTraveltime": 0}, {"Id": "7024", "pgp": 0, "GoBack": 1, "SID": 4615, "NameZh": "\u9ad8\u6960\u65b0\u6751", "RouteId": 28, "SeqNo": 24, "Terminal": 0, "DistrictId": 1, "Latitude": 22.69203, "Longitude": 120.32156, "IVRNo": 476, "EXTVoiceNo": 7024, "traveltime": 0, "holidayTraveltime": 0}, {"Id": "7067", "pgp": 0, "GoBack": 1, "SID": 4616, "NameZh": "\u798f\u6ab3\u793e\u5340", "RouteId": 28, "SeqNo": 25, "Terminal": 0, "DistrictId": 1, "Latitude": 22.68655, "Longitude": 120.320366, "IVRNo": 7025, "EXTVoiceNo": 7067, "traveltime": 0, "holidayTraveltime": 0}, {"Id": "5762", "pgp": 0, "GoBack": 1, "SID": 4335, "NameZh": "\u65b0\u838a\u9ad8\u4e2d(\u6c11\u65cf\u4e00\u8def)", "RouteId": 28, "SeqNo": 26, "Terminal": 0, "DistrictId": 1, "Latitude": 22.68083, "Longitude": 120.31938, "IVRNo": 5708, "EXTVoiceNo": 5762, "traveltime": 0, "holidayTraveltime": 0}, {"Id": "5005", "pgp": 0, "GoBack": 1, "SID": 3680, "NameZh": "\u69ae\u7e3d", "RouteId": 28, "SeqNo": 27, "Terminal": 0, "DistrictId": 1, "Latitude": 22.677169, "Longitude": 120.321975, "IVRNo": 5005, "EXTVoiceNo": 5005, "traveltime": 0, "holidayTraveltime": 0}, {"Id": "5004", "pgp": 0, "GoBack": 1, "SID": 3688, "NameZh": "\u7345\u6e56\u570b\u5c0f(\u9f0e\u4e2d\u8def)", "RouteId": 28, "SeqNo": 28, "Terminal": 0, "DistrictId": 1, "Latitude": 22.674085, "Longitude": 120.321665, "IVRNo": 1713, "EXTVoiceNo": 5004, "traveltime": 0, "holidayTraveltime": 0}, {"Id": "1097", "pgp": 0, "GoBack": 1, "SID": 3696, "NameZh": "\u6587\u85fb\u5916\u8a9e\u5927\u5b78(\u9f0e\u4e2d\u8def)", "RouteId": 28, "SeqNo": 29, "Terminal": 0, "DistrictId": 1, "Latitude": 22.670927, "Longitude": 120.320688, "IVRNo": 1097, "EXTVoiceNo": 1097, "traveltime": 0, "holidayTraveltime": 0}, {"Id": "1093", "pgp": 0, "GoBack": 1, "SID": 4709, "NameZh": "\u9f0e\u4e2d\u8def(\u5929\u7965\u4e00\u8def\u53e3)", "RouteId": 28, "SeqNo": 30, "Terminal": 0, "DistrictId": 1, "Latitude": 22.668296, "Longitude": 120.31995, "IVRNo": 1093, "EXTVoiceNo": 1093, "traveltime": 0, "holidayTraveltime": 0}, {"Id": "7062", "pgp": 0, "GoBack": 1, "SID": 4626, "NameZh": "\u5929\u7965\u4e00\u8def", "RouteId": 28, "SeqNo": 31, "Terminal": 0, "DistrictId": 1, "Latitude": 22.667718, "Longitude": 120.319155, "IVRNo": 7030, "EXTVoiceNo": 7062, "traveltime": 0, "holidayTraveltime": 0}, {"Id": "7032", "pgp": 0, "GoBack": 1, "SID": 4629, "NameZh": "\u6c11\u65cf\u88d5\u8aa0\u8def\u53e3", "RouteId": 28, "SeqNo": 32, "Terminal": 0, "DistrictId": 1, "Latitude": 22.664685, "Longitude": 120.316171, "IVRNo": 2214, "EXTVoiceNo": 7032, "traveltime": 0, "holidayTraveltime": 0}, {"Id": "5213", "pgp": 0, "GoBack": 1, "SID": 3888, "NameZh": "\u6c11\u65cf\u8def(\u660e\u8aa0\u8def\u53e3)", "RouteId": 28, "SeqNo": 33, "Terminal": 0, "DistrictId": 1, "Latitude": 22.661627, "Longitude": 120.315775, "IVRNo": 43, "EXTVoiceNo": 5213, "traveltime": 0, "holidayTraveltime": 0}, {"Id": "1164", "pgp": 0, "GoBack": 1, "SID": 3891, "NameZh": "\u6c11\u65cf\u5927\u9806\u8def\u53e3", "RouteId": 28, "SeqNo": 34, "Terminal": 0, "DistrictId": 1, "Latitude": 22.657775, "Longitude": 120.315416, "IVRNo": 4030, "EXTVoiceNo": 21164, "traveltime": 0, "holidayTraveltime": 0}, {"Id": "5215", "pgp": 0, "GoBack": 1, "SID": 3894, "NameZh": "\u9686\u5cf0\u5bfa", "RouteId": 28, "SeqNo": 35, "Terminal": 0, "DistrictId": 1, "Latitude": 22.652769, "Longitude": 120.315011, "IVRNo": 5215, "EXTVoiceNo": 5215, "traveltime": 0, "holidayTraveltime": 0}, {"Id": "3447", "pgp": 0, "GoBack": 1, "SID": 3896, "NameZh": "\u7063\u4ed4\u5167", "RouteId": 28, "SeqNo": 36, "Terminal": 0, "DistrictId": 1, "Latitude": 22.648755, "Longitude": 120.314755, "IVRNo": 5216, "EXTVoiceNo": 13447, "traveltime": 0, "holidayTraveltime": 0}, {"Id": "7377", "pgp": 0, "GoBack": 1, "SID": 1477, "NameZh": "\u679c\u83dc\u516c\u53f8", "RouteId": 28, "SeqNo": 37, "Terminal": 0, "DistrictId": 1, "Latitude": 22.645005, "Longitude": 120.314188, "IVRNo": 232, "EXTVoiceNo": 7377, "traveltime": 0, "holidayTraveltime": 0}, {"Id": "0233", "pgp": 0, "GoBack": 1, "SID": 1499, "NameZh": "\u611b\u570b\u570b\u5c0f", "RouteId": 28, "SeqNo": 38, "Terminal": 0, "DistrictId": 1, "Latitude": 22.644764, "Longitude": 120.313119, "IVRNo": 233, "EXTVoiceNo": 233, "traveltime": 0, "holidayTraveltime": 0}, {"Id": "0234", "pgp": 0, "GoBack": 1, "SID": 14317, "NameZh": "\u9ad8\u91ab(\u5341\u5168\u8def)", "RouteId": 28, "SeqNo": 39, "Terminal": 0, "DistrictId": 1, "Latitude": 22.645033, "Longitude": 120.309415, "IVRNo": 234, "EXTVoiceNo": 234, "traveltime": 0, "holidayTraveltime": 0}, {"Id": "0235", "pgp": 0, "GoBack": 1, "SID": 1556, "NameZh": "\u4e09\u6c11\u570b\u4e2d", "RouteId": 28, "SeqNo": 40, "Terminal": 0, "DistrictId": 1, "Latitude": 22.64525, "Longitude": 120.30685, "IVRNo": 235, "EXTVoiceNo": 235, "traveltime": 0, "holidayTraveltime": 0}, {"Id": "2839", "pgp": 0, "GoBack": 1, "SID": 1560, "NameZh": "\u4e09\u6c11\u516c\u5712(\u535a\u611b\u8def\u53e3)", "RouteId": 28, "SeqNo": 41, "Terminal": 0, "DistrictId": 1, "Latitude": 22.645517, "Longitude": 120.303533, "IVRNo": 236, "EXTVoiceNo": 2839, "traveltime": 0, "holidayTraveltime": 0}, {"Id": "0237", "pgp": 0, "GoBack": 1, "SID": 1575, "NameZh": "\u5929\u6d25\u8857\u53e3", "RouteId": 28, "SeqNo": 42, "Terminal": 0, "DistrictId": 1, "Latitude": 22.64565, "Longitude": 120.301402, "IVRNo": 249, "EXTVoiceNo": 237, "traveltime": 0, "holidayTraveltime": 0}, {"Id": "0242", "pgp": 0, "GoBack": 1, "SID": 1637, "NameZh": "\u5341\u5168\u570b\u5c0f", "RouteId": 28, "SeqNo": 43, "Terminal": 0, "DistrictId": 1, "Latitude": 22.645872, "Longitude": 120.298211, "IVRNo": 242, "EXTVoiceNo": 242, "traveltime": 0, "holidayTraveltime": 0}, {"Id": "9993", "pgp": 0, "GoBack": 1, "SID": 1589, "NameZh": "\u9ad8\u5ba2\u81ea\u7acb\u7ad9", "RouteId": 28, "SeqNo": 44, "Terminal": 0, "DistrictId": 1, "Latitude": 22.644853, "Longitude": 120.296387, "IVRNo": 19993, "EXTVoiceNo": 19993, "traveltime": 0, "holidayTraveltime": 0}, {"Id": "0239", "pgp": 0, "GoBack": 1, "SID": 1594, "NameZh": "\u907c\u5be7\u8857\u53e3(\u81ea\u7acb\u8def)", "RouteId": 28, "SeqNo": 45, "Terminal": 0, "DistrictId": 1, "Latitude": 22.642169, "Longitude": 120.2961, "IVRNo": 239, "EXTVoiceNo": 239, "traveltime": 0, "holidayTraveltime": 0}, {"Id": "0240", "pgp": 0, "GoBack": 1, "SID": 1606, "NameZh": "\u9ad8\u96c4\u4e2d\u5b78", "RouteId": 28, "SeqNo": 46, "Terminal": 0, "DistrictId": 1, "Latitude": 22.637866, "Longitude": 120.297322, "IVRNo": 240, "EXTVoiceNo": 240, "traveltime": 0, "holidayTraveltime": 0}, {"Id": "0248", "pgp": 0, "GoBack": 1, "SID": 7925, "NameZh": "\u9ad8\u96c4\u706b\u8eca\u7ad9(\u540c\u611b\u8857\u53e3)", "RouteId": 28, "SeqNo": 47, "Terminal": 0, "DistrictId": 1, "Latitude": 22.637845, "Longitude": 120.301119, "IVRNo": 241, "EXTVoiceNo": 20248, "traveltime": 0, "holidayTraveltime": 0}, {"Id": "0248", "pgp": 0, "GoBack": 2, "SID": 2893, "NameZh": "\u9ad8\u96c4\u706b\u8eca\u7ad9(\u540c\u611b\u8857\u53e3)", "RouteId": 28, "SeqNo": 1, "Terminal": 0, "DistrictId": 1, "Latitude": 22.637845, "Longitude": 120.301119, "IVRNo": 241, "EXTVoiceNo": 20248, "traveltime": 0, "holidayTraveltime": 0}, {"Id": "0240", "pgp": 0, "GoBack": 2, "SID": 2903, "NameZh": "\u9ad8\u96c4\u4e2d\u5b78", "RouteId": 28, "SeqNo": 2, "Terminal": 0, "DistrictId": 1, "Latitude": 22.63798, "Longitude": 120.297336, "IVRNo": 240, "EXTVoiceNo": 240, "traveltime": 0, "holidayTraveltime": 0}, {"Id": "0239", "pgp": 0, "GoBack": 2, "SID": 1669, "NameZh": "\u907c\u5be7\u8857\u53e3(\u81ea\u7acb\u8def)", "RouteId": 28, "SeqNo": 3, "Terminal": 0, "DistrictId": 1, "Latitude": 22.642119, "Longitude": 120.296202, "IVRNo": 239, "EXTVoiceNo": 239, "traveltime": 0, "holidayTraveltime": 0}, {"Id": "9993", "pgp": 0, "GoBack": 2, "SID": 1690, "NameZh": "\u9ad8\u5ba2\u81ea\u7acb\u7ad9", "RouteId": 28, "SeqNo": 4, "Terminal": 0, "DistrictId": 1, "Latitude": 22.6452, "Longitude": 120.296655, "IVRNo": 19993, "EXTVoiceNo": 19993, "traveltime": 0, "holidayTraveltime": 0}, {"Id": "0242", "pgp": 0, "GoBack": 2, "SID": 2065, "NameZh": "\u5341\u5168\u570b\u5c0f", "RouteId": 28, "SeqNo": 5, "Terminal": 0, "DistrictId": 1, "Latitude": 22.645753, "Longitude": 120.298111, "IVRNo": 242, "EXTVoiceNo": 242, "traveltime": 0, "holidayTraveltime": 0}, {"Id": "0237", "pgp": 0, "GoBack": 2, "SID": 1705, "NameZh": "\u5929\u6d25\u8857\u53e3", "RouteId": 28, "SeqNo": 6, "Terminal": 0, "DistrictId": 1, "Latitude": 22.645636, "Longitude": 120.301124, "IVRNo": 249, "EXTVoiceNo": 237, "traveltime": 0, "holidayTraveltime": 0}, {"Id": "2839", "pgp": 0, "GoBack": 2, "SID": 1719, "NameZh": "\u4e09\u6c11\u516c\u5712(\u535a\u611b\u8def\u53e3)", "RouteId": 28, "SeqNo": 7, "Terminal": 0, "DistrictId": 1, "Latitude": 22.645369, "Longitude": 120.303658, "IVRNo": 236, "EXTVoiceNo": 2839, "traveltime": 0, "holidayTraveltime": 0}, {"Id": "0235", "pgp": 0, "GoBack": 2, "SID": 1729, "NameZh": "\u4e09\u6c11\u570b\u4e2d", "RouteId": 28, "SeqNo": 8, "Terminal": 0, "DistrictId": 1, "Latitude": 22.645219, "Longitude": 120.305816, "IVRNo": 235, "EXTVoiceNo": 235, "traveltime": 0, "holidayTraveltime": 0}, {"Id": "0234", "pgp": 0, "GoBack": 2, "SID": 1736, "NameZh": "\u9ad8\u91ab(\u5341\u5168\u8def)", "RouteId": 28, "SeqNo": 9, "Terminal": 0, "DistrictId": 1, "Latitude": 22.644867, "Longitude": 120.310589, "IVRNo": 234, "EXTVoiceNo": 234, "traveltime": 0, "holidayTraveltime": 0}, {"Id": "0233", "pgp": 0, "GoBack": 2, "SID": 1745, "NameZh": "\u611b\u570b\u570b\u5c0f", "RouteId": 28, "SeqNo": 10, "Terminal": 0, "DistrictId": 1, "Latitude": 22.64468, "Longitude": 120.313094, "IVRNo": 233, "EXTVoiceNo": 233, "traveltime": 0, "holidayTraveltime": 0}, {"Id": "7377", "pgp": 0, "GoBack": 2, "SID": 1769, "NameZh": "\u679c\u83dc\u516c\u53f8", "RouteId": 28, "SeqNo": 11, "Terminal": 0, "DistrictId": 1, "Latitude": 22.645033, "Longitude": 120.31448, "IVRNo": 232, "EXTVoiceNo": 7377, "traveltime": 0, "holidayTraveltime": 0}, {"Id": "3447", "pgp": 0, "GoBack": 2, "SID": 3918, "NameZh": "\u7063\u4ed4\u5167", "RouteId": 28, "SeqNo": 12, "Terminal": 0, "DistrictId": 1, "Latitude": 22.648958, "Longitude": 120.3149, "IVRNo": 5216, "EXTVoiceNo": 13447, "traveltime": 0, "holidayTraveltime": 0}, {"Id": "5215", "pgp": 0, "GoBack": 2, "SID": 3919, "NameZh": "\u9686\u5cf0\u5bfa", "RouteId": 28, "SeqNo": 13, "Terminal": 0, "DistrictId": 1, "Latitude": 22.652623, "Longitude": 120.315175, "IVRNo": 5215, "EXTVoiceNo": 5215, "traveltime": 0, "holidayTraveltime": 0}, {"Id": "1164", "pgp": 0, "GoBack": 2, "SID": 3924, "NameZh": "\u6c11\u65cf\u5927\u9806\u8def\u53e3", "RouteId": 28, "SeqNo": 14, "Terminal": 0, "DistrictId": 1, "Latitude": 22.656722, "Longitude": 120.315472, "IVRNo": 4030, "EXTVoiceNo": 21164, "traveltime": 0, "holidayTraveltime": 0}, {"Id": "5213", "pgp": 0, "GoBack": 2, "SID": 3925, "NameZh": "\u6c11\u65cf\u8def(\u660e\u8aa0\u8def\u53e3)", "RouteId": 28, "SeqNo": 15, "Terminal": 0, "DistrictId": 1, "Latitude": 22.661294, "Longitude": 120.316005, "IVRNo": 43, "EXTVoiceNo": 5213, "traveltime": 0, "holidayTraveltime": 0}, {"Id": "7032", "pgp": 0, "GoBack": 2, "SID": 8245, "NameZh": "\u6c11\u65cf\u88d5\u8aa0\u8def\u53e3", "RouteId": 28, "SeqNo": 16, "Terminal": 0, "DistrictId": 1, "Latitude": 22.664938, "Longitude": 120.316375, "IVRNo": 2214, "EXTVoiceNo": 7032, "traveltime": 0, "holidayTraveltime": 0}, {"Id": "7062", "pgp": 0, "GoBack": 2, "SID": 4637, "NameZh": "\u5929\u7965\u4e00\u8def", "RouteId": 28, "SeqNo": 17, "Terminal": 0, "DistrictId": 1, "Latitude": 22.667723, "Longitude": 120.318646, "IVRNo": 7030, "EXTVoiceNo": 7062, "traveltime": 0, "holidayTraveltime": 0}, {"Id": "1093", "pgp": 0, "GoBack": 2, "SID": 4712, "NameZh": "\u9f0e\u4e2d\u8def(\u5929\u7965\u4e00\u8def\u53e3)", "RouteId": 28, "SeqNo": 18, "Terminal": 0, "DistrictId": 1, "Latitude": 22.668397, "Longitude": 120.320032, "IVRNo": 1093, "EXTVoiceNo": 1093, "traveltime": 0, "holidayTraveltime": 0}, {"Id": "1097", "pgp": 0, "GoBack": 2, "SID": 3560, "NameZh": "\u6587\u85fb\u5916\u8a9e\u5927\u5b78(\u9f0e\u4e2d\u8def)", "RouteId": 28, "SeqNo": 19, "Terminal": 0, "DistrictId": 1, "Latitude": 22.670986, "Longitude": 120.320755, "IVRNo": 1097, "EXTVoiceNo": 1097, "traveltime": 0, "holidayTraveltime": 0}, {"Id": "5004", "pgp": 0, "GoBack": 2, "SID": 3562, "NameZh": "\u7345\u6e56\u570b\u5c0f(\u9f0e\u4e2d\u8def)", "RouteId": 28, "SeqNo": 20, "Terminal": 0, "DistrictId": 1, "Latitude": 22.673447, "Longitude": 120.321497, "IVRNo": 1713, "EXTVoiceNo": 5004, "traveltime": 0, "holidayTraveltime": 0}, {"Id": "5005", "pgp": 0, "GoBack": 2, "SID": 3570, "NameZh": "\u69ae\u7e3d", "RouteId": 28, "SeqNo": 21, "Terminal": 0, "DistrictId": 1, "Latitude": 22.677494, "Longitude": 120.32208, "IVRNo": 5005, "EXTVoiceNo": 5005, "traveltime": 0, "holidayTraveltime": 0}, {"Id": "5762", "pgp": 0, "GoBack": 2, "SID": 4287, "NameZh": "\u65b0\u838a\u9ad8\u4e2d(\u6c11\u65cf\u4e00\u8def)", "RouteId": 28, "SeqNo": 22, "Terminal": 0, "DistrictId": 1, "Latitude": 22.68061, "Longitude": 120.31958, "IVRNo": 5708, "EXTVoiceNo": 5762, "traveltime": 0, "holidayTraveltime": 0}, {"Id": "7067", "pgp": 0, "GoBack": 2, "SID": 4647, "NameZh": "\u798f\u6ab3\u793e\u5340", "RouteId": 28, "SeqNo": 23, "Terminal": 0, "DistrictId": 1, "Latitude": 22.68645, "Longitude": 120.32063, "IVRNo": 7025, "EXTVoiceNo": 7067, "traveltime": 0, "holidayTraveltime": 0}, {"Id": "7024", "pgp": 0, "GoBack": 2, "SID": 4648, "NameZh": "\u9ad8\u6960\u65b0\u6751", "RouteId": 28, "SeqNo": 24, "Terminal": 0, "DistrictId": 1, "Latitude": 22.69218, "Longitude": 120.32175, "IVRNo": 476, "EXTVoiceNo": 7024, "traveltime": 0, "holidayTraveltime": 0}, {"Id": "0288", "pgp": 0, "GoBack": 2, "SID": 4649, "NameZh": "\u53f0\u7063\u6642\u5831", "RouteId": 28, "SeqNo": 25, "Terminal": 0, "DistrictId": 1, "Latitude": 22.698, "Longitude": 120.3229, "IVRNo": 7023, "EXTVoiceNo": 20288, "traveltime": 0, "holidayTraveltime": 0}, {"Id": "4758", "pgp": 0, "GoBack": 2, "SID": 4650, "NameZh": "\u534a\u5c4f\u5c71(\u9ad8\u6960\u8def)", "RouteId": 28, "SeqNo": 26, "Terminal": 0, "DistrictId": 1, "Latitude": 22.70107, "Longitude": 120.32346, "IVRNo": 4730, "EXTVoiceNo": 4758, "traveltime": 0, "holidayTraveltime": 0}, {"Id": "0243", "pgp": 0, "GoBack": 2, "SID": 4652, "NameZh": "\u6c34\u7ba1\u8def\u53e3(\u9ad8\u6960\u516c\u8def)", "RouteId": 28, "SeqNo": 27, "Terminal": 0, "DistrictId": 1, "Latitude": 22.704566, "Longitude": 120.324041, "IVRNo": 7932, "EXTVoiceNo": 20243, "traveltime": 0, "holidayTraveltime": 0}, {"Id": "0163", "pgp": 0, "GoBack": 2, "SID": 4653, "NameZh": "\u4e2d\u83ef\u793e\u5340", "RouteId": 28, "SeqNo": 28, "Terminal": 0, "DistrictId": 1, "Latitude": 22.708933, "Longitude": 120.324894, "IVRNo": 7020, "EXTVoiceNo": 20163, "traveltime": 0, "holidayTraveltime": 0}, {"Id": "4654", "pgp": 0, "GoBack": 2, "SID": 4654, "NameZh": "\u7a14\u7530\u91cc", "RouteId": 28, "SeqNo": 29, "Terminal": 0, "DistrictId": 1, "Latitude": 22.712619, "Longitude": 120.325608, "IVRNo": 4654, "EXTVoiceNo": 4654, "traveltime": 0, "holidayTraveltime": 0}, {"Id": "7074", "pgp": 0, "GoBack": 2, "SID": 4655, "NameZh": "\u91d1\u5c6c\u4e2d\u5fc3", "RouteId": 28, "SeqNo": 30, "Terminal": 0, "DistrictId": 1, "Latitude": 22.71431, "Longitude": 120.32598, "IVRNo": 7074, "EXTVoiceNo": 7074, "traveltime": 0, "holidayTraveltime": 0}, {"Id": "7075", "pgp": 0, "GoBack": 2, "SID": 4656, "NameZh": "\u6960\u6893\u9678\u6a4b", "RouteId": 28, "SeqNo": 31, "Terminal": 0, "DistrictId": 1, "Latitude": 22.724897, "Longitude": 120.323908, "IVRNo": 7017, "EXTVoiceNo": 7075, "traveltime": 0, "holidayTraveltime": 0}, {"Id": "7076", "pgp": 0, "GoBack": 2, "SID": 4657, "NameZh": "\u6960\u6893\u706b\u8eca\u7ad9", "RouteId": 28, "SeqNo": 32, "Terminal": 0, "DistrictId": 1, "Latitude": 22.727638, "Longitude": 120.325552, "IVRNo": 7016, "EXTVoiceNo": 7076, "traveltime": 0, "holidayTraveltime": 0}, {"Id": "7077", "pgp": 0, "GoBack": 2, "SID": 4666, "NameZh": "\u6148\u96f2\u5bfa(\u6960\u6893\u5340\u516c\u6240)", "RouteId": 28, "SeqNo": 33, "Terminal": 0, "DistrictId": 1, "Latitude": 22.73014, "Longitude": 120.32726, "IVRNo": 7015, "EXTVoiceNo": 7077, "traveltime": 0, "holidayTraveltime": 0}, {"Id": "1132", "pgp": 0, "GoBack": 2, "SID": 4708, "NameZh": "\u6960\u6893\u6d3e\u51fa\u6240(\u6960\u6893\u8def)", "RouteId": 28, "SeqNo": 34, "Terminal": 0, "DistrictId": 1, "Latitude": 22.730754, "Longitude": 120.328456, "IVRNo": 1132, "EXTVoiceNo": 1132, "traveltime": 0, "holidayTraveltime": 0}, {"Id": "9995", "pgp": 0, "GoBack": 2, "SID": 4669, "NameZh": "\u6960\u6893\u8fb2\u6703", "RouteId": 28, "SeqNo": 35, "Terminal": 0, "DistrictId": 1, "Latitude": 22.728444, "Longitude": 120.329555, "IVRNo": 18165, "EXTVoiceNo": 19995, "traveltime": 0, "holidayTraveltime": 0}, {"Id": "8043", "pgp": 0, "GoBack": 2, "SID": 5444, "NameZh": "\u5efa\u6960\u8def\u53e3", "RouteId": 28, "SeqNo": 36, "Terminal": 0, "DistrictId": 1, "Latitude": 22.727211, "Longitude": 120.329304, "IVRNo": 7063, "EXTVoiceNo": 8043, "traveltime": 0, "holidayTraveltime": 0}, {"Id": "7011", "pgp": 0, "GoBack": 2, "SID": 4675, "NameZh": "\u6960\u967d\u570b\u5c0f", "RouteId": 28, "SeqNo": 37, "Terminal": 0, "DistrictId": 1, "Latitude": 22.725028, "Longitude": 120.329486, "IVRNo": 7011, "EXTVoiceNo": 7011, "traveltime": 0, "holidayTraveltime": 0}, {"Id": "8752", "pgp": 0, "GoBack": 2, "SID": 11311, "NameZh": "\u5065\u4ec1\u91ab\u9662", "RouteId": 28, "SeqNo": 38, "Terminal": 0, "DistrictId": 1, "Latitude": 22.72378, "Longitude": 120.32938, "IVRNo": 8752, "EXTVoiceNo": 8752, "traveltime": 0, "holidayTraveltime": 0}, {"Id": "7010", "pgp": 0, "GoBack": 2, "SID": 4680, "NameZh": "\u5f8c\u52c1\u570b\u4e2d(\u6377\u904b\u5f8c\u52c1\u7ad9)", "RouteId": 28, "SeqNo": 39, "Terminal": 0, "DistrictId": 1, "Latitude": 22.722133, "Longitude": 120.315466, "IVRNo": 7010, "EXTVoiceNo": 7010, "traveltime": 0, "holidayTraveltime": 0}, {"Id": "7009", "pgp": 0, "GoBack": 2, "SID": 4685, "NameZh": "\u5f8c\u52c1\u570b\u5c0f(\u6377\u904b\u5f8c\u52c1\u7ad9)", "RouteId": 28, "SeqNo": 40, "Terminal": 0, "DistrictId": 1, "Latitude": 22.721158, "Longitude": 120.313597, "IVRNo": 7083, "EXTVoiceNo": 7009, "traveltime": 0, "holidayTraveltime": 0}, {"Id": "4748", "pgp": 0, "GoBack": 2, "SID": 3337, "NameZh": "\u52a0\u660c\u8def", "RouteId": 28, "SeqNo": 41, "Terminal": 0, "DistrictId": 1, "Latitude": 22.720077, "Longitude": 120.310261, "IVRNo": 4740, "EXTVoiceNo": 4748, "traveltime": 0, "holidayTraveltime": 0}, {"Id": "4747", "pgp": 0, "GoBack": 2, "SID": 3338, "NameZh": "\u6771\u9580\u5165\u53e3", "RouteId": 28, "SeqNo": 42, "Terminal": 0, "DistrictId": 1, "Latitude": 22.719525, "Longitude": 120.308783, "IVRNo": 42, "EXTVoiceNo": 4747, "traveltime": 0, "holidayTraveltime": 0}, {"Id": "7084", "pgp": 0, "GoBack": 2, "SID": 4689, "NameZh": "\u6377\u904b\u6960\u6893\u52a0\u5de5\u5340\u7ad9", "RouteId": 28, "SeqNo": 43, "Terminal": 0, "DistrictId": 1, "Latitude": 22.718541, "Longitude": 120.306562, "IVRNo": 7008, "EXTVoiceNo": 7084, "traveltime": 0, "holidayTraveltime": 0}, {"Id": "4746", "pgp": 0, "GoBack": 2, "SID": 3346, "NameZh": "\u6960\u6893\u52a0\u5de5\u5340", "RouteId": 28, "SeqNo": 44, "Terminal": 0, "DistrictId": 1, "Latitude": 22.717387, "Longitude": 120.303127, "IVRNo": 4742, "EXTVoiceNo": 4746, "traveltime": 0, "holidayTraveltime": 0}, {"Id": "7005", "pgp": 0, "GoBack": 2, "SID": 4695, "NameZh": "\u5916\u74b0\u897f\u8def", "RouteId": 28, "SeqNo": 45, "Terminal": 0, "DistrictId": 1, "Latitude": 22.721508, "Longitude": 120.298791, "IVRNo": 7005, "EXTVoiceNo": 7005, "traveltime": 0, "holidayTraveltime": 0}, {"Id": "7088", "pgp": 0, "GoBack": 2, "SID": 4696, "NameZh": "\u58fd\u6c11\u8def", "RouteId": 28, "SeqNo": 46, "Terminal": 0, "DistrictId": 1, "Latitude": 22.721691, "Longitude": 120.296536, "IVRNo": 7004, "EXTVoiceNo": 7088, "traveltime": 0, "holidayTraveltime": 0}, {"Id": "7089", "pgp": 0, "GoBack": 2, "SID": 4703, "NameZh": "\u52a0\u660c\u570b\u5c0f", "RouteId": 28, "SeqNo": 47, "Terminal": 0, "DistrictId": 1, "Latitude": 22.720369, "Longitude": 120.296213, "IVRNo": 7003, "EXTVoiceNo": 7089, "traveltime": 0, "holidayTraveltime": 0}, {"Id": "7001", "pgp": 0, "GoBack": 2, "SID": 4546, "NameZh": "\u52a0\u660c\u7ad9", "RouteId": 28, "SeqNo": 48, "Terminal": 1, "DistrictId": 1, "Latitude": 22.719042, "Longitude": 120.298619, "IVRNo": 7000, "EXTVoiceNo": 7001, "traveltime": 0, "holidayTraveltime": 0}]}