{"en": [{"Id": "1374", "pgp": 0, "GoBack": 1, "SID": 17985, "NameZh": "National Kaohsiung University of Hospitality and Tourism(Campus)", "RouteId": 8200, "SeqNo": 1, "Terminal": 0, "DistrictId": 1, "Latitude": 22.565453, "Longitude": 120.371679, "IVRNo": 1374, "EXTVoiceNo": 1374, "traveltime": 0, "holidayTraveltime": 0}, {"Id": "2608", "pgp": 0, "GoBack": 1, "SID": 1849, "NameZh": "Songyi St. Intersection", "RouteId": 8200, "SeqNo": 2, "Terminal": 0, "DistrictId": 1, "Latitude": 22.564026, "Longitude": 120.373648, "IVRNo": 2608, "EXTVoiceNo": 2608, "traveltime": 0, "holidayTraveltime": 0}, {"Id": "2609", "pgp": 0, "GoBack": 1, "SID": 1850, "NameZh": "Syueming Community", "RouteId": 8200, "SeqNo": 3, "Terminal": 0, "DistrictId": 1, "Latitude": 22.560836, "Longitude": 120.373317, "IVRNo": 2609, "EXTVoiceNo": 2609, "traveltime": 0, "holidayTraveltime": 0}, {"Id": "2611", "pgp": 0, "GoBack": 1, "SID": 5594, "NameZh": "Shanta", "RouteId": 8200, "SeqNo": 4, "Terminal": 0, "DistrictId": 1, "Latitude": 22.565622, "Longitude": 120.367498, "IVRNo": 2611, "EXTVoiceNo": 2611, "traveltime": 0, "holidayTraveltime": 0}, {"Id": "2409", "pgp": 0, "GoBack": 1, "SID": 9712, "NameZh": "Kaohsiung Municipal Siaogang Hospital", "RouteId": 8200, "SeqNo": 5, "Terminal": 0, "DistrictId": 1, "Latitude": 22.566541, "Longitude": 120.363199, "IVRNo": 2409, "EXTVoiceNo": 2409, "traveltime": 0, "holidayTraveltime": 0}, {"Id": "2309", "pgp": 0, "GoBack": 1, "SID": 1511, "NameZh": "Sinfong St. Intersection", "RouteId": 8200, "SeqNo": 6, "Terminal": 0, "DistrictId": 1, "Latitude": 22.567208, "Longitude": 120.360575, "IVRNo": 2309, "EXTVoiceNo": 2309, "traveltime": 0, "holidayTraveltime": 0}, {"Id": "2307", "pgp": 0, "GoBack": 1, "SID": 1519, "NameZh": "Siaogang Senior High School", "RouteId": 8200, "SeqNo": 7, "Terminal": 0, "DistrictId": 1, "Latitude": 22.566943, "Longitude": 120.357453, "IVRNo": 2307, "EXTVoiceNo": 2307, "traveltime": 0, "holidayTraveltime": 0}, {"Id": "2306", "pgp": 0, "GoBack": 1, "SID": 1528, "NameZh": "Kaohsiung Municipal Chungshang Junior High School", "RouteId": 8200, "SeqNo": 8, "Terminal": 0, "DistrictId": 1, "Latitude": 22.566942, "Longitude": 120.354997, "IVRNo": 2306, "EXTVoiceNo": 2306, "traveltime": 0, "holidayTraveltime": 0}, {"Id": "6028", "pgp": 0, "GoBack": 1, "SID": 4479, "NameZh": "MRT Siaogang Station", "RouteId": 8200, "SeqNo": 9, "Terminal": 1, "DistrictId": 1, "Latitude": 22.56487, "Longitude": 120.35361, "IVRNo": 2040, "EXTVoiceNo": 6028, "traveltime": 0, "holidayTraveltime": 0}, {"Id": "6028", "pgp": 0, "GoBack": 2, "SID": 4480, "NameZh": "MRT Siaogang Station", "RouteId": 8200, "SeqNo": 1, "Terminal": 0, "DistrictId": 1, "Latitude": 22.564596, "Longitude": 120.353861, "IVRNo": 2040, "EXTVoiceNo": 6028, "traveltime": 0, "holidayTraveltime": 0}, {"Id": "0781", "pgp": 0, "GoBack": 2, "SID": 14796, "NameZh": "Fongyi Temple", "RouteId": 8200, "SeqNo": 2, "Terminal": 0, "DistrictId": 1, "Latitude": 22.56365, "Longitude": 120.3519, "IVRNo": 781, "EXTVoiceNo": 781, "traveltime": 0, "holidayTraveltime": 0}, {"Id": "2339", "pgp": 0, "GoBack": 2, "SID": 4478, "NameZh": "Erling Elementary School (MRT Siaogang Station)", "RouteId": 8200, "SeqNo": 3, "Terminal": 0, "DistrictId": 1, "Latitude": 22.56575, "Longitude": 120.35182, "IVRNo": 2339, "EXTVoiceNo": 2339, "traveltime": 0, "holidayTraveltime": 0}, {"Id": "2306", "pgp": 0, "GoBack": 2, "SID": 1439, "NameZh": "Kaohsiung Municipal Chungshang Junior High School", "RouteId": 8200, "SeqNo": 4, "Terminal": 0, "DistrictId": 1, "Latitude": 22.566836, "Longitude": 120.355311, "IVRNo": 2306, "EXTVoiceNo": 2306, "traveltime": 0, "holidayTraveltime": 0}, {"Id": "2307", "pgp": 0, "GoBack": 2, "SID": 1442, "NameZh": "Siaogang Senior High School", "RouteId": 8200, "SeqNo": 5, "Terminal": 0, "DistrictId": 1, "Latitude": 22.566829, "Longitude": 120.357581, "IVRNo": 2307, "EXTVoiceNo": 2307, "traveltime": 0, "holidayTraveltime": 0}, {"Id": "2309", "pgp": 0, "GoBack": 2, "SID": 1453, "NameZh": "Sinfong St. Intersection", "RouteId": 8200, "SeqNo": 6, "Terminal": 0, "DistrictId": 1, "Latitude": 22.567082, "Longitude": 120.360464, "IVRNo": 2309, "EXTVoiceNo": 2309, "traveltime": 0, "holidayTraveltime": 0}, {"Id": "2409", "pgp": 0, "GoBack": 2, "SID": 9753, "NameZh": "Kaohsiung Municipal Siaogang Hospital", "RouteId": 8200, "SeqNo": 7, "Terminal": 0, "DistrictId": 1, "Latitude": 22.567029, "Longitude": 120.362982, "IVRNo": 2409, "EXTVoiceNo": 2409, "traveltime": 0, "holidayTraveltime": 0}, {"Id": "2611", "pgp": 0, "GoBack": 2, "SID": 1856, "NameZh": "Shanta", "RouteId": 8200, "SeqNo": 8, "Terminal": 0, "DistrictId": 1, "Latitude": 22.565622, "Longitude": 120.367498, "IVRNo": 2611, "EXTVoiceNo": 2611, "traveltime": 0, "holidayTraveltime": 0}, {"Id": "2609", "pgp": 0, "GoBack": 2, "SID": 5567, "NameZh": "Syueming Community", "RouteId": 8200, "SeqNo": 9, "Terminal": 0, "DistrictId": 1, "Latitude": 22.560836, "Longitude": 120.373317, "IVRNo": 2609, "EXTVoiceNo": 2609, "traveltime": 0, "holidayTraveltime": 0}, {"Id": "2608", "pgp": 0, "GoBack": 2, "SID": 5566, "NameZh": "Songyi St. Intersection", "RouteId": 8200, "SeqNo": 10, "Terminal": 0, "DistrictId": 1, "Latitude": 22.563928, "Longitude": 120.373717, "IVRNo": 2608, "EXTVoiceNo": 2608, "traveltime": 0, "holidayTraveltime": 0}, {"Id": "1374", "pgp": 0, "GoBack": 2, "SID": 18196, "NameZh": "National Kaohsiung University of Hospitality and Tourism(Campus)", "RouteId": 8200, "SeqNo": 11, "Terminal": 1, "DistrictId": 1, "Latitude": 22.565423, "Longitude": 120.371872, "IVRNo": 1374, "EXTVoiceNo": 1374, "traveltime": 0, "holidayTraveltime": 0}], "zh": [{"Id": "1374", "pgp": 0, "GoBack": 1, "SID": 17985, "NameZh": "\u9ad8\u96c4\u9910\u65c5\u5927\u5b78(\u6821\u5340)", "RouteId": 8200, "SeqNo": 1, "Terminal": 0, "DistrictId": 1, "Latitude": 22.565453, "Longitude": 120.371679, "IVRNo": 1374, "EXTVoiceNo": 1374, "traveltime": 0, "holidayTraveltime": 0}, {"Id": "2608", "pgp": 0, "GoBack": 1, "SID": 1849, "NameZh": "\u677e\u7fa9\u8857\u53e3", "RouteId": 8200, "SeqNo": 2, "Terminal": 0, "DistrictId": 1, "Latitude": 22.564026, "Longitude": 120.373648, "IVRNo": 2608, "EXTVoiceNo": 2608, "traveltime": 0, "holidayTraveltime": 0}, {"Id": "2609", "pgp": 0, "GoBack": 1, "SID": 1850, "NameZh": "\u5b78\u660e\u793e\u5340", "RouteId": 8200, "SeqNo": 3, "Terminal": 0, "DistrictId": 1, "Latitude": 22.560836, "Longitude": 120.373317, "IVRNo": 2609, "EXTVoiceNo": 2609, "traveltime": 0, "holidayTraveltime": 0}, {"Id": "2611", "pgp": 0, "GoBack": 1, "SID": 5594, "NameZh": "\u5c71\u6c93", "RouteId": 8200, "SeqNo": 4, "Terminal": 0, "DistrictId": 1, "Latitude": 22.565622, "Longitude": 120.367498, "IVRNo": 2611, "EXTVoiceNo": 2611, "traveltime": 0, "holidayTraveltime": 0}, {"Id": "2409", "pgp": 0, "GoBack": 1, "SID": 9712, "NameZh": "\u5c0f\u6e2f\u91ab\u9662", "RouteId": 8200, "SeqNo": 5, "Terminal": 0, "DistrictId": 1, "Latitude": 22.566541, "Longitude": 120.363199, "IVRNo": 2409, "EXTVoiceNo": 2409, "traveltime": 0, "holidayTraveltime": 0}, {"Id": "2309", "pgp": 0, "GoBack": 1, "SID": 1511, "NameZh": "\u65b0\u8c50\u8857\u53e3", "RouteId": 8200, "SeqNo": 6, "Terminal": 0, "DistrictId": 1, "Latitude": 22.567208, "Longitude": 120.360575, "IVRNo": 2309, "EXTVoiceNo": 2309, "traveltime": 0, "holidayTraveltime": 0}, {"Id": "2307", "pgp": 0, "GoBack": 1, "SID": 1519, "NameZh": "\u5c0f\u6e2f\u9ad8\u4e2d", "RouteId": 8200, "SeqNo": 7, "Terminal": 0, "DistrictId": 1, "Latitude": 22.566943, "Longitude": 120.357453, "IVRNo": 2307, "EXTVoiceNo": 2307, "traveltime": 0, "holidayTraveltime": 0}, {"Id": "2306", "pgp": 0, "GoBack": 1, "SID": 1528, "NameZh": "\u4e2d\u5c71\u570b\u4e2d", "RouteId": 8200, "SeqNo": 8, "Terminal": 0, "DistrictId": 1, "Latitude": 22.566942, "Longitude": 120.354997, "IVRNo": 2306, "EXTVoiceNo": 2306, "traveltime": 0, "holidayTraveltime": 0}, {"Id": "6028", "pgp": 0, "GoBack": 1, "SID": 4479, "NameZh": "\u6377\u904b\u5c0f\u6e2f\u7ad9", "RouteId": 8200, "SeqNo": 9, "Terminal": 1, "DistrictId": 1, "Latitude": 22.56487, "Longitude": 120.35361, "IVRNo": 2040, "EXTVoiceNo": 6028, "traveltime": 0, "holidayTraveltime": 0}, {"Id": "6028", "pgp": 0, "GoBack": 2, "SID": 4480, "NameZh": "\u6377\u904b\u5c0f\u6e2f\u7ad9", "RouteId": 8200, "SeqNo": 1, "Terminal": 0, "DistrictId": 1, "Latitude": 22.564596, "Longitude": 120.353861, "IVRNo": 2040, "EXTVoiceNo": 6028, "traveltime": 0, "holidayTraveltime": 0}, {"Id": "0781", "pgp": 0, "GoBack": 2, "SID": 14796, "NameZh": "\u9cf3\u5100\u5bae", "RouteId": 8200, "SeqNo": 2, "Terminal": 0, "DistrictId": 1, "Latitude": 22.56365, "Longitude": 120.3519, "IVRNo": 781, "EXTVoiceNo": 781, "traveltime": 0, "holidayTraveltime": 0}, {"Id": "2339", "pgp": 0, "GoBack": 2, "SID": 4478, "NameZh": "\u4e8c\u82d3\u570b\u5c0f(\u6377\u904b\u5c0f\u6e2f\u7ad9)", "RouteId": 8200, "SeqNo": 3, "Terminal": 0, "DistrictId": 1, "Latitude": 22.56575, "Longitude": 120.35182, "IVRNo": 2339, "EXTVoiceNo": 2339, "traveltime": 0, "holidayTraveltime": 0}, {"Id": "2306", "pgp": 0, "GoBack": 2, "SID": 1439, "NameZh": "\u4e2d\u5c71\u570b\u4e2d", "RouteId": 8200, "SeqNo": 4, "Terminal": 0, "DistrictId": 1, "Latitude": 22.566836, "Longitude": 120.355311, "IVRNo": 2306, "EXTVoiceNo": 2306, "traveltime": 0, "holidayTraveltime": 0}, {"Id": "2307", "pgp": 0, "GoBack": 2, "SID": 1442, "NameZh": "\u5c0f\u6e2f\u9ad8\u4e2d", "RouteId": 8200, "SeqNo": 5, "Terminal": 0, "DistrictId": 1, "Latitude": 22.566829, "Longitude": 120.357581, "IVRNo": 2307, "EXTVoiceNo": 2307, "traveltime": 0, "holidayTraveltime": 0}, {"Id": "2309", "pgp": 0, "GoBack": 2, "SID": 1453, "NameZh": "\u65b0\u8c50\u8857\u53e3", "RouteId": 8200, "SeqNo": 6, "Terminal": 0, "DistrictId": 1, "Latitude": 22.567082, "Longitude": 120.360464, "IVRNo": 2309, "EXTVoiceNo": 2309, "traveltime": 0, "holidayTraveltime": 0}, {"Id": "2409", "pgp": 0, "GoBack": 2, "SID": 9753, "NameZh": "\u5c0f\u6e2f\u91ab\u9662", "RouteId": 8200, "SeqNo": 7, "Terminal": 0, "DistrictId": 1, "Latitude": 22.567029, "Longitude": 120.362982, "IVRNo": 2409, "EXTVoiceNo": 2409, "traveltime": 0, "holidayTraveltime": 0}, {"Id": "2611", "pgp": 0, "GoBack": 2, "SID": 1856, "NameZh": "\u5c71\u6c93", "RouteId": 8200, "SeqNo": 8, "Terminal": 0, "DistrictId": 1, "Latitude": 22.565622, "Longitude": 120.367498, "IVRNo": 2611, "EXTVoiceNo": 2611, "traveltime": 0, "holidayTraveltime": 0}, {"Id": "2609", "pgp": 0, "GoBack": 2, "SID": 5567, "NameZh": "\u5b78\u660e\u793e\u5340", "RouteId": 8200, "SeqNo": 9, "Terminal": 0, "DistrictId": 1, "Latitude": 22.560836, "Longitude": 120.373317, "IVRNo": 2609, "EXTVoiceNo": 2609, "traveltime": 0, "holidayTraveltime": 0}, {"Id": "2608", "pgp": 0, "GoBack": 2, "SID": 5566, "NameZh": "\u677e\u7fa9\u8857\u53e3", "RouteId": 8200, "SeqNo": 10, "Terminal": 0, "DistrictId": 1, "Latitude": 22.563928, "Longitude": 120.373717, "IVRNo": 2608, "EXTVoiceNo": 2608, "traveltime": 0, "holidayTraveltime": 0}, {"Id": "1374", "pgp": 0, "GoBack": 2, "SID": 18196, "NameZh": "\u9ad8\u96c4\u9910\u65c5\u5927\u5b78(\u6821\u5340)", "RouteId": 8200, "SeqNo": 11, "Terminal": 1, "DistrictId": 1, "Latitude": 22.565423, "Longitude": 120.371872, "IVRNo": 1374, "EXTVoiceNo": 1374, "traveltime": 0, "holidayTraveltime": 0}]}