{"en": [{"Id": "1000", "pgp": 0, "GoBack": 1, "SID": 178, "NameZh": "Rueifong Station (Rueilong Rd.)", "RouteId": 100, "SeqNo": 1, "Terminal": 0, "DistrictId": 1, "Latitude": 22.606087, "Longitude": 120.338501, "IVRNo": 1000, "EXTVoiceNo": 1000, "traveltime": 0, "holidayTraveltime": 0}, {"Id": "1202", "pgp": 0, "GoBack": 1, "SID": 308, "NameZh": "Yongfong Rd. Intersection", "RouteId": 100, "SeqNo": 2, "Terminal": 0, "DistrictId": 1, "Latitude": 22.605742, "Longitude": 120.334387, "IVRNo": 1202, "EXTVoiceNo": 1202, "traveltime": 0, "holidayTraveltime": 0}, {"Id": "7116", "pgp": 0, "GoBack": 1, "SID": 831, "NameZh": "Gangshan Market", "RouteId": 100, "SeqNo": 3, "Terminal": 0, "DistrictId": 1, "Latitude": 22.607333, "Longitude": 120.333533, "IVRNo": 1603, "EXTVoiceNo": 17116, "traveltime": 0, "holidayTraveltime": 0}, {"Id": "7117", "pgp": 0, "GoBack": 1, "SID": 832, "NameZh": "Gangshan N. St. Intersection", "RouteId": 100, "SeqNo": 4, "Terminal": 0, "DistrictId": 1, "Latitude": 22.609866, "Longitude": 120.33315, "IVRNo": 1604, "EXTVoiceNo": 17117, "traveltime": 0, "holidayTraveltime": 0}, {"Id": "1605", "pgp": 0, "GoBack": 1, "SID": 833, "NameZh": "Railway Material Plant", "RouteId": 100, "SeqNo": 5, "Terminal": 0, "DistrictId": 1, "Latitude": 22.612866, "Longitude": 120.332716, "IVRNo": 1605, "EXTVoiceNo": 1605, "traveltime": 0, "holidayTraveltime": 0}, {"Id": "9982", "pgp": 0, "GoBack": 1, "SID": 12822, "NameZh": "Fong Shan Industry Park (Behind the Motor Vehicle Office)", "RouteId": 100, "SeqNo": 6, "Terminal": 0, "DistrictId": 1, "Latitude": 22.614283, "Longitude": 120.332533, "IVRNo": 9002, "EXTVoiceNo": 9982, "traveltime": 0, "holidayTraveltime": 0}, {"Id": "1607", "pgp": 0, "GoBack": 1, "SID": 837, "NameZh": "Railway Workshop", "RouteId": 100, "SeqNo": 7, "Terminal": 0, "DistrictId": 1, "Latitude": 22.617133, "Longitude": 120.33225, "IVRNo": 1607, "EXTVoiceNo": 1607, "traveltime": 0, "holidayTraveltime": 0}, {"Id": "1608", "pgp": 0, "GoBack": 1, "SID": 840, "NameZh": "Wucing 3rd Rd.", "RouteId": 100, "SeqNo": 8, "Terminal": 0, "DistrictId": 1, "Latitude": 22.619716, "Longitude": 120.331966, "IVRNo": 1608, "EXTVoiceNo": 1608, "traveltime": 0, "holidayTraveltime": 0}, {"Id": "0791", "pgp": 0, "GoBack": 1, "SID": 841, "NameZh": "Wukuaicuo  (Wucing 3rd Rd.)", "RouteId": 100, "SeqNo": 9, "Terminal": 0, "DistrictId": 1, "Latitude": 22.62145, "Longitude": 120.331783, "IVRNo": 791, "EXTVoiceNo": 791, "traveltime": 0, "holidayTraveltime": 0}, {"Id": "0140", "pgp": 0, "GoBack": 1, "SID": 140, "NameZh": "San Sin High School of Commerce and Home Economics", "RouteId": 100, "SeqNo": 10, "Terminal": 0, "DistrictId": 1, "Latitude": 22.62205, "Longitude": 120.329316, "IVRNo": 106, "EXTVoiceNo": 140, "traveltime": 0, "holidayTraveltime": 0}, {"Id": "0139", "pgp": 0, "GoBack": 1, "SID": 152, "NameZh": "Kuochi Senior Vocational High School of Commerce and Technology", "RouteId": 100, "SeqNo": 11, "Terminal": 0, "DistrictId": 1, "Latitude": 22.62115, "Longitude": 120.3265, "IVRNo": 107, "EXTVoiceNo": 139, "traveltime": 0, "holidayTraveltime": 0}, {"Id": "0108", "pgp": 0, "GoBack": 1, "SID": 52, "NameZh": "Wucyuan Elementry School (Sanduo  2nd Rd.  )", "RouteId": 100, "SeqNo": 12, "Terminal": 0, "DistrictId": 1, "Latitude": 22.620283, "Longitude": 120.323742, "IVRNo": 108, "EXTVoiceNo": 108, "traveltime": 0, "holidayTraveltime": 0}, {"Id": "1051", "pgp": 0, "GoBack": 1, "SID": 54, "NameZh": "Heping Rd. Intersection", "RouteId": 100, "SeqNo": 13, "Terminal": 0, "DistrictId": 1, "Latitude": 22.619547, "Longitude": 120.321486, "IVRNo": 1013, "EXTVoiceNo": 1051, "traveltime": 0, "holidayTraveltime": 0}, {"Id": "1050", "pgp": 0, "GoBack": 1, "SID": 59, "NameZh": "Lindeguan (Sanhe Market)", "RouteId": 100, "SeqNo": 14, "Terminal": 0, "DistrictId": 1, "Latitude": 22.619017, "Longitude": 120.319886, "IVRNo": 1014, "EXTVoiceNo": 1050, "traveltime": 0, "holidayTraveltime": 0}, {"Id": "1049", "pgp": 0, "GoBack": 1, "SID": 843, "NameZh": "Guanghua Rd. Intersection (Guanghua Night Market)", "RouteId": 100, "SeqNo": 15, "Terminal": 0, "DistrictId": 1, "Latitude": 22.618287, "Longitude": 120.317339, "IVRNo": 1049, "EXTVoiceNo": 1049, "traveltime": 0, "holidayTraveltime": 0}, {"Id": "1648", "pgp": 0, "GoBack": 1, "SID": 848, "NameZh": "Sanduo Market (Sanduo 3rd Rd.)", "RouteId": 100, "SeqNo": 16, "Terminal": 0, "DistrictId": 1, "Latitude": 22.617118, "Longitude": 120.313783, "IVRNo": 1120, "EXTVoiceNo": 1648, "traveltime": 0, "holidayTraveltime": 0}, {"Id": "2157", "pgp": 0, "GoBack": 1, "SID": 849, "NameZh": "Sanduo Fusing Rd. Intersection", "RouteId": 100, "SeqNo": 17, "Terminal": 0, "DistrictId": 1, "Latitude": 22.61655, "Longitude": 120.31235, "IVRNo": 1425, "EXTVoiceNo": 2157, "traveltime": 0, "holidayTraveltime": 0}, {"Id": "1646", "pgp": 0, "GoBack": 1, "SID": 854, "NameZh": "Renai 3rd St. Intersection", "RouteId": 100, "SeqNo": 18, "Terminal": 0, "DistrictId": 1, "Latitude": 22.616033, "Longitude": 120.310733, "IVRNo": 1618, "EXTVoiceNo": 1646, "traveltime": 0, "holidayTraveltime": 0}, {"Id": "1645", "pgp": 0, "GoBack": 1, "SID": 855, "NameZh": "Sanduo 3rd Rd.", "RouteId": 100, "SeqNo": 19, "Terminal": 0, "DistrictId": 1, "Latitude": 22.615446, "Longitude": 120.308815, "IVRNo": 1619, "EXTVoiceNo": 1645, "traveltime": 0, "holidayTraveltime": 0}, {"Id": "2371", "pgp": 0, "GoBack": 1, "SID": 17470, "NameZh": "Shin Kong Mitsukoshi Department Store (MRT Sandou Shopping District Station)", "RouteId": 100, "SeqNo": 20, "Terminal": 0, "DistrictId": 1, "Latitude": 22.614466, "Longitude": 120.306183, "IVRNo": 2046, "EXTVoiceNo": 32371, "traveltime": 0, "holidayTraveltime": 0}, {"Id": "1516", "pgp": 0, "GoBack": 1, "SID": 757, "NameZh": "Far Eastern Department Store (MRT Sandou Shopping District Station)", "RouteId": 100, "SeqNo": 21, "Terminal": 0, "DistrictId": 1, "Latitude": 22.613723, "Longitude": 120.303662, "IVRNo": 1516, "EXTVoiceNo": 1516, "traveltime": 0, "holidayTraveltime": 0}, {"Id": "4087", "pgp": 0, "GoBack": 1, "SID": 907, "NameZh": "Zihciang 3rd Rd. Intersection (Sanduo 4th Rd.)", "RouteId": 100, "SeqNo": 22, "Terminal": 0, "DistrictId": 1, "Latitude": 22.612812, "Longitude": 120.300925, "IVRNo": 1662, "EXTVoiceNo": 4087, "traveltime": 0, "holidayTraveltime": 0}, {"Id": "1517", "pgp": 0, "GoBack": 1, "SID": 766, "NameZh": "85 Sky Tower", "RouteId": 100, "SeqNo": 23, "Terminal": 0, "DistrictId": 1, "Latitude": 22.612362, "Longitude": 120.299587, "IVRNo": 1517, "EXTVoiceNo": 1517, "traveltime": 0, "holidayTraveltime": 0}, {"Id": "1623", "pgp": 0, "GoBack": 1, "SID": 859, "NameZh": "Chengkung Elementary School", "RouteId": 100, "SeqNo": 24, "Terminal": 0, "DistrictId": 1, "Latitude": 22.613875, "Longitude": 120.297828, "IVRNo": 1623, "EXTVoiceNo": 1623, "traveltime": 0, "holidayTraveltime": 0}, {"Id": "1624", "pgp": 0, "GoBack": 1, "SID": 865, "NameZh": "Lingya Market", "RouteId": 100, "SeqNo": 25, "Terminal": 0, "DistrictId": 1, "Latitude": 22.61696, "Longitude": 120.29676, "IVRNo": 1624, "EXTVoiceNo": 1624, "traveltime": 0, "holidayTraveltime": 0}, {"Id": "1027", "pgp": 0, "GoBack": 1, "SID": 80, "NameZh": "Hanshin Department Store", "RouteId": 100, "SeqNo": 26, "Terminal": 0, "DistrictId": 1, "Latitude": 22.619253, "Longitude": 120.295799, "IVRNo": 1027, "EXTVoiceNo": 1027, "traveltime": 0, "holidayTraveltime": 0}, {"Id": "0036", "pgp": 0, "GoBack": 1, "SID": 2595, "NameZh": "Talee Department Store", "RouteId": 100, "SeqNo": 27, "Terminal": 0, "DistrictId": 1, "Latitude": 22.621403, "Longitude": 120.296011, "IVRNo": 17, "EXTVoiceNo": 36, "traveltime": 0, "holidayTraveltime": 0}, {"Id": "9935", "pgp": 0, "GoBack": 1, "SID": 12287, "NameZh": "Talee Department Store (Wunwu 2nd St. Intersection)", "RouteId": 100, "SeqNo": 28, "Terminal": 0, "DistrictId": 1, "Latitude": 22.621858, "Longitude": 120.297517, "IVRNo": 9935, "EXTVoiceNo": 9935, "traveltime": 0, "holidayTraveltime": 0}, {"Id": "0037", "pgp": 0, "GoBack": 1, "SID": 2622, "NameZh": "Urban Spotlight (MRT Central Park Station)", "RouteId": 100, "SeqNo": 29, "Terminal": 0, "DistrictId": 1, "Latitude": 22.622617, "Longitude": 120.299883, "IVRNo": 37, "EXTVoiceNo": 37, "traveltime": 0, "holidayTraveltime": 0}, {"Id": "0119", "pgp": 0, "GoBack": 1, "SID": 282, "NameZh": "MRT Central Park Station", "RouteId": 100, "SeqNo": 30, "Terminal": 0, "DistrictId": 1, "Latitude": 22.62468, "Longitude": 120.30125, "IVRNo": 119, "EXTVoiceNo": 119, "traveltime": 0, "holidayTraveltime": 0}, {"Id": "0120", "pgp": 0, "GoBack": 1, "SID": 300, "NameZh": "MRT Formosa Boulevard Station", "RouteId": 100, "SeqNo": 31, "Terminal": 0, "DistrictId": 1, "Latitude": 22.63014, "Longitude": 120.30193, "IVRNo": 120, "EXTVoiceNo": 120, "traveltime": 0, "holidayTraveltime": 0}, {"Id": "0121", "pgp": 0, "GoBack": 1, "SID": 332, "NameZh": "Liouhe Tourist Night Market (Dagangpu)", "RouteId": 100, "SeqNo": 32, "Terminal": 0, "DistrictId": 1, "Latitude": 22.633844, "Longitude": 120.302261, "IVRNo": 125, "EXTVoiceNo": 121, "traveltime": 0, "holidayTraveltime": 0}, {"Id": "1445", "pgp": 0, "GoBack": 1, "SID": 674, "NameZh": "Jhongshan 1st Rd. Intersection", "RouteId": 100, "SeqNo": 33, "Terminal": 0, "DistrictId": 1, "Latitude": 22.634416, "Longitude": 120.3036, "IVRNo": 1445, "EXTVoiceNo": 1445, "traveltime": 0, "holidayTraveltime": 0}, {"Id": "0411", "pgp": 0, "GoBack": 1, "SID": 11354, "NameZh": "Linsen Rd. Intersection", "RouteId": 100, "SeqNo": 34, "Terminal": 0, "DistrictId": 1, "Latitude": 22.637686, "Longitude": 120.304302, "IVRNo": 92, "EXTVoiceNo": 411, "traveltime": 0, "holidayTraveltime": 0}, {"Id": "0412", "pgp": 0, "GoBack": 1, "SID": 2897, "NameZh": "Kaohsiung Train Station (MRT Kaohsiung Main Station)", "RouteId": 100, "SeqNo": 35, "Terminal": 1, "DistrictId": 1, "Latitude": 22.636991, "Longitude": 120.302217, "IVRNo": 412, "EXTVoiceNo": 412, "traveltime": 0, "holidayTraveltime": 0}, {"Id": "0412", "pgp": 0, "GoBack": 2, "SID": 19011, "NameZh": "Kaohsiung Train Station (MRT Kaohsiung Main Station)", "RouteId": 100, "SeqNo": 1, "Terminal": 0, "DistrictId": 1, "Latitude": 22.636446, "Longitude": 120.30219, "IVRNo": 412, "EXTVoiceNo": 412, "traveltime": 0, "holidayTraveltime": 0}, {"Id": "0121", "pgp": 0, "GoBack": 2, "SID": 393, "NameZh": "Liouhe Tourist Night Market (Dagangpu)", "RouteId": 100, "SeqNo": 2, "Terminal": 0, "DistrictId": 1, "Latitude": 22.633986, "Longitude": 120.30207, "IVRNo": 125, "EXTVoiceNo": 121, "traveltime": 0, "holidayTraveltime": 0}, {"Id": "0120", "pgp": 0, "GoBack": 2, "SID": 402, "NameZh": "MRT Formosa Boulevard Station", "RouteId": 100, "SeqNo": 3, "Terminal": 0, "DistrictId": 1, "Latitude": 22.6304, "Longitude": 120.30162, "IVRNo": 120, "EXTVoiceNo": 120, "traveltime": 0, "holidayTraveltime": 0}, {"Id": "0119", "pgp": 0, "GoBack": 2, "SID": 405, "NameZh": "MRT Central Park Station", "RouteId": 100, "SeqNo": 4, "Terminal": 0, "DistrictId": 1, "Latitude": 22.6247, "Longitude": 120.30103, "IVRNo": 119, "EXTVoiceNo": 119, "traveltime": 0, "holidayTraveltime": 0}, {"Id": "0037", "pgp": 0, "GoBack": 2, "SID": 825, "NameZh": "Urban Spotlight (MRT Central Park Station)", "RouteId": 100, "SeqNo": 5, "Terminal": 0, "DistrictId": 1, "Latitude": 22.623033, "Longitude": 120.300356, "IVRNo": 37, "EXTVoiceNo": 37, "traveltime": 0, "holidayTraveltime": 0}, {"Id": "9935", "pgp": 0, "GoBack": 2, "SID": 12288, "NameZh": "Talee Department Store (Wunwu 2nd St. Intersection)", "RouteId": 100, "SeqNo": 6, "Terminal": 0, "DistrictId": 1, "Latitude": 22.621986, "Longitude": 120.297313, "IVRNo": 9935, "EXTVoiceNo": 9935, "traveltime": 0, "holidayTraveltime": 0}, {"Id": "1027", "pgp": 0, "GoBack": 2, "SID": 91, "NameZh": "Hanshin Department Store", "RouteId": 100, "SeqNo": 7, "Terminal": 0, "DistrictId": 1, "Latitude": 22.619188, "Longitude": 120.295624, "IVRNo": 1027, "EXTVoiceNo": 1027, "traveltime": 0, "holidayTraveltime": 0}, {"Id": "1624", "pgp": 0, "GoBack": 2, "SID": 874, "NameZh": "Lingya Market", "RouteId": 100, "SeqNo": 8, "Terminal": 0, "DistrictId": 1, "Latitude": 22.616798, "Longitude": 120.296654, "IVRNo": 1624, "EXTVoiceNo": 1624, "traveltime": 0, "holidayTraveltime": 0}, {"Id": "1623", "pgp": 0, "GoBack": 2, "SID": 879, "NameZh": "Chengkung Elementary School", "RouteId": 100, "SeqNo": 9, "Terminal": 0, "DistrictId": 1, "Latitude": 22.613894, "Longitude": 120.297617, "IVRNo": 1623, "EXTVoiceNo": 1623, "traveltime": 0, "holidayTraveltime": 0}, {"Id": "1517", "pgp": 0, "GoBack": 2, "SID": 792, "NameZh": "85 Sky Tower", "RouteId": 100, "SeqNo": 10, "Terminal": 0, "DistrictId": 1, "Latitude": 22.61242, "Longitude": 120.3, "IVRNo": 1517, "EXTVoiceNo": 1517, "traveltime": 0, "holidayTraveltime": 0}, {"Id": "4087", "pgp": 0, "GoBack": 2, "SID": 909, "NameZh": "Zihciang 3rd Rd. Intersection (Sanduo 4th Rd.)", "RouteId": 100, "SeqNo": 11, "Terminal": 0, "DistrictId": 1, "Latitude": 22.612672, "Longitude": 120.300942, "IVRNo": 1662, "EXTVoiceNo": 4087, "traveltime": 0, "holidayTraveltime": 0}, {"Id": "1516", "pgp": 0, "GoBack": 2, "SID": 795, "NameZh": "Far Eastern Department Store (MRT Sandou Shopping District Station)", "RouteId": 100, "SeqNo": 12, "Terminal": 0, "DistrictId": 1, "Latitude": 22.613502, "Longitude": 120.303276, "IVRNo": 1516, "EXTVoiceNo": 1516, "traveltime": 0, "holidayTraveltime": 0}, {"Id": "2371", "pgp": 0, "GoBack": 2, "SID": 17277, "NameZh": "Shin Kong Mitsukoshi Department Store (MRT Sandou Shopping District Station)", "RouteId": 100, "SeqNo": 13, "Terminal": 0, "DistrictId": 1, "Latitude": 22.614464, "Longitude": 120.306187, "IVRNo": 2046, "EXTVoiceNo": 32371, "traveltime": 0, "holidayTraveltime": 0}, {"Id": "1645", "pgp": 0, "GoBack": 2, "SID": 885, "NameZh": "Sanduo 3rd Rd.", "RouteId": 100, "SeqNo": 14, "Terminal": 0, "DistrictId": 1, "Latitude": 22.615385, "Longitude": 120.309006, "IVRNo": 1619, "EXTVoiceNo": 1645, "traveltime": 0, "holidayTraveltime": 0}, {"Id": "1646", "pgp": 0, "GoBack": 2, "SID": 886, "NameZh": "Renai 3rd St. Intersection", "RouteId": 100, "SeqNo": 15, "Terminal": 0, "DistrictId": 1, "Latitude": 22.615933, "Longitude": 120.310733, "IVRNo": 1618, "EXTVoiceNo": 1646, "traveltime": 0, "holidayTraveltime": 0}, {"Id": "2157", "pgp": 0, "GoBack": 2, "SID": 892, "NameZh": "Sanduo Fusing Rd. Intersection", "RouteId": 100, "SeqNo": 16, "Terminal": 0, "DistrictId": 1, "Latitude": 22.61645, "Longitude": 120.31235, "IVRNo": 1425, "EXTVoiceNo": 2157, "traveltime": 0, "holidayTraveltime": 0}, {"Id": "1648", "pgp": 0, "GoBack": 2, "SID": 893, "NameZh": "Sanduo Market (Sanduo 3rd Rd.)", "RouteId": 100, "SeqNo": 17, "Terminal": 0, "DistrictId": 1, "Latitude": 22.61735, "Longitude": 120.314883, "IVRNo": 1120, "EXTVoiceNo": 1648, "traveltime": 0, "holidayTraveltime": 0}, {"Id": "1049", "pgp": 0, "GoBack": 2, "SID": 117, "NameZh": "Guanghua Rd. Intersection (Guanghua Night Market)", "RouteId": 100, "SeqNo": 18, "Terminal": 0, "DistrictId": 1, "Latitude": 22.618416, "Longitude": 120.318233, "IVRNo": 1049, "EXTVoiceNo": 1049, "traveltime": 0, "holidayTraveltime": 0}, {"Id": "1050", "pgp": 0, "GoBack": 2, "SID": 125, "NameZh": "Lindeguan (Sanhe Market)", "RouteId": 100, "SeqNo": 19, "Terminal": 0, "DistrictId": 1, "Latitude": 22.618872, "Longitude": 120.319796, "IVRNo": 1014, "EXTVoiceNo": 1050, "traveltime": 0, "holidayTraveltime": 0}, {"Id": "1051", "pgp": 0, "GoBack": 2, "SID": 126, "NameZh": "Heping Rd. Intersection", "RouteId": 100, "SeqNo": 20, "Terminal": 0, "DistrictId": 1, "Latitude": 22.619303, "Longitude": 120.321102, "IVRNo": 1013, "EXTVoiceNo": 1051, "traveltime": 0, "holidayTraveltime": 0}, {"Id": "0108", "pgp": 0, "GoBack": 2, "SID": 132, "NameZh": "Wucyuan Elementry School (Sanduo  2nd Rd.  )", "RouteId": 100, "SeqNo": 21, "Terminal": 0, "DistrictId": 1, "Latitude": 22.620194, "Longitude": 120.323886, "IVRNo": 108, "EXTVoiceNo": 108, "traveltime": 0, "holidayTraveltime": 0}, {"Id": "0139", "pgp": 0, "GoBack": 2, "SID": 555, "NameZh": "Kuochi Senior Vocational High School of Commerce and Technology", "RouteId": 100, "SeqNo": 22, "Terminal": 0, "DistrictId": 1, "Latitude": 22.62105, "Longitude": 120.3265, "IVRNo": 107, "EXTVoiceNo": 139, "traveltime": 0, "holidayTraveltime": 0}, {"Id": "0140", "pgp": 0, "GoBack": 2, "SID": 569, "NameZh": "San Sin High School of Commerce and Home Economics", "RouteId": 100, "SeqNo": 23, "Terminal": 0, "DistrictId": 1, "Latitude": 22.62195, "Longitude": 120.329316, "IVRNo": 106, "EXTVoiceNo": 140, "traveltime": 0, "holidayTraveltime": 0}, {"Id": "0791", "pgp": 0, "GoBack": 2, "SID": 896, "NameZh": "Wukuaicuo  (Wucing 3rd Rd.)", "RouteId": 100, "SeqNo": 24, "Terminal": 0, "DistrictId": 1, "Latitude": 22.62145, "Longitude": 120.331683, "IVRNo": 791, "EXTVoiceNo": 791, "traveltime": 0, "holidayTraveltime": 0}, {"Id": "1608", "pgp": 0, "GoBack": 2, "SID": 897, "NameZh": "Wucing 3rd Rd.", "RouteId": 100, "SeqNo": 25, "Terminal": 0, "DistrictId": 1, "Latitude": 22.619716, "Longitude": 120.331866, "IVRNo": 1608, "EXTVoiceNo": 1608, "traveltime": 0, "holidayTraveltime": 0}, {"Id": "1607", "pgp": 0, "GoBack": 2, "SID": 899, "NameZh": "Railway Workshop", "RouteId": 100, "SeqNo": 26, "Terminal": 0, "DistrictId": 1, "Latitude": 22.616978, "Longitude": 120.332133, "IVRNo": 1607, "EXTVoiceNo": 1607, "traveltime": 0, "holidayTraveltime": 0}, {"Id": "9982", "pgp": 0, "GoBack": 2, "SID": 12823, "NameZh": "Fong Shan Industry Park (Behind the Motor Vehicle Office)", "RouteId": 100, "SeqNo": 27, "Terminal": 0, "DistrictId": 1, "Latitude": 22.614653, "Longitude": 120.332408, "IVRNo": 9002, "EXTVoiceNo": 9982, "traveltime": 0, "holidayTraveltime": 0}, {"Id": "1605", "pgp": 0, "GoBack": 2, "SID": 903, "NameZh": "Railway Material Plant", "RouteId": 100, "SeqNo": 28, "Terminal": 0, "DistrictId": 1, "Latitude": 22.612681, "Longitude": 120.332553, "IVRNo": 1605, "EXTVoiceNo": 1605, "traveltime": 0, "holidayTraveltime": 0}, {"Id": "7117", "pgp": 0, "GoBack": 2, "SID": 905, "NameZh": "Gangshan N. St. Intersection", "RouteId": 100, "SeqNo": 29, "Terminal": 0, "DistrictId": 1, "Latitude": 22.60985, "Longitude": 120.333022, "IVRNo": 1604, "EXTVoiceNo": 17117, "traveltime": 0, "holidayTraveltime": 0}, {"Id": "7116", "pgp": 0, "GoBack": 2, "SID": 906, "NameZh": "Gangshan Market", "RouteId": 100, "SeqNo": 30, "Terminal": 0, "DistrictId": 1, "Latitude": 22.607278, "Longitude": 120.333356, "IVRNo": 1603, "EXTVoiceNo": 17116, "traveltime": 0, "holidayTraveltime": 0}, {"Id": "1202", "pgp": 0, "GoBack": 2, "SID": 384, "NameZh": "Yongfong Rd. Intersection", "RouteId": 100, "SeqNo": 31, "Terminal": 0, "DistrictId": 1, "Latitude": 22.605583, "Longitude": 120.334383, "IVRNo": 1202, "EXTVoiceNo": 1202, "traveltime": 0, "holidayTraveltime": 0}, {"Id": "1000", "pgp": 0, "GoBack": 2, "SID": 288, "NameZh": "Rueifong Station (Rueilong Rd.)", "RouteId": 100, "SeqNo": 32, "Terminal": 1, "DistrictId": 1, "Latitude": 22.60585, "Longitude": 120.33775, "IVRNo": 1000, "EXTVoiceNo": 1000, "traveltime": 0, "holidayTraveltime": 0}], "zh": [{"Id": "1000", "pgp": 0, "GoBack": 1, "SID": 178, "NameZh": "\u745e\u8c50\u7ad9(\u745e\u9686\u8def)", "RouteId": 100, "SeqNo": 1, "Terminal": 0, "DistrictId": 1, "Latitude": 22.606087, "Longitude": 120.338501, "IVRNo": 1000, "EXTVoiceNo": 1000, "traveltime": 0, "holidayTraveltime": 0}, {"Id": "1202", "pgp": 0, "GoBack": 1, "SID": 308, "NameZh": "\u6c38\u8c50\u8def\u53e3", "RouteId": 100, "SeqNo": 2, "Terminal": 0, "DistrictId": 1, "Latitude": 22.605742, "Longitude": 120.334387, "IVRNo": 1202, "EXTVoiceNo": 1202, "traveltime": 0, "holidayTraveltime": 0}, {"Id": "7116", "pgp": 0, "GoBack": 1, "SID": 831, "NameZh": "\u5d17\u5c71\u5e02\u5834", "RouteId": 100, "SeqNo": 3, "Terminal": 0, "DistrictId": 1, "Latitude": 22.607333, "Longitude": 120.333533, "IVRNo": 1603, "EXTVoiceNo": 17116, "traveltime": 0, "holidayTraveltime": 0}, {"Id": "7117", "pgp": 0, "GoBack": 1, "SID": 832, "NameZh": "\u5d17\u5c71\u5317\u8857\u53e3", "RouteId": 100, "SeqNo": 4, "Terminal": 0, "DistrictId": 1, "Latitude": 22.609866, "Longitude": 120.33315, "IVRNo": 1604, "EXTVoiceNo": 17117, "traveltime": 0, "holidayTraveltime": 0}, {"Id": "1605", "pgp": 0, "GoBack": 1, "SID": 833, "NameZh": "\u9435\u8def\u6a5f\u6599\u5ee0", "RouteId": 100, "SeqNo": 5, "Terminal": 0, "DistrictId": 1, "Latitude": 22.612866, "Longitude": 120.332716, "IVRNo": 1605, "EXTVoiceNo": 1605, "traveltime": 0, "holidayTraveltime": 0}, {"Id": "9982", "pgp": 0, "GoBack": 1, "SID": 12822, "NameZh": "\u9cf3\u5c71\u5de5\u696d\u5340(\u76e3\u7406\u6240\u5f8c)", "RouteId": 100, "SeqNo": 6, "Terminal": 0, "DistrictId": 1, "Latitude": 22.614283, "Longitude": 120.332533, "IVRNo": 9002, "EXTVoiceNo": 9982, "traveltime": 0, "holidayTraveltime": 0}, {"Id": "1607", "pgp": 0, "GoBack": 1, "SID": 837, "NameZh": "\u9435\u8def\u6a5f\u5ee0", "RouteId": 100, "SeqNo": 7, "Terminal": 0, "DistrictId": 1, "Latitude": 22.617133, "Longitude": 120.33225, "IVRNo": 1607, "EXTVoiceNo": 1607, "traveltime": 0, "holidayTraveltime": 0}, {"Id": "1608", "pgp": 0, "GoBack": 1, "SID": 840, "NameZh": "\u6b66\u6176\u4e09\u8def", "RouteId": 100, "SeqNo": 8, "Terminal": 0, "DistrictId": 1, "Latitude": 22.619716, "Longitude": 120.331966, "IVRNo": 1608, "EXTVoiceNo": 1608, "traveltime": 0, "holidayTraveltime": 0}, {"Id": "0791", "pgp": 0, "GoBack": 1, "SID": 841, "NameZh": "\u4e94\u584a\u539d(\u6b66\u6176\u4e09\u8def)", "RouteId": 100, "SeqNo": 9, "Terminal": 0, "DistrictId": 1, "Latitude": 22.62145, "Longitude": 120.331783, "IVRNo": 791, "EXTVoiceNo": 791, "traveltime": 0, "holidayTraveltime": 0}, {"Id": "0140", "pgp": 0, "GoBack": 1, "SID": 140, "NameZh": "\u4e09\u4fe1\u5bb6\u5546", "RouteId": 100, "SeqNo": 10, "Terminal": 0, "DistrictId": 1, "Latitude": 22.62205, "Longitude": 120.329316, "IVRNo": 106, "EXTVoiceNo": 140, "traveltime": 0, "holidayTraveltime": 0}, {"Id": "0139", "pgp": 0, "GoBack": 1, "SID": 152, "NameZh": "\u570b\u969b\u5546\u5de5", "RouteId": 100, "SeqNo": 11, "Terminal": 0, "DistrictId": 1, "Latitude": 22.62115, "Longitude": 120.3265, "IVRNo": 107, "EXTVoiceNo": 139, "traveltime": 0, "holidayTraveltime": 0}, {"Id": "0108", "pgp": 0, "GoBack": 1, "SID": 52, "NameZh": "\u4e94\u6b0a\u570b\u5c0f(\u4e09\u591a\u4e8c\u8def)", "RouteId": 100, "SeqNo": 12, "Terminal": 0, "DistrictId": 1, "Latitude": 22.620283, "Longitude": 120.323742, "IVRNo": 108, "EXTVoiceNo": 108, "traveltime": 0, "holidayTraveltime": 0}, {"Id": "1051", "pgp": 0, "GoBack": 1, "SID": 54, "NameZh": "\u548c\u5e73\u8def\u53e3", "RouteId": 100, "SeqNo": 13, "Terminal": 0, "DistrictId": 1, "Latitude": 22.619547, "Longitude": 120.321486, "IVRNo": 1013, "EXTVoiceNo": 1051, "traveltime": 0, "holidayTraveltime": 0}, {"Id": "1050", "pgp": 0, "GoBack": 1, "SID": 59, "NameZh": "\u6797\u5fb7\u5b98(\u4e09\u548c\u5e02\u5834)", "RouteId": 100, "SeqNo": 14, "Terminal": 0, "DistrictId": 1, "Latitude": 22.619017, "Longitude": 120.319886, "IVRNo": 1014, "EXTVoiceNo": 1050, "traveltime": 0, "holidayTraveltime": 0}, {"Id": "1049", "pgp": 0, "GoBack": 1, "SID": 843, "NameZh": "\u5149\u83ef\u8def\u53e3(\u5149\u83ef\u591c\u5e02)", "RouteId": 100, "SeqNo": 15, "Terminal": 0, "DistrictId": 1, "Latitude": 22.618287, "Longitude": 120.317339, "IVRNo": 1049, "EXTVoiceNo": 1049, "traveltime": 0, "holidayTraveltime": 0}, {"Id": "1648", "pgp": 0, "GoBack": 1, "SID": 848, "NameZh": "\u4e09\u591a\u5e02\u5834(\u4e09\u591a\u4e09\u8def)", "RouteId": 100, "SeqNo": 16, "Terminal": 0, "DistrictId": 1, "Latitude": 22.617118, "Longitude": 120.313783, "IVRNo": 1120, "EXTVoiceNo": 1648, "traveltime": 0, "holidayTraveltime": 0}, {"Id": "2157", "pgp": 0, "GoBack": 1, "SID": 849, "NameZh": "\u4e09\u591a\u5fa9\u8208\u8def\u53e3", "RouteId": 100, "SeqNo": 17, "Terminal": 0, "DistrictId": 1, "Latitude": 22.61655, "Longitude": 120.31235, "IVRNo": 1425, "EXTVoiceNo": 2157, "traveltime": 0, "holidayTraveltime": 0}, {"Id": "1646", "pgp": 0, "GoBack": 1, "SID": 854, "NameZh": "\u4ec1\u611b\u4e09\u8857\u53e3", "RouteId": 100, "SeqNo": 18, "Terminal": 0, "DistrictId": 1, "Latitude": 22.616033, "Longitude": 120.310733, "IVRNo": 1618, "EXTVoiceNo": 1646, "traveltime": 0, "holidayTraveltime": 0}, {"Id": "1645", "pgp": 0, "GoBack": 1, "SID": 855, "NameZh": "\u4e09\u591a\u4e09\u8def", "RouteId": 100, "SeqNo": 19, "Terminal": 0, "DistrictId": 1, "Latitude": 22.615446, "Longitude": 120.308815, "IVRNo": 1619, "EXTVoiceNo": 1645, "traveltime": 0, "holidayTraveltime": 0}, {"Id": "2371", "pgp": 0, "GoBack": 1, "SID": 17470, "NameZh": "\u65b0\u5149\u4e09\u8d8a(\u6377\u904b\u4e09\u591a\u5546\u5708\u7ad9)", "RouteId": 100, "SeqNo": 20, "Terminal": 0, "DistrictId": 1, "Latitude": 22.614466, "Longitude": 120.306183, "IVRNo": 2046, "EXTVoiceNo": 32371, "traveltime": 0, "holidayTraveltime": 0}, {"Id": "1516", "pgp": 0, "GoBack": 1, "SID": 757, "NameZh": "\u5927\u9060\u767e\u767e\u8ca8(\u6377\u904b\u4e09\u591a\u5546\u5708\u7ad9)", "RouteId": 100, "SeqNo": 21, "Terminal": 0, "DistrictId": 1, "Latitude": 22.613723, "Longitude": 120.303662, "IVRNo": 1516, "EXTVoiceNo": 1516, "traveltime": 0, "holidayTraveltime": 0}, {"Id": "4087", "pgp": 0, "GoBack": 1, "SID": 907, "NameZh": "\u81ea\u5f37\u4e09\u8def\u53e3(\u4e09\u591a\u56db\u8def)", "RouteId": 100, "SeqNo": 22, "Terminal": 0, "DistrictId": 1, "Latitude": 22.612812, "Longitude": 120.300925, "IVRNo": 1662, "EXTVoiceNo": 4087, "traveltime": 0, "holidayTraveltime": 0}, {"Id": "1517", "pgp": 0, "GoBack": 1, "SID": 766, "NameZh": "\u516b\u4e94\u5927\u6a13", "RouteId": 100, "SeqNo": 23, "Terminal": 0, "DistrictId": 1, "Latitude": 22.612362, "Longitude": 120.299587, "IVRNo": 1517, "EXTVoiceNo": 1517, "traveltime": 0, "holidayTraveltime": 0}, {"Id": "1623", "pgp": 0, "GoBack": 1, "SID": 859, "NameZh": "\u6210\u529f\u570b\u5c0f", "RouteId": 100, "SeqNo": 24, "Terminal": 0, "DistrictId": 1, "Latitude": 22.613875, "Longitude": 120.297828, "IVRNo": 1623, "EXTVoiceNo": 1623, "traveltime": 0, "holidayTraveltime": 0}, {"Id": "1624", "pgp": 0, "GoBack": 1, "SID": 865, "NameZh": "\u82d3\u96c5\u5e02\u5834", "RouteId": 100, "SeqNo": 25, "Terminal": 0, "DistrictId": 1, "Latitude": 22.61696, "Longitude": 120.29676, "IVRNo": 1624, "EXTVoiceNo": 1624, "traveltime": 0, "holidayTraveltime": 0}, {"Id": "1027", "pgp": 0, "GoBack": 1, "SID": 80, "NameZh": "\u6f22\u795e\u767e\u8ca8", "RouteId": 100, "SeqNo": 26, "Terminal": 0, "DistrictId": 1, "Latitude": 22.619253, "Longitude": 120.295799, "IVRNo": 1027, "EXTVoiceNo": 1027, "traveltime": 0, "holidayTraveltime": 0}, {"Id": "0036", "pgp": 0, "GoBack": 1, "SID": 2595, "NameZh": "\u5927\u7acb\u767e\u8ca8", "RouteId": 100, "SeqNo": 27, "Terminal": 0, "DistrictId": 1, "Latitude": 22.621403, "Longitude": 120.296011, "IVRNo": 17, "EXTVoiceNo": 36, "traveltime": 0, "holidayTraveltime": 0}, {"Id": "9935", "pgp": 0, "GoBack": 1, "SID": 12287, "NameZh": "\u5927\u7acb\u767e\u8ca8(\u6587\u6b66\u4e8c\u8857\u53e3)", "RouteId": 100, "SeqNo": 28, "Terminal": 0, "DistrictId": 1, "Latitude": 22.621858, "Longitude": 120.297517, "IVRNo": 9935, "EXTVoiceNo": 9935, "traveltime": 0, "holidayTraveltime": 0}, {"Id": "0037", "pgp": 0, "GoBack": 1, "SID": 2622, "NameZh": "\u57ce\u5e02\u5149\u5eca(\u6377\u904b\u4e2d\u592e\u516c\u5712\u7ad9)", "RouteId": 100, "SeqNo": 29, "Terminal": 0, "DistrictId": 1, "Latitude": 22.622617, "Longitude": 120.299883, "IVRNo": 37, "EXTVoiceNo": 37, "traveltime": 0, "holidayTraveltime": 0}, {"Id": "0119", "pgp": 0, "GoBack": 1, "SID": 282, "NameZh": "\u6377\u904b\u4e2d\u592e\u516c\u5712\u7ad9", "RouteId": 100, "SeqNo": 30, "Terminal": 0, "DistrictId": 1, "Latitude": 22.62468, "Longitude": 120.30125, "IVRNo": 119, "EXTVoiceNo": 119, "traveltime": 0, "holidayTraveltime": 0}, {"Id": "0120", "pgp": 0, "GoBack": 1, "SID": 300, "NameZh": "\u6377\u904b\u7f8e\u9e97\u5cf6\u7ad9", "RouteId": 100, "SeqNo": 31, "Terminal": 0, "DistrictId": 1, "Latitude": 22.63014, "Longitude": 120.30193, "IVRNo": 120, "EXTVoiceNo": 120, "traveltime": 0, "holidayTraveltime": 0}, {"Id": "0121", "pgp": 0, "GoBack": 1, "SID": 332, "NameZh": "\u516d\u5408\u591c\u5e02(\u5927\u6e2f\u57d4)", "RouteId": 100, "SeqNo": 32, "Terminal": 0, "DistrictId": 1, "Latitude": 22.633844, "Longitude": 120.302261, "IVRNo": 125, "EXTVoiceNo": 121, "traveltime": 0, "holidayTraveltime": 0}, {"Id": "1445", "pgp": 0, "GoBack": 1, "SID": 674, "NameZh": "\u4e2d\u5c71\u4e00\u8def\u53e3", "RouteId": 100, "SeqNo": 33, "Terminal": 0, "DistrictId": 1, "Latitude": 22.634416, "Longitude": 120.3036, "IVRNo": 1445, "EXTVoiceNo": 1445, "traveltime": 0, "holidayTraveltime": 0}, {"Id": "0411", "pgp": 0, "GoBack": 1, "SID": 11354, "NameZh": "\u6797\u68ee\u8def\u53e3", "RouteId": 100, "SeqNo": 34, "Terminal": 0, "DistrictId": 1, "Latitude": 22.637686, "Longitude": 120.304302, "IVRNo": 92, "EXTVoiceNo": 411, "traveltime": 0, "holidayTraveltime": 0}, {"Id": "0412", "pgp": 0, "GoBack": 1, "SID": 2897, "NameZh": "\u9ad8\u96c4\u706b\u8eca\u7ad9(\u6377\u904b\u9ad8\u96c4\u8eca\u7ad9)", "RouteId": 100, "SeqNo": 35, "Terminal": 1, "DistrictId": 1, "Latitude": 22.636991, "Longitude": 120.302217, "IVRNo": 412, "EXTVoiceNo": 412, "traveltime": 0, "holidayTraveltime": 0}, {"Id": "0412", "pgp": 0, "GoBack": 2, "SID": 19011, "NameZh": "\u9ad8\u96c4\u706b\u8eca\u7ad9(\u6377\u904b\u9ad8\u96c4\u8eca\u7ad9)", "RouteId": 100, "SeqNo": 1, "Terminal": 0, "DistrictId": 1, "Latitude": 22.636446, "Longitude": 120.30219, "IVRNo": 412, "EXTVoiceNo": 412, "traveltime": 0, "holidayTraveltime": 0}, {"Id": "0121", "pgp": 0, "GoBack": 2, "SID": 393, "NameZh": "\u516d\u5408\u591c\u5e02(\u5927\u6e2f\u57d4)", "RouteId": 100, "SeqNo": 2, "Terminal": 0, "DistrictId": 1, "Latitude": 22.633986, "Longitude": 120.30207, "IVRNo": 125, "EXTVoiceNo": 121, "traveltime": 0, "holidayTraveltime": 0}, {"Id": "0120", "pgp": 0, "GoBack": 2, "SID": 402, "NameZh": "\u6377\u904b\u7f8e\u9e97\u5cf6\u7ad9", "RouteId": 100, "SeqNo": 3, "Terminal": 0, "DistrictId": 1, "Latitude": 22.6304, "Longitude": 120.30162, "IVRNo": 120, "EXTVoiceNo": 120, "traveltime": 0, "holidayTraveltime": 0}, {"Id": "0119", "pgp": 0, "GoBack": 2, "SID": 405, "NameZh": "\u6377\u904b\u4e2d\u592e\u516c\u5712\u7ad9", "RouteId": 100, "SeqNo": 4, "Terminal": 0, "DistrictId": 1, "Latitude": 22.6247, "Longitude": 120.30103, "IVRNo": 119, "EXTVoiceNo": 119, "traveltime": 0, "holidayTraveltime": 0}, {"Id": "0037", "pgp": 0, "GoBack": 2, "SID": 825, "NameZh": "\u57ce\u5e02\u5149\u5eca(\u6377\u904b\u4e2d\u592e\u516c\u5712\u7ad9)", "RouteId": 100, "SeqNo": 5, "Terminal": 0, "DistrictId": 1, "Latitude": 22.623033, "Longitude": 120.300356, "IVRNo": 37, "EXTVoiceNo": 37, "traveltime": 0, "holidayTraveltime": 0}, {"Id": "9935", "pgp": 0, "GoBack": 2, "SID": 12288, "NameZh": "\u5927\u7acb\u767e\u8ca8(\u6587\u6b66\u4e8c\u8857\u53e3)", "RouteId": 100, "SeqNo": 6, "Terminal": 0, "DistrictId": 1, "Latitude": 22.621986, "Longitude": 120.297313, "IVRNo": 9935, "EXTVoiceNo": 9935, "traveltime": 0, "holidayTraveltime": 0}, {"Id": "1027", "pgp": 0, "GoBack": 2, "SID": 91, "NameZh": "\u6f22\u795e\u767e\u8ca8", "RouteId": 100, "SeqNo": 7, "Terminal": 0, "DistrictId": 1, "Latitude": 22.619188, "Longitude": 120.295624, "IVRNo": 1027, "EXTVoiceNo": 1027, "traveltime": 0, "holidayTraveltime": 0}, {"Id": "1624", "pgp": 0, "GoBack": 2, "SID": 874, "NameZh": "\u82d3\u96c5\u5e02\u5834", "RouteId": 100, "SeqNo": 8, "Terminal": 0, "DistrictId": 1, "Latitude": 22.616798, "Longitude": 120.296654, "IVRNo": 1624, "EXTVoiceNo": 1624, "traveltime": 0, "holidayTraveltime": 0}, {"Id": "1623", "pgp": 0, "GoBack": 2, "SID": 879, "NameZh": "\u6210\u529f\u570b\u5c0f", "RouteId": 100, "SeqNo": 9, "Terminal": 0, "DistrictId": 1, "Latitude": 22.613894, "Longitude": 120.297617, "IVRNo": 1623, "EXTVoiceNo": 1623, "traveltime": 0, "holidayTraveltime": 0}, {"Id": "1517", "pgp": 0, "GoBack": 2, "SID": 792, "NameZh": "\u516b\u4e94\u5927\u6a13", "RouteId": 100, "SeqNo": 10, "Terminal": 0, "DistrictId": 1, "Latitude": 22.61242, "Longitude": 120.3, "IVRNo": 1517, "EXTVoiceNo": 1517, "traveltime": 0, "holidayTraveltime": 0}, {"Id": "4087", "pgp": 0, "GoBack": 2, "SID": 909, "NameZh": "\u81ea\u5f37\u4e09\u8def\u53e3(\u4e09\u591a\u56db\u8def)", "RouteId": 100, "SeqNo": 11, "Terminal": 0, "DistrictId": 1, "Latitude": 22.612672, "Longitude": 120.300942, "IVRNo": 1662, "EXTVoiceNo": 4087, "traveltime": 0, "holidayTraveltime": 0}, {"Id": "1516", "pgp": 0, "GoBack": 2, "SID": 795, "NameZh": "\u5927\u9060\u767e\u767e\u8ca8(\u6377\u904b\u4e09\u591a\u5546\u5708\u7ad9)", "RouteId": 100, "SeqNo": 12, "Terminal": 0, "DistrictId": 1, "Latitude": 22.613502, "Longitude": 120.303276, "IVRNo": 1516, "EXTVoiceNo": 1516, "traveltime": 0, "holidayTraveltime": 0}, {"Id": "2371", "pgp": 0, "GoBack": 2, "SID": 17277, "NameZh": "\u65b0\u5149\u4e09\u8d8a(\u6377\u904b\u4e09\u591a\u5546\u5708\u7ad9)", "RouteId": 100, "SeqNo": 13, "Terminal": 0, "DistrictId": 1, "Latitude": 22.614464, "Longitude": 120.306187, "IVRNo": 2046, "EXTVoiceNo": 32371, "traveltime": 0, "holidayTraveltime": 0}, {"Id": "1645", "pgp": 0, "GoBack": 2, "SID": 885, "NameZh": "\u4e09\u591a\u4e09\u8def", "RouteId": 100, "SeqNo": 14, "Terminal": 0, "DistrictId": 1, "Latitude": 22.615385, "Longitude": 120.309006, "IVRNo": 1619, "EXTVoiceNo": 1645, "traveltime": 0, "holidayTraveltime": 0}, {"Id": "1646", "pgp": 0, "GoBack": 2, "SID": 886, "NameZh": "\u4ec1\u611b\u4e09\u8857\u53e3", "RouteId": 100, "SeqNo": 15, "Terminal": 0, "DistrictId": 1, "Latitude": 22.615933, "Longitude": 120.310733, "IVRNo": 1618, "EXTVoiceNo": 1646, "traveltime": 0, "holidayTraveltime": 0}, {"Id": "2157", "pgp": 0, "GoBack": 2, "SID": 892, "NameZh": "\u4e09\u591a\u5fa9\u8208\u8def\u53e3", "RouteId": 100, "SeqNo": 16, "Terminal": 0, "DistrictId": 1, "Latitude": 22.61645, "Longitude": 120.31235, "IVRNo": 1425, "EXTVoiceNo": 2157, "traveltime": 0, "holidayTraveltime": 0}, {"Id": "1648", "pgp": 0, "GoBack": 2, "SID": 893, "NameZh": "\u4e09\u591a\u5e02\u5834(\u4e09\u591a\u4e09\u8def)", "RouteId": 100, "SeqNo": 17, "Terminal": 0, "DistrictId": 1, "Latitude": 22.61735, "Longitude": 120.314883, "IVRNo": 1120, "EXTVoiceNo": 1648, "traveltime": 0, "holidayTraveltime": 0}, {"Id": "1049", "pgp": 0, "GoBack": 2, "SID": 117, "NameZh": "\u5149\u83ef\u8def\u53e3(\u5149\u83ef\u591c\u5e02)", "RouteId": 100, "SeqNo": 18, "Terminal": 0, "DistrictId": 1, "Latitude": 22.618416, "Longitude": 120.318233, "IVRNo": 1049, "EXTVoiceNo": 1049, "traveltime": 0, "holidayTraveltime": 0}, {"Id": "1050", "pgp": 0, "GoBack": 2, "SID": 125, "NameZh": "\u6797\u5fb7\u5b98(\u4e09\u548c\u5e02\u5834)", "RouteId": 100, "SeqNo": 19, "Terminal": 0, "DistrictId": 1, "Latitude": 22.618872, "Longitude": 120.319796, "IVRNo": 1014, "EXTVoiceNo": 1050, "traveltime": 0, "holidayTraveltime": 0}, {"Id": "1051", "pgp": 0, "GoBack": 2, "SID": 126, "NameZh": "\u548c\u5e73\u8def\u53e3", "RouteId": 100, "SeqNo": 20, "Terminal": 0, "DistrictId": 1, "Latitude": 22.619303, "Longitude": 120.321102, "IVRNo": 1013, "EXTVoiceNo": 1051, "traveltime": 0, "holidayTraveltime": 0}, {"Id": "0108", "pgp": 0, "GoBack": 2, "SID": 132, "NameZh": "\u4e94\u6b0a\u570b\u5c0f(\u4e09\u591a\u4e8c\u8def)", "RouteId": 100, "SeqNo": 21, "Terminal": 0, "DistrictId": 1, "Latitude": 22.620194, "Longitude": 120.323886, "IVRNo": 108, "EXTVoiceNo": 108, "traveltime": 0, "holidayTraveltime": 0}, {"Id": "0139", "pgp": 0, "GoBack": 2, "SID": 555, "NameZh": "\u570b\u969b\u5546\u5de5", "RouteId": 100, "SeqNo": 22, "Terminal": 0, "DistrictId": 1, "Latitude": 22.62105, "Longitude": 120.3265, "IVRNo": 107, "EXTVoiceNo": 139, "traveltime": 0, "holidayTraveltime": 0}, {"Id": "0140", "pgp": 0, "GoBack": 2, "SID": 569, "NameZh": "\u4e09\u4fe1\u5bb6\u5546", "RouteId": 100, "SeqNo": 23, "Terminal": 0, "DistrictId": 1, "Latitude": 22.62195, "Longitude": 120.329316, "IVRNo": 106, "EXTVoiceNo": 140, "traveltime": 0, "holidayTraveltime": 0}, {"Id": "0791", "pgp": 0, "GoBack": 2, "SID": 896, "NameZh": "\u4e94\u584a\u539d(\u6b66\u6176\u4e09\u8def)", "RouteId": 100, "SeqNo": 24, "Terminal": 0, "DistrictId": 1, "Latitude": 22.62145, "Longitude": 120.331683, "IVRNo": 791, "EXTVoiceNo": 791, "traveltime": 0, "holidayTraveltime": 0}, {"Id": "1608", "pgp": 0, "GoBack": 2, "SID": 897, "NameZh": "\u6b66\u6176\u4e09\u8def", "RouteId": 100, "SeqNo": 25, "Terminal": 0, "DistrictId": 1, "Latitude": 22.619716, "Longitude": 120.331866, "IVRNo": 1608, "EXTVoiceNo": 1608, "traveltime": 0, "holidayTraveltime": 0}, {"Id": "1607", "pgp": 0, "GoBack": 2, "SID": 899, "NameZh": "\u9435\u8def\u6a5f\u5ee0", "RouteId": 100, "SeqNo": 26, "Terminal": 0, "DistrictId": 1, "Latitude": 22.616978, "Longitude": 120.332133, "IVRNo": 1607, "EXTVoiceNo": 1607, "traveltime": 0, "holidayTraveltime": 0}, {"Id": "9982", "pgp": 0, "GoBack": 2, "SID": 12823, "NameZh": "\u9cf3\u5c71\u5de5\u696d\u5340(\u76e3\u7406\u6240\u5f8c)", "RouteId": 100, "SeqNo": 27, "Terminal": 0, "DistrictId": 1, "Latitude": 22.614653, "Longitude": 120.332408, "IVRNo": 9002, "EXTVoiceNo": 9982, "traveltime": 0, "holidayTraveltime": 0}, {"Id": "1605", "pgp": 0, "GoBack": 2, "SID": 903, "NameZh": "\u9435\u8def\u6a5f\u6599\u5ee0", "RouteId": 100, "SeqNo": 28, "Terminal": 0, "DistrictId": 1, "Latitude": 22.612681, "Longitude": 120.332553, "IVRNo": 1605, "EXTVoiceNo": 1605, "traveltime": 0, "holidayTraveltime": 0}, {"Id": "7117", "pgp": 0, "GoBack": 2, "SID": 905, "NameZh": "\u5d17\u5c71\u5317\u8857\u53e3", "RouteId": 100, "SeqNo": 29, "Terminal": 0, "DistrictId": 1, "Latitude": 22.60985, "Longitude": 120.333022, "IVRNo": 1604, "EXTVoiceNo": 17117, "traveltime": 0, "holidayTraveltime": 0}, {"Id": "7116", "pgp": 0, "GoBack": 2, "SID": 906, "NameZh": "\u5d17\u5c71\u5e02\u5834", "RouteId": 100, "SeqNo": 30, "Terminal": 0, "DistrictId": 1, "Latitude": 22.607278, "Longitude": 120.333356, "IVRNo": 1603, "EXTVoiceNo": 17116, "traveltime": 0, "holidayTraveltime": 0}, {"Id": "1202", "pgp": 0, "GoBack": 2, "SID": 384, "NameZh": "\u6c38\u8c50\u8def\u53e3", "RouteId": 100, "SeqNo": 31, "Terminal": 0, "DistrictId": 1, "Latitude": 22.605583, "Longitude": 120.334383, "IVRNo": 1202, "EXTVoiceNo": 1202, "traveltime": 0, "holidayTraveltime": 0}, {"Id": "1000", "pgp": 0, "GoBack": 2, "SID": 288, "NameZh": "\u745e\u8c50\u7ad9(\u745e\u9686\u8def)", "RouteId": 100, "SeqNo": 32, "Terminal": 1, "DistrictId": 1, "Latitude": 22.60585, "Longitude": 120.33775, "IVRNo": 1000, "EXTVoiceNo": 1000, "traveltime": 0, "holidayTraveltime": 0}]}