{"en": [{"Id": "0365", "pgp": 0, "GoBack": 1, "SID": 5813, "NameZh": "Siansheng Rd. Intersection", "RouteId": 8361, "SeqNo": 1, "Terminal": 0, "DistrictId": 1, "Latitude": 22.681353, "Longitude": 120.281506, "IVRNo": 8851, "EXTVoiceNo": 20365, "traveltime": 0, "holidayTraveltime": 0}, {"Id": "8797", "pgp": 0, "GoBack": 1, "SID": 5756, "NameZh": "Jieshou Rd. (Zuoying Naval District)", "RouteId": 8361, "SeqNo": 2, "Terminal": 0, "DistrictId": 1, "Latitude": 22.68095, "Longitude": 120.28573, "IVRNo": 8797, "EXTVoiceNo": 8797, "traveltime": 0, "holidayTraveltime": 0}, {"Id": "8001", "pgp": 0, "GoBack": 1, "SID": 5407, "NameZh": "Zuoying South Station", "RouteId": 8361, "SeqNo": 3, "Terminal": 0, "DistrictId": 1, "Latitude": 22.679377, "Longitude": 120.287391, "IVRNo": 8000, "EXTVoiceNo": 8001, "traveltime": 0, "holidayTraveltime": 0}, {"Id": "4765", "pgp": 0, "GoBack": 1, "SID": 3451, "NameZh": "Haicing Vocational High School of Technology and Commerce", "RouteId": 8361, "SeqNo": 4, "Terminal": 0, "DistrictId": 1, "Latitude": 22.674871, "Longitude": 120.286505, "IVRNo": 4723, "EXTVoiceNo": 4765, "traveltime": 0, "holidayTraveltime": 0}, {"Id": "5844", "pgp": 0, "GoBack": 1, "SID": 4386, "NameZh": "Guomao Community", "RouteId": 8361, "SeqNo": 5, "Terminal": 0, "DistrictId": 1, "Latitude": 22.67008, "Longitude": 120.28646, "IVRNo": 5840, "EXTVoiceNo": 5844, "traveltime": 0, "holidayTraveltime": 0}, {"Id": "7321", "pgp": 0, "GoBack": 1, "SID": 4836, "NameZh": "Cianfong Community", "RouteId": 8361, "SeqNo": 6, "Terminal": 0, "DistrictId": 1, "Latitude": 22.667215, "Longitude": 120.285462, "IVRNo": 7321, "EXTVoiceNo": 7321, "traveltime": 0, "holidayTraveltime": 0}, {"Id": "7322", "pgp": 0, "GoBack": 1, "SID": 4842, "NameZh": "Mingchuan Rd. Intersection (Jiouru 4th Rd.)", "RouteId": 8361, "SeqNo": 7, "Terminal": 0, "DistrictId": 1, "Latitude": 22.665883, "Longitude": 120.28415, "IVRNo": 4720, "EXTVoiceNo": 7322, "traveltime": 0, "holidayTraveltime": 0}, {"Id": "7323", "pgp": 0, "GoBack": 1, "SID": 4844, "NameZh": "Jiouru 4th Rd. Intersection (Fongjia Rd. )", "RouteId": 8361, "SeqNo": 8, "Terminal": 0, "DistrictId": 1, "Latitude": 22.66376, "Longitude": 120.28348, "IVRNo": 7323, "EXTVoiceNo": 7323, "traveltime": 0, "holidayTraveltime": 0}, {"Id": "2250", "pgp": 0, "GoBack": 1, "SID": 5319, "NameZh": "Kaohsiung Museum of Fine Arts (Mingcheng 4th Rd.)", "RouteId": 8361, "SeqNo": 9, "Terminal": 0, "DistrictId": 1, "Latitude": 22.66191, "Longitude": 120.28635, "IVRNo": 7736, "EXTVoiceNo": 12250, "traveltime": 0, "holidayTraveltime": 0}, {"Id": "7712", "pgp": 0, "GoBack": 1, "SID": 5279, "NameZh": "Art E. 4th Rd. Intersection (Mingcheng 4th Rd.)", "RouteId": 8361, "SeqNo": 10, "Terminal": 0, "DistrictId": 1, "Latitude": 22.66115, "Longitude": 120.28987, "IVRNo": 7712, "EXTVoiceNo": 7712, "traveltime": 0, "holidayTraveltime": 0}, {"Id": "0491", "pgp": 0, "GoBack": 1, "SID": 5317, "NameZh": "Art E. 6th St. Intersection (Mingcheng 4th Rd.)", "RouteId": 8361, "SeqNo": 11, "Terminal": 0, "DistrictId": 1, "Latitude": 22.661051, "Longitude": 120.291298, "IVRNo": 7735, "EXTVoiceNo": 20491, "traveltime": 0, "holidayTraveltime": 0}, {"Id": "1426", "pgp": 0, "GoBack": 1, "SID": 5291, "NameZh": "Jhonghua Rd. Intersection (Mingcheng 3rd Rd.)", "RouteId": 8361, "SeqNo": 12, "Terminal": 0, "DistrictId": 1, "Latitude": 22.66104, "Longitude": 120.29321, "IVRNo": 1426, "EXTVoiceNo": 1426, "traveltime": 0, "holidayTraveltime": 0}, {"Id": "0325", "pgp": 0, "GoBack": 1, "SID": 4258, "NameZh": "Minkang St. Intersection", "RouteId": 8361, "SeqNo": 13, "Terminal": 0, "DistrictId": 1, "Latitude": 22.66187, "Longitude": 120.29421, "IVRNo": 5678, "EXTVoiceNo": 20325, "traveltime": 0, "holidayTraveltime": 0}, {"Id": "5677", "pgp": 0, "GoBack": 1, "SID": 4261, "NameZh": "Yufong St. Intersection", "RouteId": 8361, "SeqNo": 14, "Terminal": 0, "DistrictId": 1, "Latitude": 22.66486, "Longitude": 120.29488, "IVRNo": 5677, "EXTVoiceNo": 5677, "traveltime": 0, "holidayTraveltime": 0}, {"Id": "0484", "pgp": 0, "GoBack": 1, "SID": 5713, "NameZh": "Minglun Rd. Intersection", "RouteId": 8361, "SeqNo": 15, "Terminal": 0, "DistrictId": 1, "Latitude": 22.665775, "Longitude": 120.29739, "IVRNo": 8756, "EXTVoiceNo": 20484, "traveltime": 0, "holidayTraveltime": 0}, {"Id": "5063", "pgp": 0, "GoBack": 1, "SID": 5771, "NameZh": "Wunsin Rd. Intersection", "RouteId": 8361, "SeqNo": 16, "Terminal": 0, "DistrictId": 1, "Latitude": 22.664607, "Longitude": 120.30087, "IVRNo": 5063, "EXTVoiceNo": 5063, "traveltime": 0, "holidayTraveltime": 0}, {"Id": "0032", "pgp": 0, "GoBack": 1, "SID": 5708, "NameZh": "MRT Kaohsiung Arena Station (Dujing Rd. Intersection)", "RouteId": 8361, "SeqNo": 17, "Terminal": 0, "DistrictId": 1, "Latitude": 22.66453, "Longitude": 120.30276, "IVRNo": 8607, "EXTVoiceNo": 32, "traveltime": 0, "holidayTraveltime": 0}, {"Id": "0033", "pgp": 0, "GoBack": 1, "SID": 17857, "NameZh": "Liwen Rd.", "RouteId": 8361, "SeqNo": 18, "Terminal": 0, "DistrictId": 1, "Latitude": 22.664468, "Longitude": 120.30586, "IVRNo": 7620, "EXTVoiceNo": 33, "traveltime": 0, "holidayTraveltime": 0}, {"Id": "8969", "pgp": 0, "GoBack": 1, "SID": 4168, "NameZh": "Fuguo Rd. Intersection", "RouteId": 8361, "SeqNo": 19, "Terminal": 0, "DistrictId": 1, "Latitude": 22.66527, "Longitude": 120.30731, "IVRNo": 2218, "EXTVoiceNo": 8969, "traveltime": 0, "holidayTraveltime": 0}, {"Id": "5715", "pgp": 0, "GoBack": 1, "SID": 4320, "NameZh": "Lisin Rd. Intersection", "RouteId": 8361, "SeqNo": 20, "Terminal": 0, "DistrictId": 1, "Latitude": 22.66604, "Longitude": 120.30894, "IVRNo": 5625, "EXTVoiceNo": 5715, "traveltime": 0, "holidayTraveltime": 0}, {"Id": "0497", "pgp": 0, "GoBack": 1, "SID": 4249, "NameZh": "Beiji Temple (Zuoying)", "RouteId": 8361, "SeqNo": 21, "Terminal": 0, "DistrictId": 1, "Latitude": 22.66843, "Longitude": 120.31025, "IVRNo": 497, "EXTVoiceNo": 497, "traveltime": 0, "holidayTraveltime": 0}, {"Id": "5676", "pgp": 0, "GoBack": 1, "SID": 4253, "NameZh": "Singlong Temple", "RouteId": 8361, "SeqNo": 22, "Terminal": 0, "DistrictId": 1, "Latitude": 22.66845, "Longitude": 120.31268, "IVRNo": 5614, "EXTVoiceNo": 5676, "traveltime": 0, "holidayTraveltime": 0}, {"Id": "8303", "pgp": 0, "GoBack": 1, "SID": 3937, "NameZh": "Minzu 1st Rd. Intersection", "RouteId": 8361, "SeqNo": 23, "Terminal": 0, "DistrictId": 1, "Latitude": 22.66842, "Longitude": 120.31599, "IVRNo": 5209, "EXTVoiceNo": 8303, "traveltime": 0, "holidayTraveltime": 0}, {"Id": "7062", "pgp": 0, "GoBack": 1, "SID": 4637, "NameZh": "Tiansiang 1st Rd.", "RouteId": 8361, "SeqNo": 24, "Terminal": 0, "DistrictId": 1, "Latitude": 22.667723, "Longitude": 120.318646, "IVRNo": 7030, "EXTVoiceNo": 7062, "traveltime": 0, "holidayTraveltime": 0}, {"Id": "5054", "pgp": 0, "GoBack": 1, "SID": 3701, "NameZh": "Dingciang St. Intersection", "RouteId": 8361, "SeqNo": 25, "Terminal": 0, "DistrictId": 1, "Latitude": 22.667185, "Longitude": 120.320903, "IVRNo": 5002, "EXTVoiceNo": 5054, "traveltime": 0, "holidayTraveltime": 0}, {"Id": "5102", "pgp": 0, "GoBack": 1, "SID": 3742, "NameZh": "Dingli Rd.", "RouteId": 8361, "SeqNo": 26, "Terminal": 0, "DistrictId": 1, "Latitude": 22.66825, "Longitude": 120.32343, "IVRNo": 5102, "EXTVoiceNo": 5102, "traveltime": 0, "holidayTraveltime": 0}, {"Id": "5203", "pgp": 0, "GoBack": 1, "SID": 3864, "NameZh": "Dingjinhou Rd.", "RouteId": 8361, "SeqNo": 27, "Terminal": 0, "DistrictId": 1, "Latitude": 22.66981, "Longitude": 120.32522, "IVRNo": 5203, "EXTVoiceNo": 5203, "traveltime": 0, "holidayTraveltime": 0}, {"Id": "5204", "pgp": 0, "GoBack": 1, "SID": 3868, "NameZh": "Dingguei Rd. Intersection (Shihhu Elementary School)", "RouteId": 8361, "SeqNo": 28, "Terminal": 0, "DistrictId": 1, "Latitude": 22.67245, "Longitude": 120.32312, "IVRNo": 5004, "EXTVoiceNo": 5204, "traveltime": 0, "holidayTraveltime": 0}, {"Id": "1097", "pgp": 0, "GoBack": 1, "SID": 3691, "NameZh": "Wenzao Ursuline University of Languages (Dingjhong Rd.)", "RouteId": 8361, "SeqNo": 29, "Terminal": 1, "DistrictId": 1, "Latitude": 22.671286, "Longitude": 120.320846, "IVRNo": 1097, "EXTVoiceNo": 1097, "traveltime": 0, "holidayTraveltime": 0}, {"Id": "1097", "pgp": 0, "GoBack": 2, "SID": 18409, "NameZh": "Wenzao Ursuline University of Languages (Dingjhong Rd.)", "RouteId": 8361, "SeqNo": 1, "Terminal": 0, "DistrictId": 1, "Latitude": 22.670991, "Longitude": 120.320767, "IVRNo": 1097, "EXTVoiceNo": 1097, "traveltime": 0, "holidayTraveltime": 0}, {"Id": "1093", "pgp": 0, "GoBack": 2, "SID": 4709, "NameZh": "Dingjhong (Tiansiang 1st Rd.)", "RouteId": 8361, "SeqNo": 2, "Terminal": 0, "DistrictId": 1, "Latitude": 22.668296, "Longitude": 120.31995, "IVRNo": 1093, "EXTVoiceNo": 1093, "traveltime": 0, "holidayTraveltime": 0}, {"Id": "7062", "pgp": 0, "GoBack": 2, "SID": 4627, "NameZh": "Tiansiang 1st Rd.", "RouteId": 8361, "SeqNo": 3, "Terminal": 0, "DistrictId": 1, "Latitude": 22.667876, "Longitude": 120.318417, "IVRNo": 7030, "EXTVoiceNo": 7062, "traveltime": 0, "holidayTraveltime": 0}, {"Id": "8303", "pgp": 0, "GoBack": 2, "SID": 3879, "NameZh": "Minzu 1st Rd. Intersection", "RouteId": 8361, "SeqNo": 4, "Terminal": 0, "DistrictId": 1, "Latitude": 22.66842, "Longitude": 120.31599, "IVRNo": 5209, "EXTVoiceNo": 8303, "traveltime": 0, "holidayTraveltime": 0}, {"Id": "5676", "pgp": 0, "GoBack": 2, "SID": 4122, "NameZh": "Singlong Temple", "RouteId": 8361, "SeqNo": 5, "Terminal": 0, "DistrictId": 1, "Latitude": 22.66858, "Longitude": 120.3124, "IVRNo": 5614, "EXTVoiceNo": 5676, "traveltime": 0, "holidayTraveltime": 0}, {"Id": "5715", "pgp": 0, "GoBack": 2, "SID": 4303, "NameZh": "Lisin Rd. Intersection", "RouteId": 8361, "SeqNo": 6, "Terminal": 0, "DistrictId": 1, "Latitude": 22.666, "Longitude": 120.30889, "IVRNo": 5625, "EXTVoiceNo": 5715, "traveltime": 0, "holidayTraveltime": 0}, {"Id": "8969", "pgp": 0, "GoBack": 2, "SID": 4211, "NameZh": "Fuguo Rd. Intersection", "RouteId": 8361, "SeqNo": 7, "Terminal": 0, "DistrictId": 1, "Latitude": 22.66522, "Longitude": 120.30767, "IVRNo": 2218, "EXTVoiceNo": 8969, "traveltime": 0, "holidayTraveltime": 0}, {"Id": "0033", "pgp": 0, "GoBack": 2, "SID": 17858, "NameZh": "Liwen Rd.", "RouteId": 8361, "SeqNo": 8, "Terminal": 0, "DistrictId": 1, "Latitude": 22.664468, "Longitude": 120.30586, "IVRNo": 7620, "EXTVoiceNo": 33, "traveltime": 0, "holidayTraveltime": 0}, {"Id": "0032", "pgp": 0, "GoBack": 2, "SID": 5703, "NameZh": "MRT Kaohsiung Arena Station (Dujing Rd. Intersection)", "RouteId": 8361, "SeqNo": 9, "Terminal": 0, "DistrictId": 1, "Latitude": 22.66459, "Longitude": 120.30296, "IVRNo": 8607, "EXTVoiceNo": 32, "traveltime": 0, "holidayTraveltime": 0}, {"Id": "5063", "pgp": 0, "GoBack": 2, "SID": 5774, "NameZh": "Wunsin Rd. Intersection", "RouteId": 8361, "SeqNo": 10, "Terminal": 0, "DistrictId": 1, "Latitude": 22.664537, "Longitude": 120.301037, "IVRNo": 5063, "EXTVoiceNo": 5063, "traveltime": 0, "holidayTraveltime": 0}, {"Id": "0484", "pgp": 0, "GoBack": 2, "SID": 5714, "NameZh": "Minglun Rd. Intersection", "RouteId": 8361, "SeqNo": 11, "Terminal": 0, "DistrictId": 1, "Latitude": 22.665842, "Longitude": 120.297667, "IVRNo": 8756, "EXTVoiceNo": 20484, "traveltime": 0, "holidayTraveltime": 0}, {"Id": "5677", "pgp": 0, "GoBack": 2, "SID": 4264, "NameZh": "Yufong St. Intersection", "RouteId": 8361, "SeqNo": 12, "Terminal": 0, "DistrictId": 1, "Latitude": 22.66497, "Longitude": 120.29493, "IVRNo": 5677, "EXTVoiceNo": 5677, "traveltime": 0, "holidayTraveltime": 0}, {"Id": "0325", "pgp": 0, "GoBack": 2, "SID": 4265, "NameZh": "Minkang St. Intersection", "RouteId": 8361, "SeqNo": 13, "Terminal": 0, "DistrictId": 1, "Latitude": 22.6622, "Longitude": 120.29422, "IVRNo": 5678, "EXTVoiceNo": 20325, "traveltime": 0, "holidayTraveltime": 0}, {"Id": "1426", "pgp": 0, "GoBack": 2, "SID": 5277, "NameZh": "Jhonghua Rd. Intersection (Mingcheng 3rd Rd.)", "RouteId": 8361, "SeqNo": 14, "Terminal": 0, "DistrictId": 1, "Latitude": 22.66123, "Longitude": 120.29333, "IVRNo": 1426, "EXTVoiceNo": 1426, "traveltime": 0, "holidayTraveltime": 0}, {"Id": "0491", "pgp": 0, "GoBack": 2, "SID": 5322, "NameZh": "Art E. 6th St. Intersection (Mingcheng 4th Rd.)", "RouteId": 8361, "SeqNo": 15, "Terminal": 0, "DistrictId": 1, "Latitude": 22.66128, "Longitude": 120.2911, "IVRNo": 7735, "EXTVoiceNo": 20491, "traveltime": 0, "holidayTraveltime": 0}, {"Id": "7712", "pgp": 0, "GoBack": 2, "SID": 5280, "NameZh": "Art E. 4th Rd. Intersection (Mingcheng 4th Rd.)", "RouteId": 8361, "SeqNo": 16, "Terminal": 0, "DistrictId": 1, "Latitude": 22.661371, "Longitude": 120.289686, "IVRNo": 7712, "EXTVoiceNo": 7712, "traveltime": 0, "holidayTraveltime": 0}, {"Id": "2250", "pgp": 0, "GoBack": 2, "SID": 5321, "NameZh": "Kaohsiung Museum of Fine Arts (Mingcheng 4th Rd.)", "RouteId": 8361, "SeqNo": 17, "Terminal": 0, "DistrictId": 1, "Latitude": 22.66205, "Longitude": 120.28635, "IVRNo": 7736, "EXTVoiceNo": 12250, "traveltime": 0, "holidayTraveltime": 0}, {"Id": "7323", "pgp": 0, "GoBack": 2, "SID": 4917, "NameZh": "Jiouru 4th Rd. Intersection (Fongjia Rd. )", "RouteId": 8361, "SeqNo": 18, "Terminal": 0, "DistrictId": 1, "Latitude": 22.6637, "Longitude": 120.28369, "IVRNo": 7323, "EXTVoiceNo": 7323, "traveltime": 0, "holidayTraveltime": 0}, {"Id": "7322", "pgp": 0, "GoBack": 2, "SID": 4923, "NameZh": "Mingchuan Rd. Intersection (Jiouru 4th Rd.)", "RouteId": 8361, "SeqNo": 19, "Terminal": 0, "DistrictId": 1, "Latitude": 22.6658, "Longitude": 120.284305, "IVRNo": 4720, "EXTVoiceNo": 7322, "traveltime": 0, "holidayTraveltime": 0}, {"Id": "7321", "pgp": 0, "GoBack": 2, "SID": 4926, "NameZh": "Cianfong Community", "RouteId": 8361, "SeqNo": 20, "Terminal": 0, "DistrictId": 1, "Latitude": 22.667512, "Longitude": 120.285441, "IVRNo": 7321, "EXTVoiceNo": 7321, "traveltime": 0, "holidayTraveltime": 0}, {"Id": "5844", "pgp": 0, "GoBack": 2, "SID": 4380, "NameZh": "Guomao Community", "RouteId": 8361, "SeqNo": 21, "Terminal": 0, "DistrictId": 1, "Latitude": 22.67096, "Longitude": 120.28669, "IVRNo": 5840, "EXTVoiceNo": 5844, "traveltime": 0, "holidayTraveltime": 0}, {"Id": "4765", "pgp": 0, "GoBack": 2, "SID": 3245, "NameZh": "Haicing Vocational High School of Technology and Commerce", "RouteId": 8361, "SeqNo": 22, "Terminal": 0, "DistrictId": 1, "Latitude": 22.674389, "Longitude": 120.286593, "IVRNo": 4723, "EXTVoiceNo": 4765, "traveltime": 0, "holidayTraveltime": 0}, {"Id": "9183", "pgp": 0, "GoBack": 2, "SID": 18214, "NameZh": "Chongshih New Village (Zuoying S. Station)", "RouteId": 8361, "SeqNo": 23, "Terminal": 0, "DistrictId": 1, "Latitude": 22.677932, "Longitude": 120.286587, "IVRNo": 19183, "EXTVoiceNo": 19183, "traveltime": 0, "holidayTraveltime": 0}, {"Id": "8797", "pgp": 0, "GoBack": 2, "SID": 5758, "NameZh": "Jieshou Rd. (Zuoying Naval District)", "RouteId": 8361, "SeqNo": 24, "Terminal": 0, "DistrictId": 1, "Latitude": 22.681067, "Longitude": 120.285709, "IVRNo": 8797, "EXTVoiceNo": 8797, "traveltime": 0, "holidayTraveltime": 0}, {"Id": "0365", "pgp": 0, "GoBack": 2, "SID": 5815, "NameZh": "Siansheng Rd. Intersection", "RouteId": 8361, "SeqNo": 25, "Terminal": 1, "DistrictId": 1, "Latitude": 22.681384, "Longitude": 120.281506, "IVRNo": 8851, "EXTVoiceNo": 20365, "traveltime": 0, "holidayTraveltime": 0}], "zh": [{"Id": "0365", "pgp": 0, "GoBack": 1, "SID": 5813, "NameZh": "\u5148\u52dd\u8def\u53e3", "RouteId": 8361, "SeqNo": 1, "Terminal": 0, "DistrictId": 1, "Latitude": 22.681353, "Longitude": 120.281506, "IVRNo": 8851, "EXTVoiceNo": 20365, "traveltime": 0, "holidayTraveltime": 0}, {"Id": "8797", "pgp": 0, "GoBack": 1, "SID": 5756, "NameZh": "\u4ecb\u58fd\u8def(\u5de6\u71df\u6d77\u8ecd\u8ecd\u5340)", "RouteId": 8361, "SeqNo": 2, "Terminal": 0, "DistrictId": 1, "Latitude": 22.68095, "Longitude": 120.28573, "IVRNo": 8797, "EXTVoiceNo": 8797, "traveltime": 0, "holidayTraveltime": 0}, {"Id": "8001", "pgp": 0, "GoBack": 1, "SID": 5407, "NameZh": "\u5de6\u71df\u5357\u7ad9", "RouteId": 8361, "SeqNo": 3, "Terminal": 0, "DistrictId": 1, "Latitude": 22.679377, "Longitude": 120.287391, "IVRNo": 8000, "EXTVoiceNo": 8001, "traveltime": 0, "holidayTraveltime": 0}, {"Id": "4765", "pgp": 0, "GoBack": 1, "SID": 3451, "NameZh": "\u6d77\u9752\u5de5\u5546", "RouteId": 8361, "SeqNo": 4, "Terminal": 0, "DistrictId": 1, "Latitude": 22.674871, "Longitude": 120.286505, "IVRNo": 4723, "EXTVoiceNo": 4765, "traveltime": 0, "holidayTraveltime": 0}, {"Id": "5844", "pgp": 0, "GoBack": 1, "SID": 4386, "NameZh": "\u679c\u8cbf\u793e\u5340", "RouteId": 8361, "SeqNo": 5, "Terminal": 0, "DistrictId": 1, "Latitude": 22.67008, "Longitude": 120.28646, "IVRNo": 5840, "EXTVoiceNo": 5844, "traveltime": 0, "holidayTraveltime": 0}, {"Id": "7321", "pgp": 0, "GoBack": 1, "SID": 4836, "NameZh": "\u524d\u92d2\u793e\u5340", "RouteId": 8361, "SeqNo": 6, "Terminal": 0, "DistrictId": 1, "Latitude": 22.667215, "Longitude": 120.285462, "IVRNo": 7321, "EXTVoiceNo": 7321, "traveltime": 0, "holidayTraveltime": 0}, {"Id": "7322", "pgp": 0, "GoBack": 1, "SID": 4842, "NameZh": "\u9298\u50b3\u8def\u53e3(\u4e5d\u5982\u56db\u8def)", "RouteId": 8361, "SeqNo": 7, "Terminal": 0, "DistrictId": 1, "Latitude": 22.665883, "Longitude": 120.28415, "IVRNo": 4720, "EXTVoiceNo": 7322, "traveltime": 0, "holidayTraveltime": 0}, {"Id": "7323", "pgp": 0, "GoBack": 1, "SID": 4844, "NameZh": "\u4e5d\u5982\u56db\u8def\u53e3(\u9022\u7532\u8def)", "RouteId": 8361, "SeqNo": 8, "Terminal": 0, "DistrictId": 1, "Latitude": 22.66376, "Longitude": 120.28348, "IVRNo": 7323, "EXTVoiceNo": 7323, "traveltime": 0, "holidayTraveltime": 0}, {"Id": "2250", "pgp": 0, "GoBack": 1, "SID": 5319, "NameZh": "\u7f8e\u8853\u9928(\u660e\u8aa0\u56db\u8def)", "RouteId": 8361, "SeqNo": 9, "Terminal": 0, "DistrictId": 1, "Latitude": 22.66191, "Longitude": 120.28635, "IVRNo": 7736, "EXTVoiceNo": 12250, "traveltime": 0, "holidayTraveltime": 0}, {"Id": "7712", "pgp": 0, "GoBack": 1, "SID": 5279, "NameZh": "\u7f8e\u8853\u6771\u56db\u8def\u53e3(\u660e\u8aa0\u56db\u8def)", "RouteId": 8361, "SeqNo": 10, "Terminal": 0, "DistrictId": 1, "Latitude": 22.66115, "Longitude": 120.28987, "IVRNo": 7712, "EXTVoiceNo": 7712, "traveltime": 0, "holidayTraveltime": 0}, {"Id": "0491", "pgp": 0, "GoBack": 1, "SID": 5317, "NameZh": "\u7f8e\u8853\u6771\u516d\u8857\u53e3(\u660e\u8aa0\u56db\u8def)", "RouteId": 8361, "SeqNo": 11, "Terminal": 0, "DistrictId": 1, "Latitude": 22.661051, "Longitude": 120.291298, "IVRNo": 7735, "EXTVoiceNo": 20491, "traveltime": 0, "holidayTraveltime": 0}, {"Id": "1426", "pgp": 0, "GoBack": 1, "SID": 5291, "NameZh": "\u4e2d\u83ef\u8def\u53e3(\u660e\u8aa0\u4e09\u8def)", "RouteId": 8361, "SeqNo": 12, "Terminal": 0, "DistrictId": 1, "Latitude": 22.66104, "Longitude": 120.29321, "IVRNo": 1426, "EXTVoiceNo": 1426, "traveltime": 0, "holidayTraveltime": 0}, {"Id": "0325", "pgp": 0, "GoBack": 1, "SID": 4258, "NameZh": "\u6c11\u5eb7\u8857\u53e3", "RouteId": 8361, "SeqNo": 13, "Terminal": 0, "DistrictId": 1, "Latitude": 22.66187, "Longitude": 120.29421, "IVRNo": 5678, "EXTVoiceNo": 20325, "traveltime": 0, "holidayTraveltime": 0}, {"Id": "5677", "pgp": 0, "GoBack": 1, "SID": 4261, "NameZh": "\u88d5\u8c50\u8857\u53e3", "RouteId": 8361, "SeqNo": 14, "Terminal": 0, "DistrictId": 1, "Latitude": 22.66486, "Longitude": 120.29488, "IVRNo": 5677, "EXTVoiceNo": 5677, "traveltime": 0, "holidayTraveltime": 0}, {"Id": "0484", "pgp": 0, "GoBack": 1, "SID": 5713, "NameZh": "\u660e\u502b\u8def\u53e3", "RouteId": 8361, "SeqNo": 15, "Terminal": 0, "DistrictId": 1, "Latitude": 22.665775, "Longitude": 120.29739, "IVRNo": 8756, "EXTVoiceNo": 20484, "traveltime": 0, "holidayTraveltime": 0}, {"Id": "5063", "pgp": 0, "GoBack": 1, "SID": 5771, "NameZh": "\u6587\u4fe1\u8def\u53e3", "RouteId": 8361, "SeqNo": 16, "Terminal": 0, "DistrictId": 1, "Latitude": 22.664607, "Longitude": 120.30087, "IVRNo": 5063, "EXTVoiceNo": 5063, "traveltime": 0, "holidayTraveltime": 0}, {"Id": "0032", "pgp": 0, "GoBack": 1, "SID": 5708, "NameZh": "\u6377\u904b\u5de8\u86cb\u7ad9(\u7be4\u656c\u8def\u53e3)", "RouteId": 8361, "SeqNo": 17, "Terminal": 0, "DistrictId": 1, "Latitude": 22.66453, "Longitude": 120.30276, "IVRNo": 8607, "EXTVoiceNo": 32, "traveltime": 0, "holidayTraveltime": 0}, {"Id": "0033", "pgp": 0, "GoBack": 1, "SID": 17857, "NameZh": "\u7acb\u6587\u8def", "RouteId": 8361, "SeqNo": 18, "Terminal": 0, "DistrictId": 1, "Latitude": 22.664468, "Longitude": 120.30586, "IVRNo": 7620, "EXTVoiceNo": 33, "traveltime": 0, "holidayTraveltime": 0}, {"Id": "8969", "pgp": 0, "GoBack": 1, "SID": 4168, "NameZh": "\u5bcc\u570b\u8def\u53e3", "RouteId": 8361, "SeqNo": 19, "Terminal": 0, "DistrictId": 1, "Latitude": 22.66527, "Longitude": 120.30731, "IVRNo": 2218, "EXTVoiceNo": 8969, "traveltime": 0, "holidayTraveltime": 0}, {"Id": "5715", "pgp": 0, "GoBack": 1, "SID": 4320, "NameZh": "\u7acb\u4fe1\u8def\u53e3", "RouteId": 8361, "SeqNo": 20, "Terminal": 0, "DistrictId": 1, "Latitude": 22.66604, "Longitude": 120.30894, "IVRNo": 5625, "EXTVoiceNo": 5715, "traveltime": 0, "holidayTraveltime": 0}, {"Id": "0497", "pgp": 0, "GoBack": 1, "SID": 4249, "NameZh": "\u5317\u6975\u6bbf(\u5de6\u71df)", "RouteId": 8361, "SeqNo": 21, "Terminal": 0, "DistrictId": 1, "Latitude": 22.66843, "Longitude": 120.31025, "IVRNo": 497, "EXTVoiceNo": 497, "traveltime": 0, "holidayTraveltime": 0}, {"Id": "5676", "pgp": 0, "GoBack": 1, "SID": 4253, "NameZh": "\u8208\u9686\u5bfa", "RouteId": 8361, "SeqNo": 22, "Terminal": 0, "DistrictId": 1, "Latitude": 22.66845, "Longitude": 120.31268, "IVRNo": 5614, "EXTVoiceNo": 5676, "traveltime": 0, "holidayTraveltime": 0}, {"Id": "8303", "pgp": 0, "GoBack": 1, "SID": 3937, "NameZh": "\u6c11\u65cf\u4e00\u8def\u53e3", "RouteId": 8361, "SeqNo": 23, "Terminal": 0, "DistrictId": 1, "Latitude": 22.66842, "Longitude": 120.31599, "IVRNo": 5209, "EXTVoiceNo": 8303, "traveltime": 0, "holidayTraveltime": 0}, {"Id": "7062", "pgp": 0, "GoBack": 1, "SID": 4637, "NameZh": "\u5929\u7965\u4e00\u8def", "RouteId": 8361, "SeqNo": 24, "Terminal": 0, "DistrictId": 1, "Latitude": 22.667723, "Longitude": 120.318646, "IVRNo": 7030, "EXTVoiceNo": 7062, "traveltime": 0, "holidayTraveltime": 0}, {"Id": "5054", "pgp": 0, "GoBack": 1, "SID": 3701, "NameZh": "\u9f0e\u5f37\u8857\u53e3", "RouteId": 8361, "SeqNo": 25, "Terminal": 0, "DistrictId": 1, "Latitude": 22.667185, "Longitude": 120.320903, "IVRNo": 5002, "EXTVoiceNo": 5054, "traveltime": 0, "holidayTraveltime": 0}, {"Id": "5102", "pgp": 0, "GoBack": 1, "SID": 3742, "NameZh": "\u9f0e\u529b\u8def", "RouteId": 8361, "SeqNo": 26, "Terminal": 0, "DistrictId": 1, "Latitude": 22.66825, "Longitude": 120.32343, "IVRNo": 5102, "EXTVoiceNo": 5102, "traveltime": 0, "holidayTraveltime": 0}, {"Id": "5203", "pgp": 0, "GoBack": 1, "SID": 3864, "NameZh": "\u9f0e\u91d1\u5f8c\u8def", "RouteId": 8361, "SeqNo": 27, "Terminal": 0, "DistrictId": 1, "Latitude": 22.66981, "Longitude": 120.32522, "IVRNo": 5203, "EXTVoiceNo": 5203, "traveltime": 0, "holidayTraveltime": 0}, {"Id": "5204", "pgp": 0, "GoBack": 1, "SID": 3868, "NameZh": "\u9f0e\u8cb4\u8def\u53e3(\u7345\u6e56\u570b\u5c0f)", "RouteId": 8361, "SeqNo": 28, "Terminal": 0, "DistrictId": 1, "Latitude": 22.67245, "Longitude": 120.32312, "IVRNo": 5004, "EXTVoiceNo": 5204, "traveltime": 0, "holidayTraveltime": 0}, {"Id": "1097", "pgp": 0, "GoBack": 1, "SID": 3691, "NameZh": "\u6587\u85fb\u5916\u8a9e\u5927\u5b78(\u9f0e\u4e2d\u8def)", "RouteId": 8361, "SeqNo": 29, "Terminal": 1, "DistrictId": 1, "Latitude": 22.671286, "Longitude": 120.320846, "IVRNo": 1097, "EXTVoiceNo": 1097, "traveltime": 0, "holidayTraveltime": 0}, {"Id": "1097", "pgp": 0, "GoBack": 2, "SID": 18409, "NameZh": "\u6587\u85fb\u5916\u8a9e\u5927\u5b78(\u9f0e\u4e2d\u8def)", "RouteId": 8361, "SeqNo": 1, "Terminal": 0, "DistrictId": 1, "Latitude": 22.670991, "Longitude": 120.320767, "IVRNo": 1097, "EXTVoiceNo": 1097, "traveltime": 0, "holidayTraveltime": 0}, {"Id": "1093", "pgp": 0, "GoBack": 2, "SID": 4709, "NameZh": "\u9f0e\u4e2d\u8def(\u5929\u7965\u4e00\u8def\u53e3)", "RouteId": 8361, "SeqNo": 2, "Terminal": 0, "DistrictId": 1, "Latitude": 22.668296, "Longitude": 120.31995, "IVRNo": 1093, "EXTVoiceNo": 1093, "traveltime": 0, "holidayTraveltime": 0}, {"Id": "7062", "pgp": 0, "GoBack": 2, "SID": 4627, "NameZh": "\u5929\u7965\u4e00\u8def", "RouteId": 8361, "SeqNo": 3, "Terminal": 0, "DistrictId": 1, "Latitude": 22.667876, "Longitude": 120.318417, "IVRNo": 7030, "EXTVoiceNo": 7062, "traveltime": 0, "holidayTraveltime": 0}, {"Id": "8303", "pgp": 0, "GoBack": 2, "SID": 3879, "NameZh": "\u6c11\u65cf\u4e00\u8def\u53e3", "RouteId": 8361, "SeqNo": 4, "Terminal": 0, "DistrictId": 1, "Latitude": 22.66842, "Longitude": 120.31599, "IVRNo": 5209, "EXTVoiceNo": 8303, "traveltime": 0, "holidayTraveltime": 0}, {"Id": "5676", "pgp": 0, "GoBack": 2, "SID": 4122, "NameZh": "\u8208\u9686\u5bfa", "RouteId": 8361, "SeqNo": 5, "Terminal": 0, "DistrictId": 1, "Latitude": 22.66858, "Longitude": 120.3124, "IVRNo": 5614, "EXTVoiceNo": 5676, "traveltime": 0, "holidayTraveltime": 0}, {"Id": "5715", "pgp": 0, "GoBack": 2, "SID": 4303, "NameZh": "\u7acb\u4fe1\u8def\u53e3", "RouteId": 8361, "SeqNo": 6, "Terminal": 0, "DistrictId": 1, "Latitude": 22.666, "Longitude": 120.30889, "IVRNo": 5625, "EXTVoiceNo": 5715, "traveltime": 0, "holidayTraveltime": 0}, {"Id": "8969", "pgp": 0, "GoBack": 2, "SID": 4211, "NameZh": "\u5bcc\u570b\u8def\u53e3", "RouteId": 8361, "SeqNo": 7, "Terminal": 0, "DistrictId": 1, "Latitude": 22.66522, "Longitude": 120.30767, "IVRNo": 2218, "EXTVoiceNo": 8969, "traveltime": 0, "holidayTraveltime": 0}, {"Id": "0033", "pgp": 0, "GoBack": 2, "SID": 17858, "NameZh": "\u7acb\u6587\u8def", "RouteId": 8361, "SeqNo": 8, "Terminal": 0, "DistrictId": 1, "Latitude": 22.664468, "Longitude": 120.30586, "IVRNo": 7620, "EXTVoiceNo": 33, "traveltime": 0, "holidayTraveltime": 0}, {"Id": "0032", "pgp": 0, "GoBack": 2, "SID": 5703, "NameZh": "\u6377\u904b\u5de8\u86cb\u7ad9(\u7be4\u656c\u8def\u53e3)", "RouteId": 8361, "SeqNo": 9, "Terminal": 0, "DistrictId": 1, "Latitude": 22.66459, "Longitude": 120.30296, "IVRNo": 8607, "EXTVoiceNo": 32, "traveltime": 0, "holidayTraveltime": 0}, {"Id": "5063", "pgp": 0, "GoBack": 2, "SID": 5774, "NameZh": "\u6587\u4fe1\u8def\u53e3", "RouteId": 8361, "SeqNo": 10, "Terminal": 0, "DistrictId": 1, "Latitude": 22.664537, "Longitude": 120.301037, "IVRNo": 5063, "EXTVoiceNo": 5063, "traveltime": 0, "holidayTraveltime": 0}, {"Id": "0484", "pgp": 0, "GoBack": 2, "SID": 5714, "NameZh": "\u660e\u502b\u8def\u53e3", "RouteId": 8361, "SeqNo": 11, "Terminal": 0, "DistrictId": 1, "Latitude": 22.665842, "Longitude": 120.297667, "IVRNo": 8756, "EXTVoiceNo": 20484, "traveltime": 0, "holidayTraveltime": 0}, {"Id": "5677", "pgp": 0, "GoBack": 2, "SID": 4264, "NameZh": "\u88d5\u8c50\u8857\u53e3", "RouteId": 8361, "SeqNo": 12, "Terminal": 0, "DistrictId": 1, "Latitude": 22.66497, "Longitude": 120.29493, "IVRNo": 5677, "EXTVoiceNo": 5677, "traveltime": 0, "holidayTraveltime": 0}, {"Id": "0325", "pgp": 0, "GoBack": 2, "SID": 4265, "NameZh": "\u6c11\u5eb7\u8857\u53e3", "RouteId": 8361, "SeqNo": 13, "Terminal": 0, "DistrictId": 1, "Latitude": 22.6622, "Longitude": 120.29422, "IVRNo": 5678, "EXTVoiceNo": 20325, "traveltime": 0, "holidayTraveltime": 0}, {"Id": "1426", "pgp": 0, "GoBack": 2, "SID": 5277, "NameZh": "\u4e2d\u83ef\u8def\u53e3(\u660e\u8aa0\u4e09\u8def)", "RouteId": 8361, "SeqNo": 14, "Terminal": 0, "DistrictId": 1, "Latitude": 22.66123, "Longitude": 120.29333, "IVRNo": 1426, "EXTVoiceNo": 1426, "traveltime": 0, "holidayTraveltime": 0}, {"Id": "0491", "pgp": 0, "GoBack": 2, "SID": 5322, "NameZh": "\u7f8e\u8853\u6771\u516d\u8857\u53e3(\u660e\u8aa0\u56db\u8def)", "RouteId": 8361, "SeqNo": 15, "Terminal": 0, "DistrictId": 1, "Latitude": 22.66128, "Longitude": 120.2911, "IVRNo": 7735, "EXTVoiceNo": 20491, "traveltime": 0, "holidayTraveltime": 0}, {"Id": "7712", "pgp": 0, "GoBack": 2, "SID": 5280, "NameZh": "\u7f8e\u8853\u6771\u56db\u8def\u53e3(\u660e\u8aa0\u56db\u8def)", "RouteId": 8361, "SeqNo": 16, "Terminal": 0, "DistrictId": 1, "Latitude": 22.661371, "Longitude": 120.289686, "IVRNo": 7712, "EXTVoiceNo": 7712, "traveltime": 0, "holidayTraveltime": 0}, {"Id": "2250", "pgp": 0, "GoBack": 2, "SID": 5321, "NameZh": "\u7f8e\u8853\u9928(\u660e\u8aa0\u56db\u8def)", "RouteId": 8361, "SeqNo": 17, "Terminal": 0, "DistrictId": 1, "Latitude": 22.66205, "Longitude": 120.28635, "IVRNo": 7736, "EXTVoiceNo": 12250, "traveltime": 0, "holidayTraveltime": 0}, {"Id": "7323", "pgp": 0, "GoBack": 2, "SID": 4917, "NameZh": "\u4e5d\u5982\u56db\u8def\u53e3(\u9022\u7532\u8def)", "RouteId": 8361, "SeqNo": 18, "Terminal": 0, "DistrictId": 1, "Latitude": 22.6637, "Longitude": 120.28369, "IVRNo": 7323, "EXTVoiceNo": 7323, "traveltime": 0, "holidayTraveltime": 0}, {"Id": "7322", "pgp": 0, "GoBack": 2, "SID": 4923, "NameZh": "\u9298\u50b3\u8def\u53e3(\u4e5d\u5982\u56db\u8def)", "RouteId": 8361, "SeqNo": 19, "Terminal": 0, "DistrictId": 1, "Latitude": 22.6658, "Longitude": 120.284305, "IVRNo": 4720, "EXTVoiceNo": 7322, "traveltime": 0, "holidayTraveltime": 0}, {"Id": "7321", "pgp": 0, "GoBack": 2, "SID": 4926, "NameZh": "\u524d\u92d2\u793e\u5340", "RouteId": 8361, "SeqNo": 20, "Terminal": 0, "DistrictId": 1, "Latitude": 22.667512, "Longitude": 120.285441, "IVRNo": 7321, "EXTVoiceNo": 7321, "traveltime": 0, "holidayTraveltime": 0}, {"Id": "5844", "pgp": 0, "GoBack": 2, "SID": 4380, "NameZh": "\u679c\u8cbf\u793e\u5340", "RouteId": 8361, "SeqNo": 21, "Terminal": 0, "DistrictId": 1, "Latitude": 22.67096, "Longitude": 120.28669, "IVRNo": 5840, "EXTVoiceNo": 5844, "traveltime": 0, "holidayTraveltime": 0}, {"Id": "4765", "pgp": 0, "GoBack": 2, "SID": 3245, "NameZh": "\u6d77\u9752\u5de5\u5546", "RouteId": 8361, "SeqNo": 22, "Terminal": 0, "DistrictId": 1, "Latitude": 22.674389, "Longitude": 120.286593, "IVRNo": 4723, "EXTVoiceNo": 4765, "traveltime": 0, "holidayTraveltime": 0}, {"Id": "9183", "pgp": 0, "GoBack": 2, "SID": 18214, "NameZh": "\u5d07\u5be6\u65b0\u6751(\u5de6\u71df\u5357\u7ad9)", "RouteId": 8361, "SeqNo": 23, "Terminal": 0, "DistrictId": 1, "Latitude": 22.677932, "Longitude": 120.286587, "IVRNo": 19183, "EXTVoiceNo": 19183, "traveltime": 0, "holidayTraveltime": 0}, {"Id": "8797", "pgp": 0, "GoBack": 2, "SID": 5758, "NameZh": "\u4ecb\u58fd\u8def(\u5de6\u71df\u6d77\u8ecd\u8ecd\u5340)", "RouteId": 8361, "SeqNo": 24, "Terminal": 0, "DistrictId": 1, "Latitude": 22.681067, "Longitude": 120.285709, "IVRNo": 8797, "EXTVoiceNo": 8797, "traveltime": 0, "holidayTraveltime": 0}, {"Id": "0365", "pgp": 0, "GoBack": 2, "SID": 5815, "NameZh": "\u5148\u52dd\u8def\u53e3", "RouteId": 8361, "SeqNo": 25, "Terminal": 1, "DistrictId": 1, "Latitude": 22.681384, "Longitude": 120.281506, "IVRNo": 8851, "EXTVoiceNo": 20365, "traveltime": 0, "holidayTraveltime": 0}]}