{"en": [{"Id": "7007", "pgp": 0, "GoBack": 1, "SID": 5716, "NameZh": "MRT Nanzih Export Processing Zone (Processing Zone)", "RouteId": 8562, "SeqNo": 1, "Terminal": 0, "DistrictId": 1, "Latitude": 22.71921, "Longitude": 120.30616, "IVRNo": 7007, "EXTVoiceNo": 7007, "traveltime": 0, "holidayTraveltime": 0}, {"Id": "2375", "pgp": 0, "GoBack": 1, "SID": 17512, "NameZh": "Dasyue 1st St. Intersection", "RouteId": 8562, "SeqNo": 2, "Terminal": 1, "DistrictId": 1, "Latitude": 22.726839, "Longitude": 120.294807, "IVRNo": 8942, "EXTVoiceNo": 32375, "traveltime": 0, "holidayTraveltime": 0}, {"Id": "2375", "pgp": 0, "GoBack": 2, "SID": 17722, "NameZh": "Dasyue 1st St. Intersection", "RouteId": 8562, "SeqNo": 1, "Terminal": 0, "DistrictId": 1, "Latitude": 22.726873, "Longitude": 120.294351, "IVRNo": 8942, "EXTVoiceNo": 32375, "traveltime": 0, "holidayTraveltime": 0}, {"Id": "7608", "pgp": 0, "GoBack": 2, "SID": 5240, "NameZh": "Lantian Rd. Intersection", "RouteId": 8562, "SeqNo": 2, "Terminal": 0, "DistrictId": 1, "Latitude": 22.72595, "Longitude": 120.29168, "IVRNo": 7608, "EXTVoiceNo": 7608, "traveltime": 0, "holidayTraveltime": 0}, {"Id": "2376", "pgp": 0, "GoBack": 2, "SID": 17517, "NameZh": "Shoufong Rd. Intersection", "RouteId": 8562, "SeqNo": 3, "Terminal": 0, "DistrictId": 1, "Latitude": 22.723344, "Longitude": 120.294322, "IVRNo": 8943, "EXTVoiceNo": 32376, "traveltime": 0, "holidayTraveltime": 0}, {"Id": "1289", "pgp": 0, "GoBack": 2, "SID": 5695, "NameZh": "Cueibing Rd. Intersection (Hueimin Rd.)", "RouteId": 8562, "SeqNo": 4, "Terminal": 0, "DistrictId": 1, "Latitude": 22.72491, "Longitude": 120.299231, "IVRNo": 1289, "EXTVoiceNo": 1289, "traveltime": 0, "holidayTraveltime": 0}, {"Id": "8740", "pgp": 0, "GoBack": 2, "SID": 5696, "NameZh": "Dehuei Rd. Intersection", "RouteId": 8562, "SeqNo": 5, "Terminal": 0, "DistrictId": 1, "Latitude": 22.7261, "Longitude": 120.30225, "IVRNo": 8740, "EXTVoiceNo": 8740, "traveltime": 0, "holidayTraveltime": 0}, {"Id": "7007", "pgp": 0, "GoBack": 2, "SID": 5721, "NameZh": "MRT Nanzih Export Processing Zone (Processing Zone)", "RouteId": 8562, "SeqNo": 6, "Terminal": 1, "DistrictId": 1, "Latitude": 22.7192, "Longitude": 120.3062, "IVRNo": 7007, "EXTVoiceNo": 7007, "traveltime": 0, "holidayTraveltime": 0}], "zh": [{"Id": "7007", "pgp": 0, "GoBack": 1, "SID": 5716, "NameZh": "\u6377\u904b\u6960\u6893\u52a0\u5de5\u5340(\u52a0\u5de5\u5340\u5167)", "RouteId": 8562, "SeqNo": 1, "Terminal": 0, "DistrictId": 1, "Latitude": 22.71921, "Longitude": 120.30616, "IVRNo": 7007, "EXTVoiceNo": 7007, "traveltime": 0, "holidayTraveltime": 0}, {"Id": "2375", "pgp": 0, "GoBack": 1, "SID": 17512, "NameZh": "\u5927\u5b78\u4e00\u8857\u53e3", "RouteId": 8562, "SeqNo": 2, "Terminal": 1, "DistrictId": 1, "Latitude": 22.726839, "Longitude": 120.294807, "IVRNo": 8942, "EXTVoiceNo": 32375, "traveltime": 0, "holidayTraveltime": 0}, {"Id": "2375", "pgp": 0, "GoBack": 2, "SID": 17722, "NameZh": "\u5927\u5b78\u4e00\u8857\u53e3", "RouteId": 8562, "SeqNo": 1, "Terminal": 0, "DistrictId": 1, "Latitude": 22.726873, "Longitude": 120.294351, "IVRNo": 8942, "EXTVoiceNo": 32375, "traveltime": 0, "holidayTraveltime": 0}, {"Id": "7608", "pgp": 0, "GoBack": 2, "SID": 5240, "NameZh": "\u85cd\u7530\u8def\u53e3", "RouteId": 8562, "SeqNo": 2, "Terminal": 0, "DistrictId": 1, "Latitude": 22.72595, "Longitude": 120.29168, "IVRNo": 7608, "EXTVoiceNo": 7608, "traveltime": 0, "holidayTraveltime": 0}, {"Id": "2376", "pgp": 0, "GoBack": 2, "SID": 17517, "NameZh": "\u58fd\u8c50\u8def\u53e3", "RouteId": 8562, "SeqNo": 3, "Terminal": 0, "DistrictId": 1, "Latitude": 22.723344, "Longitude": 120.294322, "IVRNo": 8943, "EXTVoiceNo": 32376, "traveltime": 0, "holidayTraveltime": 0}, {"Id": "1289", "pgp": 0, "GoBack": 2, "SID": 5695, "NameZh": "\u7fe0\u5c4f\u8def\u53e3(\u60e0\u6c11\u8def)", "RouteId": 8562, "SeqNo": 4, "Terminal": 0, "DistrictId": 1, "Latitude": 22.72491, "Longitude": 120.299231, "IVRNo": 1289, "EXTVoiceNo": 1289, "traveltime": 0, "holidayTraveltime": 0}, {"Id": "8740", "pgp": 0, "GoBack": 2, "SID": 5696, "NameZh": "\u5fb7\u60e0\u8def\u53e3", "RouteId": 8562, "SeqNo": 5, "Terminal": 0, "DistrictId": 1, "Latitude": 22.7261, "Longitude": 120.30225, "IVRNo": 8740, "EXTVoiceNo": 8740, "traveltime": 0, "holidayTraveltime": 0}, {"Id": "7007", "pgp": 0, "GoBack": 2, "SID": 5721, "NameZh": "\u6377\u904b\u6960\u6893\u52a0\u5de5\u5340(\u52a0\u5de5\u5340\u5167)", "RouteId": 8562, "SeqNo": 6, "Terminal": 1, "DistrictId": 1, "Latitude": 22.7192, "Longitude": 120.3062, "IVRNo": 7007, "EXTVoiceNo": 7007, "traveltime": 0, "holidayTraveltime": 0}]}