{"en": [{"Id": "0828", "pgp": 0, "GoBack": 1, "SID": 11813, "NameZh": "MRT Gangshan South Station", "RouteId": 879, "SeqNo": 1, "Terminal": 0, "DistrictId": 1, "Latitude": 22.781124, "Longitude": 120.300244, "IVRNo": 828, "EXTVoiceNo": 828, "traveltime": 0, "holidayTraveltime": 0}, {"Id": "0832", "pgp": 0, "GoBack": 1, "SID": 10974, "NameZh": "Gangshan Transfer Station (Gangshan Train Station)", "RouteId": 879, "SeqNo": 2, "Terminal": 0, "DistrictId": 1, "Latitude": 22.79233, "Longitude": 120.299444, "IVRNo": 832, "EXTVoiceNo": 832, "traveltime": 0, "holidayTraveltime": 0}, {"Id": "0230", "pgp": 0, "GoBack": 1, "SID": 11553, "NameZh": "Wunsian Market", "RouteId": 879, "SeqNo": 3, "Terminal": 0, "DistrictId": 1, "Latitude": 22.794142, "Longitude": 120.295901, "IVRNo": 8308, "EXTVoiceNo": 20230, "traveltime": 0, "holidayTraveltime": 0}, {"Id": "9133", "pgp": 0, "GoBack": 1, "SID": 10853, "NameZh": "Gangshan Farmers` Association", "RouteId": 879, "SeqNo": 4, "Terminal": 0, "DistrictId": 1, "Latitude": 22.79561, "Longitude": 120.29558, "IVRNo": 9569, "EXTVoiceNo": 9133, "traveltime": 0, "holidayTraveltime": 0}, {"Id": "2187", "pgp": 0, "GoBack": 1, "SID": 15511, "NameZh": "Show Chwan Memorial Hospital", "RouteId": 879, "SeqNo": 5, "Terminal": 0, "DistrictId": 1, "Latitude": 22.7965, "Longitude": 120.29453, "IVRNo": 12187, "EXTVoiceNo": 12187, "traveltime": 0, "holidayTraveltime": 0}, {"Id": "1819", "pgp": 0, "GoBack": 1, "SID": 15512, "NameZh": "Shouhua Rd.", "RouteId": 879, "SeqNo": 6, "Terminal": 0, "DistrictId": 1, "Latitude": 22.79727, "Longitude": 120.29312, "IVRNo": 1819, "EXTVoiceNo": 1819, "traveltime": 0, "holidayTraveltime": 0}, {"Id": "1263", "pgp": 0, "GoBack": 1, "SID": 11951, "NameZh": "Gangshan Agricultural & Industrial Vocational Senior High School (Hehua Rd.)", "RouteId": 879, "SeqNo": 7, "Terminal": 0, "DistrictId": 1, "Latitude": 22.801271, "Longitude": 120.291013, "IVRNo": 1263, "EXTVoiceNo": 1263, "traveltime": 0, "holidayTraveltime": 0}, {"Id": "0994", "pgp": 0, "GoBack": 1, "SID": 15514, "NameZh": "Air Force Institute of Technology", "RouteId": 879, "SeqNo": 8, "Terminal": 0, "DistrictId": 1, "Latitude": 22.79919, "Longitude": 120.28465, "IVRNo": 994, "EXTVoiceNo": 994, "traveltime": 0, "holidayTraveltime": 0}, {"Id": "2177", "pgp": 0, "GoBack": 1, "SID": 15515, "NameZh": "Yucai Rd. Intersection", "RouteId": 879, "SeqNo": 9, "Terminal": 0, "DistrictId": 1, "Latitude": 22.805049, "Longitude": 120.276947, "IVRNo": 875, "EXTVoiceNo": 12177, "traveltime": 0, "holidayTraveltime": 0}, {"Id": "1060", "pgp": 0, "GoBack": 1, "SID": 15516, "NameZh": "Nanbenjhou", "RouteId": 879, "SeqNo": 10, "Terminal": 0, "DistrictId": 1, "Latitude": 22.80735, "Longitude": 120.26524, "IVRNo": 1060, "EXTVoiceNo": 1060, "traveltime": 0, "holidayTraveltime": 0}, {"Id": "0632", "pgp": 0, "GoBack": 1, "SID": 15517, "NameZh": "Benjhou", "RouteId": 879, "SeqNo": 11, "Terminal": 0, "DistrictId": 1, "Latitude": 22.80783, "Longitude": 120.26094, "IVRNo": 161, "EXTVoiceNo": 10632, "traveltime": 0, "holidayTraveltime": 0}, {"Id": "0816", "pgp": 0, "GoBack": 1, "SID": 15518, "NameZh": "Sibenjhou", "RouteId": 879, "SeqNo": 12, "Terminal": 0, "DistrictId": 1, "Latitude": 22.80813, "Longitude": 120.25844, "IVRNo": 300, "EXTVoiceNo": 10816, "traveltime": 0, "holidayTraveltime": 0}, {"Id": "1186", "pgp": 0, "GoBack": 1, "SID": 15519, "NameZh": "Industrial Park (Benjhou)", "RouteId": 879, "SeqNo": 13, "Terminal": 0, "DistrictId": 1, "Latitude": 22.8083, "Longitude": 120.25162, "IVRNo": 876, "EXTVoiceNo": 21186, "traveltime": 0, "holidayTraveltime": 0}, {"Id": "0877", "pgp": 0, "GoBack": 1, "SID": 15520, "NameZh": "Weisin-Gang", "RouteId": 879, "SeqNo": 14, "Terminal": 0, "DistrictId": 1, "Latitude": 22.80827, "Longitude": 120.24677, "IVRNo": 877, "EXTVoiceNo": 877, "traveltime": 0, "holidayTraveltime": 0}, {"Id": "0836", "pgp": 0, "GoBack": 1, "SID": 15521, "NameZh": "Siweisin", "RouteId": 879, "SeqNo": 15, "Terminal": 0, "DistrictId": 1, "Latitude": 22.80943, "Longitude": 120.24329, "IVRNo": 836, "EXTVoiceNo": 836, "traveltime": 0, "holidayTraveltime": 0}, {"Id": "9120", "pgp": 0, "GoBack": 1, "SID": 15522, "NameZh": "Tianwun Temple", "RouteId": 879, "SeqNo": 16, "Terminal": 0, "DistrictId": 1, "Latitude": 22.8133, "Longitude": 120.2428, "IVRNo": 9547, "EXTVoiceNo": 9120, "traveltime": 0, "holidayTraveltime": 0}, {"Id": "1054", "pgp": 0, "GoBack": 1, "SID": 15523, "NameZh": "Nantian Temple (Yongan)", "RouteId": 879, "SeqNo": 17, "Terminal": 0, "DistrictId": 1, "Latitude": 22.81667, "Longitude": 120.24147, "IVRNo": 9548, "EXTVoiceNo": 11054, "traveltime": 0, "holidayTraveltime": 0}, {"Id": "9549", "pgp": 0, "GoBack": 1, "SID": 15524, "NameZh": "Pasture", "RouteId": 879, "SeqNo": 18, "Terminal": 0, "DistrictId": 1, "Latitude": 22.81874, "Longitude": 120.24044, "IVRNo": 9549, "EXTVoiceNo": 9549, "traveltime": 0, "holidayTraveltime": 0}, {"Id": "9123", "pgp": 0, "GoBack": 1, "SID": 15525, "NameZh": "Yongan Junior High School", "RouteId": 879, "SeqNo": 19, "Terminal": 0, "DistrictId": 1, "Latitude": 22.82355, "Longitude": 120.2383, "IVRNo": 9550, "EXTVoiceNo": 9123, "traveltime": 0, "holidayTraveltime": 0}, {"Id": "0671", "pgp": 0, "GoBack": 1, "SID": 15526, "NameZh": "Yongan", "RouteId": 879, "SeqNo": 20, "Terminal": 0, "DistrictId": 1, "Latitude": 22.81856, "Longitude": 120.22627, "IVRNo": 10671, "EXTVoiceNo": 10671, "traveltime": 0, "holidayTraveltime": 0}, {"Id": "0673", "pgp": 0, "GoBack": 1, "SID": 15527, "NameZh": "Yongan Elementary School", "RouteId": 879, "SeqNo": 21, "Terminal": 0, "DistrictId": 1, "Latitude": 22.81589, "Longitude": 120.22437, "IVRNo": 10673, "EXTVoiceNo": 10673, "traveltime": 0, "holidayTraveltime": 0}, {"Id": "0818", "pgp": 0, "GoBack": 1, "SID": 15528, "NameZh": "Siyongan", "RouteId": 879, "SeqNo": 22, "Terminal": 0, "DistrictId": 1, "Latitude": 22.81677, "Longitude": 120.22139, "IVRNo": 10818, "EXTVoiceNo": 10818, "traveltime": 0, "holidayTraveltime": 0}, {"Id": "1652", "pgp": 0, "GoBack": 1, "SID": 15529, "NameZh": "Singang", "RouteId": 879, "SeqNo": 23, "Terminal": 0, "DistrictId": 1, "Latitude": 22.817789, "Longitude": 120.210641, "IVRNo": 11652, "EXTVoiceNo": 11652, "traveltime": 0, "holidayTraveltime": 0}, {"Id": "1653", "pgp": 0, "GoBack": 1, "SID": 15530, "NameZh": "Shin-Gang Primary School", "RouteId": 879, "SeqNo": 24, "Terminal": 0, "DistrictId": 1, "Latitude": 22.821918, "Longitude": 120.208793, "IVRNo": 11653, "EXTVoiceNo": 11653, "traveltime": 0, "holidayTraveltime": 0}, {"Id": "0553", "pgp": 0, "GoBack": 1, "SID": 15531, "NameZh": "Beisingang", "RouteId": 879, "SeqNo": 25, "Terminal": 0, "DistrictId": 1, "Latitude": 22.82839, "Longitude": 120.20657, "IVRNo": 10553, "EXTVoiceNo": 10553, "traveltime": 0, "holidayTraveltime": 0}, {"Id": "2108", "pgp": 0, "GoBack": 1, "SID": 15532, "NameZh": "Yancun (Salt Village)", "RouteId": 879, "SeqNo": 26, "Terminal": 0, "DistrictId": 1, "Latitude": 22.83349, "Longitude": 120.2086, "IVRNo": 12108, "EXTVoiceNo": 12108, "traveltime": 0, "holidayTraveltime": 0}, {"Id": "2107", "pgp": 0, "GoBack": 1, "SID": 15533, "NameZh": "Yantian", "RouteId": 879, "SeqNo": 27, "Terminal": 0, "DistrictId": 1, "Latitude": 22.83405, "Longitude": 120.20971, "IVRNo": 12107, "EXTVoiceNo": 12107, "traveltime": 0, "holidayTraveltime": 0}, {"Id": "0879", "pgp": 0, "GoBack": 1, "SID": 15534, "NameZh": "Wunzihbian", "RouteId": 879, "SeqNo": 28, "Terminal": 1, "DistrictId": 1, "Latitude": 22.82959, "Longitude": 120.21314, "IVRNo": 879, "EXTVoiceNo": 879, "traveltime": 0, "holidayTraveltime": 0}, {"Id": "0879", "pgp": 0, "GoBack": 2, "SID": 15535, "NameZh": "Wunzihbian", "RouteId": 879, "SeqNo": 1, "Terminal": 0, "DistrictId": 1, "Latitude": 22.8297, "Longitude": 120.21315, "IVRNo": 879, "EXTVoiceNo": 879, "traveltime": 0, "holidayTraveltime": 0}, {"Id": "0818", "pgp": 0, "GoBack": 2, "SID": 15541, "NameZh": "Siyongan", "RouteId": 879, "SeqNo": 2, "Terminal": 0, "DistrictId": 1, "Latitude": 22.81656, "Longitude": 120.22145, "IVRNo": 10818, "EXTVoiceNo": 10818, "traveltime": 0, "holidayTraveltime": 0}, {"Id": "0673", "pgp": 0, "GoBack": 2, "SID": 15542, "NameZh": "Yongan Elementary School", "RouteId": 879, "SeqNo": 3, "Terminal": 0, "DistrictId": 1, "Latitude": 22.81562, "Longitude": 120.22387, "IVRNo": 10673, "EXTVoiceNo": 10673, "traveltime": 0, "holidayTraveltime": 0}, {"Id": "0671", "pgp": 0, "GoBack": 2, "SID": 15543, "NameZh": "Yongan", "RouteId": 879, "SeqNo": 4, "Terminal": 0, "DistrictId": 1, "Latitude": 22.81872, "Longitude": 120.22642, "IVRNo": 10671, "EXTVoiceNo": 10671, "traveltime": 0, "holidayTraveltime": 0}, {"Id": "9123", "pgp": 0, "GoBack": 2, "SID": 15544, "NameZh": "Yongan Junior High School", "RouteId": 879, "SeqNo": 5, "Terminal": 0, "DistrictId": 1, "Latitude": 22.823458, "Longitude": 120.238091, "IVRNo": 9550, "EXTVoiceNo": 9123, "traveltime": 0, "holidayTraveltime": 0}, {"Id": "9549", "pgp": 0, "GoBack": 2, "SID": 15545, "NameZh": "Pasture", "RouteId": 879, "SeqNo": 6, "Terminal": 0, "DistrictId": 1, "Latitude": 22.81813, "Longitude": 120.24058, "IVRNo": 9549, "EXTVoiceNo": 9549, "traveltime": 0, "holidayTraveltime": 0}, {"Id": "1054", "pgp": 0, "GoBack": 2, "SID": 15546, "NameZh": "Nantian Temple (Yongan)", "RouteId": 879, "SeqNo": 7, "Terminal": 0, "DistrictId": 1, "Latitude": 22.8159, "Longitude": 120.24162, "IVRNo": 9548, "EXTVoiceNo": 11054, "traveltime": 0, "holidayTraveltime": 0}, {"Id": "9120", "pgp": 0, "GoBack": 2, "SID": 15547, "NameZh": "Tianwun Temple", "RouteId": 879, "SeqNo": 8, "Terminal": 0, "DistrictId": 1, "Latitude": 22.8134, "Longitude": 120.2426, "IVRNo": 9547, "EXTVoiceNo": 9120, "traveltime": 0, "holidayTraveltime": 0}, {"Id": "0836", "pgp": 0, "GoBack": 2, "SID": 15548, "NameZh": "Siweisin", "RouteId": 879, "SeqNo": 9, "Terminal": 0, "DistrictId": 1, "Latitude": 22.80931, "Longitude": 120.24313, "IVRNo": 836, "EXTVoiceNo": 836, "traveltime": 0, "holidayTraveltime": 0}, {"Id": "0877", "pgp": 0, "GoBack": 2, "SID": 15549, "NameZh": "Weisin-Gang", "RouteId": 879, "SeqNo": 10, "Terminal": 0, "DistrictId": 1, "Latitude": 22.808178, "Longitude": 120.246767, "IVRNo": 877, "EXTVoiceNo": 877, "traveltime": 0, "holidayTraveltime": 0}, {"Id": "1186", "pgp": 0, "GoBack": 2, "SID": 15550, "NameZh": "Industrial Park (Benjhou)", "RouteId": 879, "SeqNo": 11, "Terminal": 0, "DistrictId": 1, "Latitude": 22.808161, "Longitude": 120.25162, "IVRNo": 876, "EXTVoiceNo": 21186, "traveltime": 0, "holidayTraveltime": 0}, {"Id": "0816", "pgp": 0, "GoBack": 2, "SID": 15551, "NameZh": "Sibenjhou", "RouteId": 879, "SeqNo": 12, "Terminal": 0, "DistrictId": 1, "Latitude": 22.80804, "Longitude": 120.25849, "IVRNo": 300, "EXTVoiceNo": 10816, "traveltime": 0, "holidayTraveltime": 0}, {"Id": "0632", "pgp": 0, "GoBack": 2, "SID": 15552, "NameZh": "Benjhou", "RouteId": 879, "SeqNo": 13, "Terminal": 0, "DistrictId": 1, "Latitude": 22.8079, "Longitude": 120.26109, "IVRNo": 161, "EXTVoiceNo": 10632, "traveltime": 0, "holidayTraveltime": 0}, {"Id": "1060", "pgp": 0, "GoBack": 2, "SID": 15553, "NameZh": "Nanbenjhou", "RouteId": 879, "SeqNo": 14, "Terminal": 0, "DistrictId": 1, "Latitude": 22.80721, "Longitude": 120.26527, "IVRNo": 1060, "EXTVoiceNo": 1060, "traveltime": 0, "holidayTraveltime": 0}, {"Id": "2177", "pgp": 0, "GoBack": 2, "SID": 15554, "NameZh": "Yucai Rd. Intersection", "RouteId": 879, "SeqNo": 15, "Terminal": 0, "DistrictId": 1, "Latitude": 22.80523, "Longitude": 120.27677, "IVRNo": 875, "EXTVoiceNo": 12177, "traveltime": 0, "holidayTraveltime": 0}, {"Id": "0994", "pgp": 0, "GoBack": 2, "SID": 15555, "NameZh": "Air Force Institute of Technology", "RouteId": 879, "SeqNo": 16, "Terminal": 0, "DistrictId": 1, "Latitude": 22.79904, "Longitude": 120.28486, "IVRNo": 994, "EXTVoiceNo": 994, "traveltime": 0, "holidayTraveltime": 0}, {"Id": "1263", "pgp": 0, "GoBack": 2, "SID": 15556, "NameZh": "Gangshan Agricultural & Industrial Vocational Senior High School (Hehua Rd.)", "RouteId": 879, "SeqNo": 17, "Terminal": 0, "DistrictId": 1, "Latitude": 22.80073, "Longitude": 120.28982, "IVRNo": 1263, "EXTVoiceNo": 1263, "traveltime": 0, "holidayTraveltime": 0}, {"Id": "1819", "pgp": 0, "GoBack": 2, "SID": 15557, "NameZh": "Shouhua Rd.", "RouteId": 879, "SeqNo": 18, "Terminal": 0, "DistrictId": 1, "Latitude": 22.7975, "Longitude": 120.29301, "IVRNo": 1819, "EXTVoiceNo": 1819, "traveltime": 0, "holidayTraveltime": 0}, {"Id": "2187", "pgp": 0, "GoBack": 2, "SID": 15558, "NameZh": "Show Chwan Memorial Hospital", "RouteId": 879, "SeqNo": 19, "Terminal": 0, "DistrictId": 1, "Latitude": 22.79638, "Longitude": 120.29494, "IVRNo": 12187, "EXTVoiceNo": 12187, "traveltime": 0, "holidayTraveltime": 0}, {"Id": "9133", "pgp": 0, "GoBack": 2, "SID": 10782, "NameZh": "Gangshan Farmers` Association", "RouteId": 879, "SeqNo": 20, "Terminal": 0, "DistrictId": 1, "Latitude": 22.79533, "Longitude": 120.29563, "IVRNo": 9569, "EXTVoiceNo": 9133, "traveltime": 0, "holidayTraveltime": 0}, {"Id": "0230", "pgp": 0, "GoBack": 2, "SID": 11573, "NameZh": "Wunsian Market", "RouteId": 879, "SeqNo": 21, "Terminal": 0, "DistrictId": 1, "Latitude": 22.794142, "Longitude": 120.295901, "IVRNo": 8308, "EXTVoiceNo": 20230, "traveltime": 0, "holidayTraveltime": 0}, {"Id": "0832", "pgp": 0, "GoBack": 2, "SID": 11013, "NameZh": "Gangshan Transfer Station (Gangshan Train Station)", "RouteId": 879, "SeqNo": 22, "Terminal": 0, "DistrictId": 1, "Latitude": 22.79233, "Longitude": 120.299444, "IVRNo": 832, "EXTVoiceNo": 832, "traveltime": 0, "holidayTraveltime": 0}, {"Id": "0828", "pgp": 0, "GoBack": 2, "SID": 11814, "NameZh": "MRT Gangshan South Station", "RouteId": 879, "SeqNo": 23, "Terminal": 1, "DistrictId": 1, "Latitude": 22.780347, "Longitude": 120.300666, "IVRNo": 828, "EXTVoiceNo": 828, "traveltime": 0, "holidayTraveltime": 0}], "zh": [{"Id": "0828", "pgp": 0, "GoBack": 1, "SID": 11813, "NameZh": "\u6377\u904b\u5357\u5ca1\u5c71\u7ad9", "RouteId": 879, "SeqNo": 1, "Terminal": 0, "DistrictId": 1, "Latitude": 22.781124, "Longitude": 120.300244, "IVRNo": 828, "EXTVoiceNo": 828, "traveltime": 0, "holidayTraveltime": 0}, {"Id": "0832", "pgp": 0, "GoBack": 1, "SID": 10974, "NameZh": "\u5ca1\u5c71\u8f49\u904b\u7ad9(\u5ca1\u5c71\u706b\u8eca\u7ad9)", "RouteId": 879, "SeqNo": 2, "Terminal": 0, "DistrictId": 1, "Latitude": 22.79233, "Longitude": 120.299444, "IVRNo": 832, "EXTVoiceNo": 832, "traveltime": 0, "holidayTraveltime": 0}, {"Id": "0230", "pgp": 0, "GoBack": 1, "SID": 11553, "NameZh": "\u6587\u8ce2\u5e02\u5834", "RouteId": 879, "SeqNo": 3, "Terminal": 0, "DistrictId": 1, "Latitude": 22.794142, "Longitude": 120.295901, "IVRNo": 8308, "EXTVoiceNo": 20230, "traveltime": 0, "holidayTraveltime": 0}, {"Id": "9133", "pgp": 0, "GoBack": 1, "SID": 10853, "NameZh": "\u5ca1\u5c71\u8fb2\u6703", "RouteId": 879, "SeqNo": 4, "Terminal": 0, "DistrictId": 1, "Latitude": 22.79561, "Longitude": 120.29558, "IVRNo": 9569, "EXTVoiceNo": 9133, "traveltime": 0, "holidayTraveltime": 0}, {"Id": "2187", "pgp": 0, "GoBack": 1, "SID": 15511, "NameZh": "\u79c0\u50b3\u91ab\u9662", "RouteId": 879, "SeqNo": 5, "Terminal": 0, "DistrictId": 1, "Latitude": 22.7965, "Longitude": 120.29453, "IVRNo": 12187, "EXTVoiceNo": 12187, "traveltime": 0, "holidayTraveltime": 0}, {"Id": "1819", "pgp": 0, "GoBack": 1, "SID": 15512, "NameZh": "\u58fd\u83ef\u8def", "RouteId": 879, "SeqNo": 6, "Terminal": 0, "DistrictId": 1, "Latitude": 22.79727, "Longitude": 120.29312, "IVRNo": 1819, "EXTVoiceNo": 1819, "traveltime": 0, "holidayTraveltime": 0}, {"Id": "1263", "pgp": 0, "GoBack": 1, "SID": 11951, "NameZh": "\u5ca1\u5c71\u8fb2\u5de5(\u6cb3\u83ef\u8def)", "RouteId": 879, "SeqNo": 7, "Terminal": 0, "DistrictId": 1, "Latitude": 22.801271, "Longitude": 120.291013, "IVRNo": 1263, "EXTVoiceNo": 1263, "traveltime": 0, "holidayTraveltime": 0}, {"Id": "0994", "pgp": 0, "GoBack": 1, "SID": 15514, "NameZh": "\u7a7a\u8ecd\u6a5f\u6821", "RouteId": 879, "SeqNo": 8, "Terminal": 0, "DistrictId": 1, "Latitude": 22.79919, "Longitude": 120.28465, "IVRNo": 994, "EXTVoiceNo": 994, "traveltime": 0, "holidayTraveltime": 0}, {"Id": "2177", "pgp": 0, "GoBack": 1, "SID": 15515, "NameZh": "\u80b2\u624d\u8def\u53e3", "RouteId": 879, "SeqNo": 9, "Terminal": 0, "DistrictId": 1, "Latitude": 22.805049, "Longitude": 120.276947, "IVRNo": 875, "EXTVoiceNo": 12177, "traveltime": 0, "holidayTraveltime": 0}, {"Id": "1060", "pgp": 0, "GoBack": 1, "SID": 15516, "NameZh": "\u5357\u672c\u6d32", "RouteId": 879, "SeqNo": 10, "Terminal": 0, "DistrictId": 1, "Latitude": 22.80735, "Longitude": 120.26524, "IVRNo": 1060, "EXTVoiceNo": 1060, "traveltime": 0, "holidayTraveltime": 0}, {"Id": "0632", "pgp": 0, "GoBack": 1, "SID": 15517, "NameZh": "\u672c\u6d32", "RouteId": 879, "SeqNo": 11, "Terminal": 0, "DistrictId": 1, "Latitude": 22.80783, "Longitude": 120.26094, "IVRNo": 161, "EXTVoiceNo": 10632, "traveltime": 0, "holidayTraveltime": 0}, {"Id": "0816", "pgp": 0, "GoBack": 1, "SID": 15518, "NameZh": "\u897f\u672c\u6d32", "RouteId": 879, "SeqNo": 12, "Terminal": 0, "DistrictId": 1, "Latitude": 22.80813, "Longitude": 120.25844, "IVRNo": 300, "EXTVoiceNo": 10816, "traveltime": 0, "holidayTraveltime": 0}, {"Id": "1186", "pgp": 0, "GoBack": 1, "SID": 15519, "NameZh": "\u5de5\u696d\u5340(\u672c\u6d32)", "RouteId": 879, "SeqNo": 13, "Terminal": 0, "DistrictId": 1, "Latitude": 22.8083, "Longitude": 120.25162, "IVRNo": 876, "EXTVoiceNo": 21186, "traveltime": 0, "holidayTraveltime": 0}, {"Id": "0877", "pgp": 0, "GoBack": 1, "SID": 15520, "NameZh": "\u7dad\u65b0-\u5ca1", "RouteId": 879, "SeqNo": 14, "Terminal": 0, "DistrictId": 1, "Latitude": 22.80827, "Longitude": 120.24677, "IVRNo": 877, "EXTVoiceNo": 877, "traveltime": 0, "holidayTraveltime": 0}, {"Id": "0836", "pgp": 0, "GoBack": 1, "SID": 15521, "NameZh": "\u897f\u7dad\u65b0", "RouteId": 879, "SeqNo": 15, "Terminal": 0, "DistrictId": 1, "Latitude": 22.80943, "Longitude": 120.24329, "IVRNo": 836, "EXTVoiceNo": 836, "traveltime": 0, "holidayTraveltime": 0}, {"Id": "9120", "pgp": 0, "GoBack": 1, "SID": 15522, "NameZh": "\u5929\u6587\u5bae", "RouteId": 879, "SeqNo": 16, "Terminal": 0, "DistrictId": 1, "Latitude": 22.8133, "Longitude": 120.2428, "IVRNo": 9547, "EXTVoiceNo": 9120, "traveltime": 0, "holidayTraveltime": 0}, {"Id": "1054", "pgp": 0, "GoBack": 1, "SID": 15523, "NameZh": "\u5357\u5929\u5bae(\u6c38\u5b89)", "RouteId": 879, "SeqNo": 17, "Terminal": 0, "DistrictId": 1, "Latitude": 22.81667, "Longitude": 120.24147, "IVRNo": 9548, "EXTVoiceNo": 11054, "traveltime": 0, "holidayTraveltime": 0}, {"Id": "9549", "pgp": 0, "GoBack": 1, "SID": 15524, "NameZh": "\u7267\u5834", "RouteId": 879, "SeqNo": 18, "Terminal": 0, "DistrictId": 1, "Latitude": 22.81874, "Longitude": 120.24044, "IVRNo": 9549, "EXTVoiceNo": 9549, "traveltime": 0, "holidayTraveltime": 0}, {"Id": "9123", "pgp": 0, "GoBack": 1, "SID": 15525, "NameZh": "\u6c38\u5b89\u570b\u4e2d", "RouteId": 879, "SeqNo": 19, "Terminal": 0, "DistrictId": 1, "Latitude": 22.82355, "Longitude": 120.2383, "IVRNo": 9550, "EXTVoiceNo": 9123, "traveltime": 0, "holidayTraveltime": 0}, {"Id": "0671", "pgp": 0, "GoBack": 1, "SID": 15526, "NameZh": "\u6c38\u5b89", "RouteId": 879, "SeqNo": 20, "Terminal": 0, "DistrictId": 1, "Latitude": 22.81856, "Longitude": 120.22627, "IVRNo": 10671, "EXTVoiceNo": 10671, "traveltime": 0, "holidayTraveltime": 0}, {"Id": "0673", "pgp": 0, "GoBack": 1, "SID": 15527, "NameZh": "\u6c38\u5b89\u570b\u5c0f", "RouteId": 879, "SeqNo": 21, "Terminal": 0, "DistrictId": 1, "Latitude": 22.81589, "Longitude": 120.22437, "IVRNo": 10673, "EXTVoiceNo": 10673, "traveltime": 0, "holidayTraveltime": 0}, {"Id": "0818", "pgp": 0, "GoBack": 1, "SID": 15528, "NameZh": "\u897f\u6c38\u5b89", "RouteId": 879, "SeqNo": 22, "Terminal": 0, "DistrictId": 1, "Latitude": 22.81677, "Longitude": 120.22139, "IVRNo": 10818, "EXTVoiceNo": 10818, "traveltime": 0, "holidayTraveltime": 0}, {"Id": "1652", "pgp": 0, "GoBack": 1, "SID": 15529, "NameZh": "\u65b0\u6e2f", "RouteId": 879, "SeqNo": 23, "Terminal": 0, "DistrictId": 1, "Latitude": 22.817789, "Longitude": 120.210641, "IVRNo": 11652, "EXTVoiceNo": 11652, "traveltime": 0, "holidayTraveltime": 0}, {"Id": "1653", "pgp": 0, "GoBack": 1, "SID": 15530, "NameZh": "\u65b0\u6e2f\u570b\u5c0f", "RouteId": 879, "SeqNo": 24, "Terminal": 0, "DistrictId": 1, "Latitude": 22.821918, "Longitude": 120.208793, "IVRNo": 11653, "EXTVoiceNo": 11653, "traveltime": 0, "holidayTraveltime": 0}, {"Id": "0553", "pgp": 0, "GoBack": 1, "SID": 15531, "NameZh": "\u5317\u65b0\u6e2f", "RouteId": 879, "SeqNo": 25, "Terminal": 0, "DistrictId": 1, "Latitude": 22.82839, "Longitude": 120.20657, "IVRNo": 10553, "EXTVoiceNo": 10553, "traveltime": 0, "holidayTraveltime": 0}, {"Id": "2108", "pgp": 0, "GoBack": 1, "SID": 15532, "NameZh": "\u9e7d\u6751", "RouteId": 879, "SeqNo": 26, "Terminal": 0, "DistrictId": 1, "Latitude": 22.83349, "Longitude": 120.2086, "IVRNo": 12108, "EXTVoiceNo": 12108, "traveltime": 0, "holidayTraveltime": 0}, {"Id": "2107", "pgp": 0, "GoBack": 1, "SID": 15533, "NameZh": "\u9e7d\u7530", "RouteId": 879, "SeqNo": 27, "Terminal": 0, "DistrictId": 1, "Latitude": 22.83405, "Longitude": 120.20971, "IVRNo": 12107, "EXTVoiceNo": 12107, "traveltime": 0, "holidayTraveltime": 0}, {"Id": "0879", "pgp": 0, "GoBack": 1, "SID": 15534, "NameZh": "\u586d\u4ed4\u908a", "RouteId": 879, "SeqNo": 28, "Terminal": 1, "DistrictId": 1, "Latitude": 22.82959, "Longitude": 120.21314, "IVRNo": 879, "EXTVoiceNo": 879, "traveltime": 0, "holidayTraveltime": 0}, {"Id": "0879", "pgp": 0, "GoBack": 2, "SID": 15535, "NameZh": "\u586d\u4ed4\u908a", "RouteId": 879, "SeqNo": 1, "Terminal": 0, "DistrictId": 1, "Latitude": 22.8297, "Longitude": 120.21315, "IVRNo": 879, "EXTVoiceNo": 879, "traveltime": 0, "holidayTraveltime": 0}, {"Id": "0818", "pgp": 0, "GoBack": 2, "SID": 15541, "NameZh": "\u897f\u6c38\u5b89", "RouteId": 879, "SeqNo": 2, "Terminal": 0, "DistrictId": 1, "Latitude": 22.81656, "Longitude": 120.22145, "IVRNo": 10818, "EXTVoiceNo": 10818, "traveltime": 0, "holidayTraveltime": 0}, {"Id": "0673", "pgp": 0, "GoBack": 2, "SID": 15542, "NameZh": "\u6c38\u5b89\u570b\u5c0f", "RouteId": 879, "SeqNo": 3, "Terminal": 0, "DistrictId": 1, "Latitude": 22.81562, "Longitude": 120.22387, "IVRNo": 10673, "EXTVoiceNo": 10673, "traveltime": 0, "holidayTraveltime": 0}, {"Id": "0671", "pgp": 0, "GoBack": 2, "SID": 15543, "NameZh": "\u6c38\u5b89", "RouteId": 879, "SeqNo": 4, "Terminal": 0, "DistrictId": 1, "Latitude": 22.81872, "Longitude": 120.22642, "IVRNo": 10671, "EXTVoiceNo": 10671, "traveltime": 0, "holidayTraveltime": 0}, {"Id": "9123", "pgp": 0, "GoBack": 2, "SID": 15544, "NameZh": "\u6c38\u5b89\u570b\u4e2d", "RouteId": 879, "SeqNo": 5, "Terminal": 0, "DistrictId": 1, "Latitude": 22.823458, "Longitude": 120.238091, "IVRNo": 9550, "EXTVoiceNo": 9123, "traveltime": 0, "holidayTraveltime": 0}, {"Id": "9549", "pgp": 0, "GoBack": 2, "SID": 15545, "NameZh": "\u7267\u5834", "RouteId": 879, "SeqNo": 6, "Terminal": 0, "DistrictId": 1, "Latitude": 22.81813, "Longitude": 120.24058, "IVRNo": 9549, "EXTVoiceNo": 9549, "traveltime": 0, "holidayTraveltime": 0}, {"Id": "1054", "pgp": 0, "GoBack": 2, "SID": 15546, "NameZh": "\u5357\u5929\u5bae(\u6c38\u5b89)", "RouteId": 879, "SeqNo": 7, "Terminal": 0, "DistrictId": 1, "Latitude": 22.8159, "Longitude": 120.24162, "IVRNo": 9548, "EXTVoiceNo": 11054, "traveltime": 0, "holidayTraveltime": 0}, {"Id": "9120", "pgp": 0, "GoBack": 2, "SID": 15547, "NameZh": "\u5929\u6587\u5bae", "RouteId": 879, "SeqNo": 8, "Terminal": 0, "DistrictId": 1, "Latitude": 22.8134, "Longitude": 120.2426, "IVRNo": 9547, "EXTVoiceNo": 9120, "traveltime": 0, "holidayTraveltime": 0}, {"Id": "0836", "pgp": 0, "GoBack": 2, "SID": 15548, "NameZh": "\u897f\u7dad\u65b0", "RouteId": 879, "SeqNo": 9, "Terminal": 0, "DistrictId": 1, "Latitude": 22.80931, "Longitude": 120.24313, "IVRNo": 836, "EXTVoiceNo": 836, "traveltime": 0, "holidayTraveltime": 0}, {"Id": "0877", "pgp": 0, "GoBack": 2, "SID": 15549, "NameZh": "\u7dad\u65b0-\u5ca1", "RouteId": 879, "SeqNo": 10, "Terminal": 0, "DistrictId": 1, "Latitude": 22.808178, "Longitude": 120.246767, "IVRNo": 877, "EXTVoiceNo": 877, "traveltime": 0, "holidayTraveltime": 0}, {"Id": "1186", "pgp": 0, "GoBack": 2, "SID": 15550, "NameZh": "\u5de5\u696d\u5340(\u672c\u6d32)", "RouteId": 879, "SeqNo": 11, "Terminal": 0, "DistrictId": 1, "Latitude": 22.808161, "Longitude": 120.25162, "IVRNo": 876, "EXTVoiceNo": 21186, "traveltime": 0, "holidayTraveltime": 0}, {"Id": "0816", "pgp": 0, "GoBack": 2, "SID": 15551, "NameZh": "\u897f\u672c\u6d32", "RouteId": 879, "SeqNo": 12, "Terminal": 0, "DistrictId": 1, "Latitude": 22.80804, "Longitude": 120.25849, "IVRNo": 300, "EXTVoiceNo": 10816, "traveltime": 0, "holidayTraveltime": 0}, {"Id": "0632", "pgp": 0, "GoBack": 2, "SID": 15552, "NameZh": "\u672c\u6d32", "RouteId": 879, "SeqNo": 13, "Terminal": 0, "DistrictId": 1, "Latitude": 22.8079, "Longitude": 120.26109, "IVRNo": 161, "EXTVoiceNo": 10632, "traveltime": 0, "holidayTraveltime": 0}, {"Id": "1060", "pgp": 0, "GoBack": 2, "SID": 15553, "NameZh": "\u5357\u672c\u6d32", "RouteId": 879, "SeqNo": 14, "Terminal": 0, "DistrictId": 1, "Latitude": 22.80721, "Longitude": 120.26527, "IVRNo": 1060, "EXTVoiceNo": 1060, "traveltime": 0, "holidayTraveltime": 0}, {"Id": "2177", "pgp": 0, "GoBack": 2, "SID": 15554, "NameZh": "\u80b2\u624d\u8def\u53e3", "RouteId": 879, "SeqNo": 15, "Terminal": 0, "DistrictId": 1, "Latitude": 22.80523, "Longitude": 120.27677, "IVRNo": 875, "EXTVoiceNo": 12177, "traveltime": 0, "holidayTraveltime": 0}, {"Id": "0994", "pgp": 0, "GoBack": 2, "SID": 15555, "NameZh": "\u7a7a\u8ecd\u6a5f\u6821", "RouteId": 879, "SeqNo": 16, "Terminal": 0, "DistrictId": 1, "Latitude": 22.79904, "Longitude": 120.28486, "IVRNo": 994, "EXTVoiceNo": 994, "traveltime": 0, "holidayTraveltime": 0}, {"Id": "1263", "pgp": 0, "GoBack": 2, "SID": 15556, "NameZh": "\u5ca1\u5c71\u8fb2\u5de5(\u6cb3\u83ef\u8def)", "RouteId": 879, "SeqNo": 17, "Terminal": 0, "DistrictId": 1, "Latitude": 22.80073, "Longitude": 120.28982, "IVRNo": 1263, "EXTVoiceNo": 1263, "traveltime": 0, "holidayTraveltime": 0}, {"Id": "1819", "pgp": 0, "GoBack": 2, "SID": 15557, "NameZh": "\u58fd\u83ef\u8def", "RouteId": 879, "SeqNo": 18, "Terminal": 0, "DistrictId": 1, "Latitude": 22.7975, "Longitude": 120.29301, "IVRNo": 1819, "EXTVoiceNo": 1819, "traveltime": 0, "holidayTraveltime": 0}, {"Id": "2187", "pgp": 0, "GoBack": 2, "SID": 15558, "NameZh": "\u79c0\u50b3\u91ab\u9662", "RouteId": 879, "SeqNo": 19, "Terminal": 0, "DistrictId": 1, "Latitude": 22.79638, "Longitude": 120.29494, "IVRNo": 12187, "EXTVoiceNo": 12187, "traveltime": 0, "holidayTraveltime": 0}, {"Id": "9133", "pgp": 0, "GoBack": 2, "SID": 10782, "NameZh": "\u5ca1\u5c71\u8fb2\u6703", "RouteId": 879, "SeqNo": 20, "Terminal": 0, "DistrictId": 1, "Latitude": 22.79533, "Longitude": 120.29563, "IVRNo": 9569, "EXTVoiceNo": 9133, "traveltime": 0, "holidayTraveltime": 0}, {"Id": "0230", "pgp": 0, "GoBack": 2, "SID": 11573, "NameZh": "\u6587\u8ce2\u5e02\u5834", "RouteId": 879, "SeqNo": 21, "Terminal": 0, "DistrictId": 1, "Latitude": 22.794142, "Longitude": 120.295901, "IVRNo": 8308, "EXTVoiceNo": 20230, "traveltime": 0, "holidayTraveltime": 0}, {"Id": "0832", "pgp": 0, "GoBack": 2, "SID": 11013, "NameZh": "\u5ca1\u5c71\u8f49\u904b\u7ad9(\u5ca1\u5c71\u706b\u8eca\u7ad9)", "RouteId": 879, "SeqNo": 22, "Terminal": 0, "DistrictId": 1, "Latitude": 22.79233, "Longitude": 120.299444, "IVRNo": 832, "EXTVoiceNo": 832, "traveltime": 0, "holidayTraveltime": 0}, {"Id": "0828", "pgp": 0, "GoBack": 2, "SID": 11814, "NameZh": "\u6377\u904b\u5357\u5ca1\u5c71\u7ad9", "RouteId": 879, "SeqNo": 23, "Terminal": 1, "DistrictId": 1, "Latitude": 22.780347, "Longitude": 120.300666, "IVRNo": 828, "EXTVoiceNo": 828, "traveltime": 0, "holidayTraveltime": 0}]}