{"en": [{"Id": "7001", "pgp": 0, "GoBack": 1, "SID": 4553, "NameZh": "Jiachang Station", "RouteId": 7, "SeqNo": 1, "Terminal": 0, "DistrictId": 1, "Latitude": 22.71873, "Longitude": 120.298584, "IVRNo": 7000, "EXTVoiceNo": 7001, "traveltime": 0, "holidayTraveltime": 0}, {"Id": "4746", "pgp": 0, "GoBack": 1, "SID": 3351, "NameZh": "Nanzih Export Processing Zone", "RouteId": 7, "SeqNo": 2, "Terminal": 0, "DistrictId": 1, "Latitude": 22.716825, "Longitude": 120.302343, "IVRNo": 4742, "EXTVoiceNo": 4746, "traveltime": 0, "holidayTraveltime": 0}, {"Id": "7084", "pgp": 0, "GoBack": 1, "SID": 4575, "NameZh": "MRT Nanzih Export Processing Zone", "RouteId": 7, "SeqNo": 3, "Terminal": 0, "DistrictId": 1, "Latitude": 22.718318, "Longitude": 120.30647, "IVRNo": 7008, "EXTVoiceNo": 7084, "traveltime": 0, "holidayTraveltime": 0}, {"Id": "4747", "pgp": 0, "GoBack": 1, "SID": 3356, "NameZh": "Entrance of East Gate", "RouteId": 7, "SeqNo": 4, "Terminal": 0, "DistrictId": 1, "Latitude": 22.719129, "Longitude": 120.308497, "IVRNo": 42, "EXTVoiceNo": 4747, "traveltime": 0, "holidayTraveltime": 0}, {"Id": "4748", "pgp": 0, "GoBack": 1, "SID": 3359, "NameZh": "Jiachang Rd.", "RouteId": 7, "SeqNo": 5, "Terminal": 0, "DistrictId": 1, "Latitude": 22.719847, "Longitude": 120.31035, "IVRNo": 4740, "EXTVoiceNo": 4748, "traveltime": 0, "holidayTraveltime": 0}, {"Id": "7009", "pgp": 0, "GoBack": 1, "SID": 4580, "NameZh": "Houjin Elementary School (MRT Houjin Station)", "RouteId": 7, "SeqNo": 6, "Terminal": 0, "DistrictId": 1, "Latitude": 22.721158, "Longitude": 120.313597, "IVRNo": 7083, "EXTVoiceNo": 7009, "traveltime": 0, "holidayTraveltime": 0}, {"Id": "7082", "pgp": 0, "GoBack": 1, "SID": 4583, "NameZh": "Houjin Junior High School (MRT Houjin Station)", "RouteId": 7, "SeqNo": 7, "Terminal": 0, "DistrictId": 1, "Latitude": 22.72194, "Longitude": 120.315696, "IVRNo": 7010, "EXTVoiceNo": 7082, "traveltime": 0, "holidayTraveltime": 0}, {"Id": "8044", "pgp": 0, "GoBack": 1, "SID": 5447, "NameZh": "Jiachang Rd. Intersection (MRT Houjin Station)", "RouteId": 7, "SeqNo": 8, "Terminal": 0, "DistrictId": 1, "Latitude": 22.722455, "Longitude": 120.316913, "IVRNo": 8026, "EXTVoiceNo": 8044, "traveltime": 0, "holidayTraveltime": 0}, {"Id": "8045", "pgp": 0, "GoBack": 1, "SID": 5450, "NameZh": "National Kaohsiung University of Science and Technology(Nanzih)", "RouteId": 7, "SeqNo": 9, "Terminal": 0, "DistrictId": 1, "Latitude": 22.724894, "Longitude": 120.312925, "IVRNo": 8025, "EXTVoiceNo": 8045, "traveltime": 0, "holidayTraveltime": 0}, {"Id": "7506", "pgp": 0, "GoBack": 1, "SID": 5127, "NameZh": "Dongcueibing Village", "RouteId": 7, "SeqNo": 10, "Terminal": 0, "DistrictId": 1, "Latitude": 22.728136, "Longitude": 120.31255, "IVRNo": 7506, "EXTVoiceNo": 7506, "traveltime": 0, "holidayTraveltime": 0}, {"Id": "7507", "pgp": 0, "GoBack": 1, "SID": 5130, "NameZh": "Department of Motor Vehicle (Metropolitan Park)", "RouteId": 7, "SeqNo": 11, "Terminal": 0, "DistrictId": 1, "Latitude": 22.731127, "Longitude": 120.31653, "IVRNo": 7507, "EXTVoiceNo": 7507, "traveltime": 0, "holidayTraveltime": 0}, {"Id": "8130", "pgp": 0, "GoBack": 1, "SID": 5458, "NameZh": "Gaonan Rd.", "RouteId": 7, "SeqNo": 12, "Terminal": 0, "DistrictId": 1, "Latitude": 22.731136, "Longitude": 120.320191, "IVRNo": 8130, "EXTVoiceNo": 8130, "traveltime": 0, "holidayTraveltime": 0}, {"Id": "7508", "pgp": 0, "GoBack": 1, "SID": 5135, "NameZh": "MRT Metropolitan Park Station", "RouteId": 7, "SeqNo": 13, "Terminal": 0, "DistrictId": 1, "Latitude": 22.729508, "Longitude": 120.320658, "IVRNo": 1283, "EXTVoiceNo": 7508, "traveltime": 0, "holidayTraveltime": 0}, {"Id": "7011", "pgp": 0, "GoBack": 1, "SID": 4592, "NameZh": "Nanyang Elementary School", "RouteId": 7, "SeqNo": 14, "Terminal": 0, "DistrictId": 1, "Latitude": 22.724996, "Longitude": 120.329837, "IVRNo": 7011, "EXTVoiceNo": 7011, "traveltime": 0, "holidayTraveltime": 0}, {"Id": "7012", "pgp": 0, "GoBack": 1, "SID": 4594, "NameZh": "Jiannan Rd.", "RouteId": 7, "SeqNo": 15, "Terminal": 0, "DistrictId": 1, "Latitude": 22.726919, "Longitude": 120.328577, "IVRNo": 7012, "EXTVoiceNo": 7012, "traveltime": 0, "holidayTraveltime": 0}, {"Id": "7076", "pgp": 0, "GoBack": 1, "SID": 4660, "NameZh": "Nanzih Railway Station", "RouteId": 7, "SeqNo": 16, "Terminal": 0, "DistrictId": 1, "Latitude": 22.727638, "Longitude": 120.325552, "IVRNo": 7016, "EXTVoiceNo": 7076, "traveltime": 0, "holidayTraveltime": 0}, {"Id": "7077", "pgp": 0, "GoBack": 1, "SID": 4663, "NameZh": "Cihyun Temple (Nanzih District Office)", "RouteId": 7, "SeqNo": 17, "Terminal": 0, "DistrictId": 1, "Latitude": 22.730213, "Longitude": 120.327177, "IVRNo": 7015, "EXTVoiceNo": 7077, "traveltime": 0, "holidayTraveltime": 0}, {"Id": "7014", "pgp": 0, "GoBack": 1, "SID": 4598, "NameZh": "Nanzih Police Station (Cinan Rd.)", "RouteId": 7, "SeqNo": 18, "Terminal": 0, "DistrictId": 1, "Latitude": 22.731419, "Longitude": 120.329086, "IVRNo": 7014, "EXTVoiceNo": 7014, "traveltime": 0, "holidayTraveltime": 0}, {"Id": "8032", "pgp": 0, "GoBack": 1, "SID": 5437, "NameZh": "Taiwan Power Company (Nanzih)", "RouteId": 7, "SeqNo": 19, "Terminal": 0, "DistrictId": 1, "Latitude": 22.732472, "Longitude": 120.330291, "IVRNo": 1675, "EXTVoiceNo": 8032, "traveltime": 0, "holidayTraveltime": 0}, {"Id": "7105", "pgp": 0, "GoBack": 1, "SID": 17953, "NameZh": "Nanzih Sports Venue (Tuku Rd.)", "RouteId": 7, "SeqNo": 20, "Terminal": 0, "DistrictId": 1, "Latitude": 22.735507, "Longitude": 120.333088, "IVRNo": 540, "EXTVoiceNo": 7105, "traveltime": 0, "holidayTraveltime": 0}, {"Id": "7106", "pgp": 0, "GoBack": 1, "SID": 4720, "NameZh": "Cingfong Village", "RouteId": 7, "SeqNo": 21, "Terminal": 0, "DistrictId": 1, "Latitude": 22.7384, "Longitude": 120.335606, "IVRNo": 7106, "EXTVoiceNo": 7106, "traveltime": 0, "holidayTraveltime": 0}, {"Id": "7598", "pgp": 0, "GoBack": 1, "SID": 5227, "NameZh": "Beiguo Lijing", "RouteId": 7, "SeqNo": 22, "Terminal": 0, "DistrictId": 1, "Latitude": 22.741497, "Longitude": 120.338297, "IVRNo": 820, "EXTVoiceNo": 7598, "traveltime": 0, "holidayTraveltime": 0}, {"Id": "7599", "pgp": 0, "GoBack": 1, "SID": 5228, "NameZh": "Wanjinsong", "RouteId": 7, "SeqNo": 23, "Terminal": 0, "DistrictId": 1, "Latitude": 22.747422, "Longitude": 120.346111, "IVRNo": 7599, "EXTVoiceNo": 7599, "traveltime": 0, "holidayTraveltime": 0}, {"Id": "9272", "pgp": 0, "GoBack": 1, "SID": 11291, "NameZh": "Guanghua Rd. Intersection (Baoshe Village)", "RouteId": 7, "SeqNo": 24, "Terminal": 0, "DistrictId": 1, "Latitude": 22.74586, "Longitude": 120.34772, "IVRNo": 9859, "EXTVoiceNo": 9272, "traveltime": 0, "holidayTraveltime": 0}, {"Id": "9273", "pgp": 0, "GoBack": 1, "SID": 11292, "NameZh": "Baoshejia Rd.", "RouteId": 7, "SeqNo": 25, "Terminal": 0, "DistrictId": 1, "Latitude": 22.74441, "Longitude": 120.34866, "IVRNo": 9860, "EXTVoiceNo": 9273, "traveltime": 0, "holidayTraveltime": 0}, {"Id": "9155", "pgp": 0, "GoBack": 1, "SID": 11293, "NameZh": "Dashe Jhongjheng Rd. (Baoshe Village)", "RouteId": 7, "SeqNo": 26, "Terminal": 0, "DistrictId": 1, "Latitude": 22.74661, "Longitude": 120.35095, "IVRNo": 489, "EXTVoiceNo": 9155, "traveltime": 0, "holidayTraveltime": 0}, {"Id": "9275", "pgp": 0, "GoBack": 1, "SID": 11294, "NameZh": "Si Wu Food", "RouteId": 7, "SeqNo": 27, "Terminal": 0, "DistrictId": 1, "Latitude": 22.75035, "Longitude": 120.3521, "IVRNo": 9862, "EXTVoiceNo": 9275, "traveltime": 0, "holidayTraveltime": 0}, {"Id": "7600", "pgp": 0, "GoBack": 1, "SID": 5229, "NameZh": "Fongshancuo", "RouteId": 7, "SeqNo": 28, "Terminal": 0, "DistrictId": 1, "Latitude": 22.753447, "Longitude": 120.355055, "IVRNo": 7600, "EXTVoiceNo": 7600, "traveltime": 0, "holidayTraveltime": 0}, {"Id": "7601", "pgp": 0, "GoBack": 1, "SID": 5230, "NameZh": "Beifongsyong", "RouteId": 7, "SeqNo": 29, "Terminal": 0, "DistrictId": 1, "Latitude": 22.755605, "Longitude": 120.357377, "IVRNo": 7601, "EXTVoiceNo": 7601, "traveltime": 0, "holidayTraveltime": 0}, {"Id": "7137", "pgp": 0, "GoBack": 1, "SID": 4744, "NameZh": "Yanchao Junior High School (Veterans Home)", "RouteId": 7, "SeqNo": 30, "Terminal": 0, "DistrictId": 1, "Latitude": 22.785905, "Longitude": 120.362343, "IVRNo": 7130, "EXTVoiceNo": 7137, "traveltime": 0, "holidayTraveltime": 0}, {"Id": "7602", "pgp": 0, "GoBack": 1, "SID": 5231, "NameZh": "E-Da Hospital", "RouteId": 7, "SeqNo": 31, "Terminal": 0, "DistrictId": 1, "Latitude": 22.764784, "Longitude": 120.363975, "IVRNo": 7126, "EXTVoiceNo": 7602, "traveltime": 0, "holidayTraveltime": 0}, {"Id": "9111", "pgp": 0, "GoBack": 1, "SID": 5248, "NameZh": "Kaohsiung Detention Center", "RouteId": 7, "SeqNo": 32, "Terminal": 0, "DistrictId": 1, "Latitude": 22.761361, "Longitude": 120.369072, "IVRNo": 7614, "EXTVoiceNo": 9111, "traveltime": 0, "holidayTraveltime": 0}, {"Id": "9110", "pgp": 0, "GoBack": 1, "SID": 5249, "NameZh": "Shu-Te University (Campus)", "RouteId": 7, "SeqNo": 33, "Terminal": 0, "DistrictId": 1, "Latitude": 22.763712, "Longitude": 120.376458, "IVRNo": 1225, "EXTVoiceNo": 9110, "traveltime": 0, "holidayTraveltime": 0}, {"Id": "1100", "pgp": 0, "GoBack": 1, "SID": 14797, "NameZh": "Hengshan", "RouteId": 7, "SeqNo": 34, "Terminal": 0, "DistrictId": 1, "Latitude": 22.766087, "Longitude": 120.377017, "IVRNo": 708, "EXTVoiceNo": 21100, "traveltime": 0, "holidayTraveltime": 0}, {"Id": "1101", "pgp": 0, "GoBack": 1, "SID": 14798, "NameZh": "Hengshan Elementary School", "RouteId": 7, "SeqNo": 35, "Terminal": 0, "DistrictId": 1, "Latitude": 22.767776, "Longitude": 120.379701, "IVRNo": 709, "EXTVoiceNo": 21101, "traveltime": 0, "holidayTraveltime": 0}, {"Id": "1102", "pgp": 0, "GoBack": 1, "SID": 14799, "NameZh": "Tazihjiao", "RouteId": 7, "SeqNo": 36, "Terminal": 0, "DistrictId": 1, "Latitude": 22.771019, "Longitude": 120.384938, "IVRNo": 710, "EXTVoiceNo": 21102, "traveltime": 0, "holidayTraveltime": 0}, {"Id": "1103", "pgp": 0, "GoBack": 1, "SID": 14800, "NameZh": "Shenshuei", "RouteId": 7, "SeqNo": 37, "Terminal": 0, "DistrictId": 1, "Latitude": 22.772204, "Longitude": 120.390122, "IVRNo": 711, "EXTVoiceNo": 21103, "traveltime": 0, "holidayTraveltime": 0}, {"Id": "1414", "pgp": 0, "GoBack": 1, "SID": 14801, "NameZh": "Cingjhao Temple", "RouteId": 7, "SeqNo": 38, "Terminal": 0, "DistrictId": 1, "Latitude": 22.772654, "Longitude": 120.392649, "IVRNo": 712, "EXTVoiceNo": 1414, "traveltime": 0, "holidayTraveltime": 0}, {"Id": "0227", "pgp": 0, "GoBack": 1, "SID": 13558, "NameZh": "National Kaohsiung University of Science and Technology(Yanchao)", "RouteId": 7, "SeqNo": 39, "Terminal": 0, "DistrictId": 1, "Latitude": 22.772225, "Longitude": 120.399588, "IVRNo": 1146, "EXTVoiceNo": 227, "traveltime": 0, "holidayTraveltime": 0}, {"Id": "9996", "pgp": 0, "GoBack": 1, "SID": 14802, "NameZh": "Jhuci (National Kaohsiung University of Science and Technology, Yanchao)", "RouteId": 7, "SeqNo": 40, "Terminal": 0, "DistrictId": 1, "Latitude": 22.772317, "Longitude": 120.401058, "IVRNo": 713, "EXTVoiceNo": 19996, "traveltime": 0, "holidayTraveltime": 0}, {"Id": "1106", "pgp": 0, "GoBack": 1, "SID": 14803, "NameZh": "Shihge", "RouteId": 7, "SeqNo": 41, "Terminal": 0, "DistrictId": 1, "Latitude": 22.77367, "Longitude": 120.404498, "IVRNo": 714, "EXTVoiceNo": 21106, "traveltime": 0, "holidayTraveltime": 0}, {"Id": "1107", "pgp": 0, "GoBack": 1, "SID": 14804, "NameZh": "Shen-Sheui Primary School", "RouteId": 7, "SeqNo": 42, "Terminal": 0, "DistrictId": 1, "Latitude": 22.777488, "Longitude": 120.40592, "IVRNo": 715, "EXTVoiceNo": 21107, "traveltime": 0, "holidayTraveltime": 0}, {"Id": "1108", "pgp": 0, "GoBack": 1, "SID": 14805, "NameZh": "Entrance of National Kaohsiung Normal University", "RouteId": 7, "SeqNo": 43, "Terminal": 0, "DistrictId": 1, "Latitude": 22.781754, "Longitude": 120.404417, "IVRNo": 716, "EXTVoiceNo": 21108, "traveltime": 0, "holidayTraveltime": 0}, {"Id": "2362", "pgp": 0, "GoBack": 1, "SID": 16164, "NameZh": "NKNU, Yanchao Campus (Jhihli Building)", "RouteId": 7, "SeqNo": 44, "Terminal": 0, "DistrictId": 1, "Latitude": 22.78909, "Longitude": 120.405955, "IVRNo": 1147, "EXTVoiceNo": 32362, "traveltime": 0, "holidayTraveltime": 0}, {"Id": "2363", "pgp": 0, "GoBack": 1, "SID": 15901, "NameZh": "NKNU, Yanchao Campus (Gueiyanshihchao)", "RouteId": 7, "SeqNo": 45, "Terminal": 1, "DistrictId": 1, "Latitude": 22.787303, "Longitude": 120.405005, "IVRNo": 5191, "EXTVoiceNo": 32363, "traveltime": 0, "holidayTraveltime": 0}, {"Id": "2363", "pgp": 0, "GoBack": 2, "SID": 13555, "NameZh": "NKNU, Yanchao Campus (Gueiyanshihchao)", "RouteId": 7, "SeqNo": 1, "Terminal": 0, "DistrictId": 1, "Latitude": 22.786711, "Longitude": 120.404426, "IVRNo": 5191, "EXTVoiceNo": 32363, "traveltime": 0, "holidayTraveltime": 0}, {"Id": "2362", "pgp": 0, "GoBack": 2, "SID": 18156, "NameZh": "NKNU, Yanchao Campus (Jhihli Building)", "RouteId": 7, "SeqNo": 2, "Terminal": 0, "DistrictId": 1, "Latitude": 22.789149, "Longitude": 120.405885, "IVRNo": 1147, "EXTVoiceNo": 32362, "traveltime": 0, "holidayTraveltime": 0}, {"Id": "1108", "pgp": 0, "GoBack": 2, "SID": 14806, "NameZh": "Entrance of National Kaohsiung Normal University", "RouteId": 7, "SeqNo": 3, "Terminal": 0, "DistrictId": 1, "Latitude": 22.781754, "Longitude": 120.404416, "IVRNo": 716, "EXTVoiceNo": 21108, "traveltime": 0, "holidayTraveltime": 0}, {"Id": "1107", "pgp": 0, "GoBack": 2, "SID": 14807, "NameZh": "Shen-Sheui Primary School", "RouteId": 7, "SeqNo": 4, "Terminal": 0, "DistrictId": 1, "Latitude": 22.777077, "Longitude": 120.4058, "IVRNo": 715, "EXTVoiceNo": 21107, "traveltime": 0, "holidayTraveltime": 0}, {"Id": "1106", "pgp": 0, "GoBack": 2, "SID": 13600, "NameZh": "Shihge", "RouteId": 7, "SeqNo": 5, "Terminal": 0, "DistrictId": 1, "Latitude": 22.77346, "Longitude": 120.40451, "IVRNo": 714, "EXTVoiceNo": 21106, "traveltime": 0, "holidayTraveltime": 0}, {"Id": "9996", "pgp": 0, "GoBack": 2, "SID": 14808, "NameZh": "Jhuci (National Kaohsiung University of Science and Technology, Yanchao)", "RouteId": 7, "SeqNo": 6, "Terminal": 0, "DistrictId": 1, "Latitude": 22.772512, "Longitude": 120.401101, "IVRNo": 713, "EXTVoiceNo": 19996, "traveltime": 0, "holidayTraveltime": 0}, {"Id": "0227", "pgp": 0, "GoBack": 2, "SID": 13552, "NameZh": "National Kaohsiung University of Science and Technology(Yanchao)", "RouteId": 7, "SeqNo": 7, "Terminal": 0, "DistrictId": 1, "Latitude": 22.772128, "Longitude": 120.399366, "IVRNo": 1146, "EXTVoiceNo": 227, "traveltime": 0, "holidayTraveltime": 0}, {"Id": "1414", "pgp": 0, "GoBack": 2, "SID": 14810, "NameZh": "Cingjhao Temple", "RouteId": 7, "SeqNo": 8, "Terminal": 0, "DistrictId": 1, "Latitude": 22.772754, "Longitude": 120.392785, "IVRNo": 712, "EXTVoiceNo": 1414, "traveltime": 0, "holidayTraveltime": 0}, {"Id": "1103", "pgp": 0, "GoBack": 2, "SID": 14811, "NameZh": "Shenshuei", "RouteId": 7, "SeqNo": 9, "Terminal": 0, "DistrictId": 1, "Latitude": 22.772204, "Longitude": 120.390123, "IVRNo": 711, "EXTVoiceNo": 21103, "traveltime": 0, "holidayTraveltime": 0}, {"Id": "1102", "pgp": 0, "GoBack": 2, "SID": 14812, "NameZh": "Tazihjiao", "RouteId": 7, "SeqNo": 10, "Terminal": 0, "DistrictId": 1, "Latitude": 22.771047, "Longitude": 120.385307, "IVRNo": 710, "EXTVoiceNo": 21102, "traveltime": 0, "holidayTraveltime": 0}, {"Id": "1101", "pgp": 0, "GoBack": 2, "SID": 14813, "NameZh": "Hengshan Elementary School", "RouteId": 7, "SeqNo": 11, "Terminal": 0, "DistrictId": 1, "Latitude": 22.767776, "Longitude": 120.379808, "IVRNo": 709, "EXTVoiceNo": 21101, "traveltime": 0, "holidayTraveltime": 0}, {"Id": "1100", "pgp": 0, "GoBack": 2, "SID": 14814, "NameZh": "Hengshan", "RouteId": 7, "SeqNo": 12, "Terminal": 0, "DistrictId": 1, "Latitude": 22.76577, "Longitude": 120.376262, "IVRNo": 708, "EXTVoiceNo": 21100, "traveltime": 0, "holidayTraveltime": 0}, {"Id": "9110", "pgp": 0, "GoBack": 2, "SID": 14870, "NameZh": "Shu-Te University (Campus)", "RouteId": 7, "SeqNo": 13, "Terminal": 0, "DistrictId": 1, "Latitude": 22.763712, "Longitude": 120.376458, "IVRNo": 1225, "EXTVoiceNo": 9110, "traveltime": 0, "holidayTraveltime": 0}, {"Id": "9208", "pgp": 0, "GoBack": 2, "SID": 11295, "NameZh": "Main Entrance to Shu-Te University", "RouteId": 7, "SeqNo": 14, "Terminal": 0, "DistrictId": 1, "Latitude": 22.764554, "Longitude": 120.37418, "IVRNo": 9759, "EXTVoiceNo": 9208, "traveltime": 0, "holidayTraveltime": 0}, {"Id": "9111", "pgp": 0, "GoBack": 2, "SID": 5250, "NameZh": "Kaohsiung Detention Center", "RouteId": 7, "SeqNo": 15, "Terminal": 0, "DistrictId": 1, "Latitude": 22.76151, "Longitude": 120.36911, "IVRNo": 7614, "EXTVoiceNo": 9111, "traveltime": 0, "holidayTraveltime": 0}, {"Id": "7602", "pgp": 0, "GoBack": 2, "SID": 5251, "NameZh": "E-Da Hospital", "RouteId": 7, "SeqNo": 16, "Terminal": 0, "DistrictId": 1, "Latitude": 22.764857, "Longitude": 120.363955, "IVRNo": 7126, "EXTVoiceNo": 7602, "traveltime": 0, "holidayTraveltime": 0}, {"Id": "7601", "pgp": 0, "GoBack": 2, "SID": 5232, "NameZh": "Beifongsyong", "RouteId": 7, "SeqNo": 17, "Terminal": 0, "DistrictId": 1, "Latitude": 22.755763, "Longitude": 120.357388, "IVRNo": 7601, "EXTVoiceNo": 7601, "traveltime": 0, "holidayTraveltime": 0}, {"Id": "7600", "pgp": 0, "GoBack": 2, "SID": 5233, "NameZh": "Fongshancuo", "RouteId": 7, "SeqNo": 18, "Terminal": 0, "DistrictId": 1, "Latitude": 22.75365, "Longitude": 120.355022, "IVRNo": 7600, "EXTVoiceNo": 7600, "traveltime": 0, "holidayTraveltime": 0}, {"Id": "9275", "pgp": 0, "GoBack": 2, "SID": 11296, "NameZh": "Si Wu Food", "RouteId": 7, "SeqNo": 19, "Terminal": 0, "DistrictId": 1, "Latitude": 22.75036, "Longitude": 120.35211, "IVRNo": 9862, "EXTVoiceNo": 9275, "traveltime": 0, "holidayTraveltime": 0}, {"Id": "9155", "pgp": 0, "GoBack": 2, "SID": 11297, "NameZh": "Dashe Jhongjheng Rd. (Baoshe Village)", "RouteId": 7, "SeqNo": 20, "Terminal": 0, "DistrictId": 1, "Latitude": 22.74657, "Longitude": 120.35082, "IVRNo": 489, "EXTVoiceNo": 9155, "traveltime": 0, "holidayTraveltime": 0}, {"Id": "9273", "pgp": 0, "GoBack": 2, "SID": 11298, "NameZh": "Baoshejia Rd.", "RouteId": 7, "SeqNo": 21, "Terminal": 0, "DistrictId": 1, "Latitude": 22.74452, "Longitude": 120.34866, "IVRNo": 9860, "EXTVoiceNo": 9273, "traveltime": 0, "holidayTraveltime": 0}, {"Id": "9272", "pgp": 0, "GoBack": 2, "SID": 11299, "NameZh": "Guanghua Rd. Intersection (Baoshe Village)", "RouteId": 7, "SeqNo": 22, "Terminal": 0, "DistrictId": 1, "Latitude": 22.74574, "Longitude": 120.34782, "IVRNo": 9859, "EXTVoiceNo": 9272, "traveltime": 0, "holidayTraveltime": 0}, {"Id": "7599", "pgp": 0, "GoBack": 2, "SID": 5234, "NameZh": "Wanjinsong", "RouteId": 7, "SeqNo": 23, "Terminal": 0, "DistrictId": 1, "Latitude": 22.747405, "Longitude": 120.345822, "IVRNo": 7599, "EXTVoiceNo": 7599, "traveltime": 0, "holidayTraveltime": 0}, {"Id": "7598", "pgp": 0, "GoBack": 2, "SID": 5235, "NameZh": "Beiguo Lijing", "RouteId": 7, "SeqNo": 24, "Terminal": 0, "DistrictId": 1, "Latitude": 22.741625, "Longitude": 120.338213, "IVRNo": 820, "EXTVoiceNo": 7598, "traveltime": 0, "holidayTraveltime": 0}, {"Id": "7106", "pgp": 0, "GoBack": 2, "SID": 4754, "NameZh": "Cingfong Village", "RouteId": 7, "SeqNo": 25, "Terminal": 0, "DistrictId": 1, "Latitude": 22.738647, "Longitude": 120.335447, "IVRNo": 7106, "EXTVoiceNo": 7106, "traveltime": 0, "holidayTraveltime": 0}, {"Id": "7105", "pgp": 0, "GoBack": 2, "SID": 18228, "NameZh": "Nanzih Sports Venue (Tuku Rd.)", "RouteId": 7, "SeqNo": 26, "Terminal": 0, "DistrictId": 1, "Latitude": 22.73618, "Longitude": 120.333261, "IVRNo": 540, "EXTVoiceNo": 7105, "traveltime": 0, "holidayTraveltime": 0}, {"Id": "8032", "pgp": 0, "GoBack": 2, "SID": 5236, "NameZh": "Taiwan Power Company (Nanzih)", "RouteId": 7, "SeqNo": 27, "Terminal": 0, "DistrictId": 1, "Latitude": 22.732938, "Longitude": 120.33053, "IVRNo": 1675, "EXTVoiceNo": 8032, "traveltime": 0, "holidayTraveltime": 0}, {"Id": "7014", "pgp": 0, "GoBack": 2, "SID": 4667, "NameZh": "Nanzih Police Station (Cinan Rd.)", "RouteId": 7, "SeqNo": 28, "Terminal": 0, "DistrictId": 1, "Latitude": 22.731056, "Longitude": 120.328296, "IVRNo": 7014, "EXTVoiceNo": 7014, "traveltime": 0, "holidayTraveltime": 0}, {"Id": "7077", "pgp": 0, "GoBack": 2, "SID": 4602, "NameZh": "Cihyun Temple (Nanzih District Office)", "RouteId": 7, "SeqNo": 29, "Terminal": 0, "DistrictId": 1, "Latitude": 22.730165, "Longitude": 120.327107, "IVRNo": 7015, "EXTVoiceNo": 7077, "traveltime": 0, "holidayTraveltime": 0}, {"Id": "7076", "pgp": 0, "GoBack": 2, "SID": 4605, "NameZh": "Nanzih Railway Station", "RouteId": 7, "SeqNo": 30, "Terminal": 0, "DistrictId": 1, "Latitude": 22.727566, "Longitude": 120.325352, "IVRNo": 7016, "EXTVoiceNo": 7076, "traveltime": 0, "holidayTraveltime": 0}, {"Id": "7012", "pgp": 0, "GoBack": 2, "SID": 4671, "NameZh": "Jiannan Rd.", "RouteId": 7, "SeqNo": 31, "Terminal": 0, "DistrictId": 1, "Latitude": 22.726788, "Longitude": 120.328404, "IVRNo": 7012, "EXTVoiceNo": 7012, "traveltime": 0, "holidayTraveltime": 0}, {"Id": "7011", "pgp": 0, "GoBack": 2, "SID": 4676, "NameZh": "Nanyang Elementary School", "RouteId": 7, "SeqNo": 32, "Terminal": 0, "DistrictId": 1, "Latitude": 22.725027, "Longitude": 120.329486, "IVRNo": 7011, "EXTVoiceNo": 7011, "traveltime": 0, "holidayTraveltime": 0}, {"Id": "8752", "pgp": 0, "GoBack": 2, "SID": 5697, "NameZh": "Jianren Hospital", "RouteId": 7, "SeqNo": 33, "Terminal": 0, "DistrictId": 1, "Latitude": 22.72378, "Longitude": 120.32938, "IVRNo": 8752, "EXTVoiceNo": 8752, "traveltime": 0, "holidayTraveltime": 0}, {"Id": "0714", "pgp": 0, "GoBack": 2, "SID": 5211, "NameZh": "Gaonan Viaduct (MRT Metropolitan Park Station)", "RouteId": 7, "SeqNo": 34, "Terminal": 0, "DistrictId": 1, "Latitude": 22.727972, "Longitude": 120.321444, "IVRNo": 7508, "EXTVoiceNo": 20714, "traveltime": 0, "holidayTraveltime": 0}, {"Id": "8140", "pgp": 0, "GoBack": 2, "SID": 5463, "NameZh": "MRT Metropolitan Park Station", "RouteId": 7, "SeqNo": 35, "Terminal": 0, "DistrictId": 1, "Latitude": 22.730255, "Longitude": 120.320808, "IVRNo": 1283, "EXTVoiceNo": 8140, "traveltime": 0, "holidayTraveltime": 0}, {"Id": "7507", "pgp": 0, "GoBack": 2, "SID": 5212, "NameZh": "Department of Motor Vehicle (Metropolitan Park)", "RouteId": 7, "SeqNo": 36, "Terminal": 0, "DistrictId": 1, "Latitude": 22.7313, "Longitude": 120.316491, "IVRNo": 7507, "EXTVoiceNo": 7507, "traveltime": 0, "holidayTraveltime": 0}, {"Id": "7506", "pgp": 0, "GoBack": 2, "SID": 5217, "NameZh": "Dongcueibing Village", "RouteId": 7, "SeqNo": 37, "Terminal": 0, "DistrictId": 1, "Latitude": 22.72825, "Longitude": 120.312383, "IVRNo": 7506, "EXTVoiceNo": 7506, "traveltime": 0, "holidayTraveltime": 0}, {"Id": "8045", "pgp": 0, "GoBack": 2, "SID": 5430, "NameZh": "National Kaohsiung University of Science and Technology(Nanzih)", "RouteId": 7, "SeqNo": 38, "Terminal": 0, "DistrictId": 1, "Latitude": 22.724822, "Longitude": 120.313741, "IVRNo": 8025, "EXTVoiceNo": 8045, "traveltime": 0, "holidayTraveltime": 0}, {"Id": "8044", "pgp": 0, "GoBack": 2, "SID": 5434, "NameZh": "Jiachang Rd. Intersection (MRT Houjin Station)", "RouteId": 7, "SeqNo": 39, "Terminal": 0, "DistrictId": 1, "Latitude": 22.722572, "Longitude": 120.316886, "IVRNo": 8026, "EXTVoiceNo": 8044, "traveltime": 0, "holidayTraveltime": 0}, {"Id": "7082", "pgp": 0, "GoBack": 2, "SID": 4680, "NameZh": "Houjin Junior High School (MRT Houjin Station)", "RouteId": 7, "SeqNo": 40, "Terminal": 0, "DistrictId": 1, "Latitude": 22.722133, "Longitude": 120.315466, "IVRNo": 7010, "EXTVoiceNo": 7082, "traveltime": 0, "holidayTraveltime": 0}, {"Id": "7009", "pgp": 0, "GoBack": 2, "SID": 4687, "NameZh": "Houjin Elementary School (MRT Houjin Station)", "RouteId": 7, "SeqNo": 41, "Terminal": 0, "DistrictId": 1, "Latitude": 22.721158, "Longitude": 120.313597, "IVRNo": 7083, "EXTVoiceNo": 7009, "traveltime": 0, "holidayTraveltime": 0}, {"Id": "4748", "pgp": 0, "GoBack": 2, "SID": 3334, "NameZh": "Jiachang Rd.", "RouteId": 7, "SeqNo": 42, "Terminal": 0, "DistrictId": 1, "Latitude": 22.720077, "Longitude": 120.310261, "IVRNo": 4740, "EXTVoiceNo": 4748, "traveltime": 0, "holidayTraveltime": 0}, {"Id": "4747", "pgp": 0, "GoBack": 2, "SID": 3339, "NameZh": "Entrance of East Gate", "RouteId": 7, "SeqNo": 43, "Terminal": 0, "DistrictId": 1, "Latitude": 22.719525, "Longitude": 120.308783, "IVRNo": 42, "EXTVoiceNo": 4747, "traveltime": 0, "holidayTraveltime": 0}, {"Id": "7084", "pgp": 0, "GoBack": 2, "SID": 4691, "NameZh": "MRT Nanzih Export Processing Zone", "RouteId": 7, "SeqNo": 44, "Terminal": 0, "DistrictId": 1, "Latitude": 22.718541, "Longitude": 120.306562, "IVRNo": 7008, "EXTVoiceNo": 7084, "traveltime": 0, "holidayTraveltime": 0}, {"Id": "4746", "pgp": 0, "GoBack": 2, "SID": 3345, "NameZh": "Nanzih Export Processing Zone", "RouteId": 7, "SeqNo": 45, "Terminal": 0, "DistrictId": 1, "Latitude": 22.717387, "Longitude": 120.303127, "IVRNo": 4742, "EXTVoiceNo": 4746, "traveltime": 0, "holidayTraveltime": 0}, {"Id": "7001", "pgp": 0, "GoBack": 2, "SID": 4548, "NameZh": "Jiachang Station", "RouteId": 7, "SeqNo": 46, "Terminal": 1, "DistrictId": 1, "Latitude": 22.718651, "Longitude": 120.298566, "IVRNo": 7000, "EXTVoiceNo": 7001, "traveltime": 0, "holidayTraveltime": 0}], "zh": [{"Id": "7001", "pgp": 0, "GoBack": 1, "SID": 4553, "NameZh": "\u52a0\u660c\u7ad9", "RouteId": 7, "SeqNo": 1, "Terminal": 0, "DistrictId": 1, "Latitude": 22.71873, "Longitude": 120.298584, "IVRNo": 7000, "EXTVoiceNo": 7001, "traveltime": 0, "holidayTraveltime": 0}, {"Id": "4746", "pgp": 0, "GoBack": 1, "SID": 3351, "NameZh": "\u6960\u6893\u52a0\u5de5\u5340", "RouteId": 7, "SeqNo": 2, "Terminal": 0, "DistrictId": 1, "Latitude": 22.716825, "Longitude": 120.302343, "IVRNo": 4742, "EXTVoiceNo": 4746, "traveltime": 0, "holidayTraveltime": 0}, {"Id": "7084", "pgp": 0, "GoBack": 1, "SID": 4575, "NameZh": "\u6377\u904b\u6960\u6893\u52a0\u5de5\u5340\u7ad9", "RouteId": 7, "SeqNo": 3, "Terminal": 0, "DistrictId": 1, "Latitude": 22.718318, "Longitude": 120.30647, "IVRNo": 7008, "EXTVoiceNo": 7084, "traveltime": 0, "holidayTraveltime": 0}, {"Id": "4747", "pgp": 0, "GoBack": 1, "SID": 3356, "NameZh": "\u6771\u9580\u5165\u53e3", "RouteId": 7, "SeqNo": 4, "Terminal": 0, "DistrictId": 1, "Latitude": 22.719129, "Longitude": 120.308497, "IVRNo": 42, "EXTVoiceNo": 4747, "traveltime": 0, "holidayTraveltime": 0}, {"Id": "4748", "pgp": 0, "GoBack": 1, "SID": 3359, "NameZh": "\u52a0\u660c\u8def", "RouteId": 7, "SeqNo": 5, "Terminal": 0, "DistrictId": 1, "Latitude": 22.719847, "Longitude": 120.31035, "IVRNo": 4740, "EXTVoiceNo": 4748, "traveltime": 0, "holidayTraveltime": 0}, {"Id": "7009", "pgp": 0, "GoBack": 1, "SID": 4580, "NameZh": "\u5f8c\u52c1\u570b\u5c0f(\u6377\u904b\u5f8c\u52c1\u7ad9)", "RouteId": 7, "SeqNo": 6, "Terminal": 0, "DistrictId": 1, "Latitude": 22.721158, "Longitude": 120.313597, "IVRNo": 7083, "EXTVoiceNo": 7009, "traveltime": 0, "holidayTraveltime": 0}, {"Id": "7082", "pgp": 0, "GoBack": 1, "SID": 4583, "NameZh": "\u5f8c\u52c1\u570b\u4e2d(\u6377\u904b\u5f8c\u52c1\u7ad9)", "RouteId": 7, "SeqNo": 7, "Terminal": 0, "DistrictId": 1, "Latitude": 22.72194, "Longitude": 120.315696, "IVRNo": 7010, "EXTVoiceNo": 7082, "traveltime": 0, "holidayTraveltime": 0}, {"Id": "8044", "pgp": 0, "GoBack": 1, "SID": 5447, "NameZh": "\u52a0\u660c\u8def\u53e3(\u6377\u904b\u5f8c\u52c1\u7ad9)", "RouteId": 7, "SeqNo": 8, "Terminal": 0, "DistrictId": 1, "Latitude": 22.722455, "Longitude": 120.316913, "IVRNo": 8026, "EXTVoiceNo": 8044, "traveltime": 0, "holidayTraveltime": 0}, {"Id": "8045", "pgp": 0, "GoBack": 1, "SID": 5450, "NameZh": "\u9ad8\u96c4\u79d1\u5927(\u6960\u6893)", "RouteId": 7, "SeqNo": 9, "Terminal": 0, "DistrictId": 1, "Latitude": 22.724894, "Longitude": 120.312925, "IVRNo": 8025, "EXTVoiceNo": 8045, "traveltime": 0, "holidayTraveltime": 0}, {"Id": "7506", "pgp": 0, "GoBack": 1, "SID": 5127, "NameZh": "\u6771\u7fe0\u5c4f\u91cc", "RouteId": 7, "SeqNo": 10, "Terminal": 0, "DistrictId": 1, "Latitude": 22.728136, "Longitude": 120.31255, "IVRNo": 7506, "EXTVoiceNo": 7506, "traveltime": 0, "holidayTraveltime": 0}, {"Id": "7507", "pgp": 0, "GoBack": 1, "SID": 5130, "NameZh": "\u76e3\u7406\u8655(\u90fd\u6703\u516c\u5712)", "RouteId": 7, "SeqNo": 11, "Terminal": 0, "DistrictId": 1, "Latitude": 22.731127, "Longitude": 120.31653, "IVRNo": 7507, "EXTVoiceNo": 7507, "traveltime": 0, "holidayTraveltime": 0}, {"Id": "8130", "pgp": 0, "GoBack": 1, "SID": 5458, "NameZh": "\u9ad8\u6960\u8def", "RouteId": 7, "SeqNo": 12, "Terminal": 0, "DistrictId": 1, "Latitude": 22.731136, "Longitude": 120.320191, "IVRNo": 8130, "EXTVoiceNo": 8130, "traveltime": 0, "holidayTraveltime": 0}, {"Id": "7508", "pgp": 0, "GoBack": 1, "SID": 5135, "NameZh": "\u6377\u904b\u90fd\u6703\u516c\u5712\u7ad9", "RouteId": 7, "SeqNo": 13, "Terminal": 0, "DistrictId": 1, "Latitude": 22.729508, "Longitude": 120.320658, "IVRNo": 1283, "EXTVoiceNo": 7508, "traveltime": 0, "holidayTraveltime": 0}, {"Id": "7011", "pgp": 0, "GoBack": 1, "SID": 4592, "NameZh": "\u6960\u967d\u570b\u5c0f", "RouteId": 7, "SeqNo": 14, "Terminal": 0, "DistrictId": 1, "Latitude": 22.724996, "Longitude": 120.329837, "IVRNo": 7011, "EXTVoiceNo": 7011, "traveltime": 0, "holidayTraveltime": 0}, {"Id": "7012", "pgp": 0, "GoBack": 1, "SID": 4594, "NameZh": "\u5efa\u6960\u8def", "RouteId": 7, "SeqNo": 15, "Terminal": 0, "DistrictId": 1, "Latitude": 22.726919, "Longitude": 120.328577, "IVRNo": 7012, "EXTVoiceNo": 7012, "traveltime": 0, "holidayTraveltime": 0}, {"Id": "7076", "pgp": 0, "GoBack": 1, "SID": 4660, "NameZh": "\u6960\u6893\u706b\u8eca\u7ad9", "RouteId": 7, "SeqNo": 16, "Terminal": 0, "DistrictId": 1, "Latitude": 22.727638, "Longitude": 120.325552, "IVRNo": 7016, "EXTVoiceNo": 7076, "traveltime": 0, "holidayTraveltime": 0}, {"Id": "7077", "pgp": 0, "GoBack": 1, "SID": 4663, "NameZh": "\u6148\u96f2\u5bfa(\u6960\u6893\u5340\u516c\u6240)", "RouteId": 7, "SeqNo": 17, "Terminal": 0, "DistrictId": 1, "Latitude": 22.730213, "Longitude": 120.327177, "IVRNo": 7015, "EXTVoiceNo": 7077, "traveltime": 0, "holidayTraveltime": 0}, {"Id": "7014", "pgp": 0, "GoBack": 1, "SID": 4598, "NameZh": "\u6960\u6893\u6d3e\u51fa\u6240(\u65d7\u6960\u8def)", "RouteId": 7, "SeqNo": 18, "Terminal": 0, "DistrictId": 1, "Latitude": 22.731419, "Longitude": 120.329086, "IVRNo": 7014, "EXTVoiceNo": 7014, "traveltime": 0, "holidayTraveltime": 0}, {"Id": "8032", "pgp": 0, "GoBack": 1, "SID": 5437, "NameZh": "\u96fb\u529b\u516c\u53f8(\u6960\u6893)", "RouteId": 7, "SeqNo": 19, "Terminal": 0, "DistrictId": 1, "Latitude": 22.732472, "Longitude": 120.330291, "IVRNo": 1675, "EXTVoiceNo": 8032, "traveltime": 0, "holidayTraveltime": 0}, {"Id": "7105", "pgp": 0, "GoBack": 1, "SID": 17953, "NameZh": "\u6960\u6893\u904b\u52d5\u5712\u5340(\u571f\u5eab\u8def)", "RouteId": 7, "SeqNo": 20, "Terminal": 0, "DistrictId": 1, "Latitude": 22.735507, "Longitude": 120.333088, "IVRNo": 540, "EXTVoiceNo": 7105, "traveltime": 0, "holidayTraveltime": 0}, {"Id": "7106", "pgp": 0, "GoBack": 1, "SID": 4720, "NameZh": "\u6e05\u8c50\u91cc", "RouteId": 7, "SeqNo": 21, "Terminal": 0, "DistrictId": 1, "Latitude": 22.7384, "Longitude": 120.335606, "IVRNo": 7106, "EXTVoiceNo": 7106, "traveltime": 0, "holidayTraveltime": 0}, {"Id": "7598", "pgp": 0, "GoBack": 1, "SID": 5227, "NameZh": "\u5317\u570b\u9e97\u666f", "RouteId": 7, "SeqNo": 22, "Terminal": 0, "DistrictId": 1, "Latitude": 22.741497, "Longitude": 120.338297, "IVRNo": 820, "EXTVoiceNo": 7598, "traveltime": 0, "holidayTraveltime": 0}, {"Id": "7599", "pgp": 0, "GoBack": 1, "SID": 5228, "NameZh": "\u842c\u91d1\u677e", "RouteId": 7, "SeqNo": 23, "Terminal": 0, "DistrictId": 1, "Latitude": 22.747422, "Longitude": 120.346111, "IVRNo": 7599, "EXTVoiceNo": 7599, "traveltime": 0, "holidayTraveltime": 0}, {"Id": "9272", "pgp": 0, "GoBack": 1, "SID": 11291, "NameZh": "\u5149\u83ef\u8def\u53e3(\u4fdd\u793e\u91cc)", "RouteId": 7, "SeqNo": 24, "Terminal": 0, "DistrictId": 1, "Latitude": 22.74586, "Longitude": 120.34772, "IVRNo": 9859, "EXTVoiceNo": 9272, "traveltime": 0, "holidayTraveltime": 0}, {"Id": "9273", "pgp": 0, "GoBack": 1, "SID": 11292, "NameZh": "\u4fdd\u820d\u7532\u8def", "RouteId": 7, "SeqNo": 25, "Terminal": 0, "DistrictId": 1, "Latitude": 22.74441, "Longitude": 120.34866, "IVRNo": 9860, "EXTVoiceNo": 9273, "traveltime": 0, "holidayTraveltime": 0}, {"Id": "9155", "pgp": 0, "GoBack": 1, "SID": 11293, "NameZh": "\u5927\u793e\u4e2d\u6b63\u8def(\u4fdd\u793e\u91cc)", "RouteId": 7, "SeqNo": 26, "Terminal": 0, "DistrictId": 1, "Latitude": 22.74661, "Longitude": 120.35095, "IVRNo": 489, "EXTVoiceNo": 9155, "traveltime": 0, "holidayTraveltime": 0}, {"Id": "9275", "pgp": 0, "GoBack": 1, "SID": 11294, "NameZh": "\u897f\u5862\u98df\u54c1", "RouteId": 7, "SeqNo": 27, "Terminal": 0, "DistrictId": 1, "Latitude": 22.75035, "Longitude": 120.3521, "IVRNo": 9862, "EXTVoiceNo": 9275, "traveltime": 0, "holidayTraveltime": 0}, {"Id": "7600", "pgp": 0, "GoBack": 1, "SID": 5229, "NameZh": "\u9cf3\u5c71\u539d", "RouteId": 7, "SeqNo": 28, "Terminal": 0, "DistrictId": 1, "Latitude": 22.753447, "Longitude": 120.355055, "IVRNo": 7600, "EXTVoiceNo": 7600, "traveltime": 0, "holidayTraveltime": 0}, {"Id": "7601", "pgp": 0, "GoBack": 1, "SID": 5230, "NameZh": "\u5317\u9cf3\u96c4", "RouteId": 7, "SeqNo": 29, "Terminal": 0, "DistrictId": 1, "Latitude": 22.755605, "Longitude": 120.357377, "IVRNo": 7601, "EXTVoiceNo": 7601, "traveltime": 0, "holidayTraveltime": 0}, {"Id": "7137", "pgp": 0, "GoBack": 1, "SID": 4744, "NameZh": "\u71d5\u5de2\u570b\u4e2d(\u69ae\u6c11\u4e4b\u5bb6)", "RouteId": 7, "SeqNo": 30, "Terminal": 0, "DistrictId": 1, "Latitude": 22.785905, "Longitude": 120.362343, "IVRNo": 7130, "EXTVoiceNo": 7137, "traveltime": 0, "holidayTraveltime": 0}, {"Id": "7602", "pgp": 0, "GoBack": 1, "SID": 5231, "NameZh": "\u7fa9\u5927\u91ab\u9662", "RouteId": 7, "SeqNo": 31, "Terminal": 0, "DistrictId": 1, "Latitude": 22.764784, "Longitude": 120.363975, "IVRNo": 7126, "EXTVoiceNo": 7602, "traveltime": 0, "holidayTraveltime": 0}, {"Id": "9111", "pgp": 0, "GoBack": 1, "SID": 5248, "NameZh": "\u9ad8\u96c4\u770b\u5b88\u6240", "RouteId": 7, "SeqNo": 32, "Terminal": 0, "DistrictId": 1, "Latitude": 22.761361, "Longitude": 120.369072, "IVRNo": 7614, "EXTVoiceNo": 9111, "traveltime": 0, "holidayTraveltime": 0}, {"Id": "9110", "pgp": 0, "GoBack": 1, "SID": 5249, "NameZh": "\u6a39\u5fb7\u79d1\u6280\u5927\u5b78(\u6821\u5340)", "RouteId": 7, "SeqNo": 33, "Terminal": 0, "DistrictId": 1, "Latitude": 22.763712, "Longitude": 120.376458, "IVRNo": 1225, "EXTVoiceNo": 9110, "traveltime": 0, "holidayTraveltime": 0}, {"Id": "1100", "pgp": 0, "GoBack": 1, "SID": 14797, "NameZh": "\u6a6b\u5c71", "RouteId": 7, "SeqNo": 34, "Terminal": 0, "DistrictId": 1, "Latitude": 22.766087, "Longitude": 120.377017, "IVRNo": 708, "EXTVoiceNo": 21100, "traveltime": 0, "holidayTraveltime": 0}, {"Id": "1101", "pgp": 0, "GoBack": 1, "SID": 14798, "NameZh": "\u6a6b\u5c71\u570b\u5c0f", "RouteId": 7, "SeqNo": 35, "Terminal": 0, "DistrictId": 1, "Latitude": 22.767776, "Longitude": 120.379701, "IVRNo": 709, "EXTVoiceNo": 21101, "traveltime": 0, "holidayTraveltime": 0}, {"Id": "1102", "pgp": 0, "GoBack": 1, "SID": 14799, "NameZh": "\u5854\u4ed4\u8173", "RouteId": 7, "SeqNo": 36, "Terminal": 0, "DistrictId": 1, "Latitude": 22.771019, "Longitude": 120.384938, "IVRNo": 710, "EXTVoiceNo": 21102, "traveltime": 0, "holidayTraveltime": 0}, {"Id": "1103", "pgp": 0, "GoBack": 1, "SID": 14800, "NameZh": "\u6df1\u6c34", "RouteId": 7, "SeqNo": 37, "Terminal": 0, "DistrictId": 1, "Latitude": 22.772204, "Longitude": 120.390122, "IVRNo": 711, "EXTVoiceNo": 21103, "traveltime": 0, "holidayTraveltime": 0}, {"Id": "1414", "pgp": 0, "GoBack": 1, "SID": 14801, "NameZh": "\u6e05\u7167\u5bfa", "RouteId": 7, "SeqNo": 38, "Terminal": 0, "DistrictId": 1, "Latitude": 22.772654, "Longitude": 120.392649, "IVRNo": 712, "EXTVoiceNo": 1414, "traveltime": 0, "holidayTraveltime": 0}, {"Id": "0227", "pgp": 0, "GoBack": 1, "SID": 13558, "NameZh": "\u9ad8\u96c4\u79d1\u5927(\u71d5\u5de2)", "RouteId": 7, "SeqNo": 39, "Terminal": 0, "DistrictId": 1, "Latitude": 22.772225, "Longitude": 120.399588, "IVRNo": 1146, "EXTVoiceNo": 227, "traveltime": 0, "holidayTraveltime": 0}, {"Id": "9996", "pgp": 0, "GoBack": 1, "SID": 14802, "NameZh": "\u7af9\u5d0e(\u9ad8\u96c4\u79d1\u5927.\u71d5\u5de2)", "RouteId": 7, "SeqNo": 40, "Terminal": 0, "DistrictId": 1, "Latitude": 22.772317, "Longitude": 120.401058, "IVRNo": 713, "EXTVoiceNo": 19996, "traveltime": 0, "holidayTraveltime": 0}, {"Id": "1106", "pgp": 0, "GoBack": 1, "SID": 14803, "NameZh": "\u77f3\u683c", "RouteId": 7, "SeqNo": 41, "Terminal": 0, "DistrictId": 1, "Latitude": 22.77367, "Longitude": 120.404498, "IVRNo": 714, "EXTVoiceNo": 21106, "traveltime": 0, "holidayTraveltime": 0}, {"Id": "1107", "pgp": 0, "GoBack": 1, "SID": 14804, "NameZh": "\u6df1\u6c34\u570b\u5c0f", "RouteId": 7, "SeqNo": 42, "Terminal": 0, "DistrictId": 1, "Latitude": 22.777488, "Longitude": 120.40592, "IVRNo": 715, "EXTVoiceNo": 21107, "traveltime": 0, "holidayTraveltime": 0}, {"Id": "1108", "pgp": 0, "GoBack": 1, "SID": 14805, "NameZh": "\u9ad8\u5e2b\u5927\u9580\u53e3", "RouteId": 7, "SeqNo": 43, "Terminal": 0, "DistrictId": 1, "Latitude": 22.781754, "Longitude": 120.404417, "IVRNo": 716, "EXTVoiceNo": 21108, "traveltime": 0, "holidayTraveltime": 0}, {"Id": "2362", "pgp": 0, "GoBack": 1, "SID": 16164, "NameZh": "\u9ad8\u5e2b\u5927\u71d5\u5de2\u6821\u5340(\u81f4\u7406\u5927\u6a13)", "RouteId": 7, "SeqNo": 44, "Terminal": 0, "DistrictId": 1, "Latitude": 22.78909, "Longitude": 120.405955, "IVRNo": 1147, "EXTVoiceNo": 32362, "traveltime": 0, "holidayTraveltime": 0}, {"Id": "2363", "pgp": 0, "GoBack": 1, "SID": 15901, "NameZh": "\u9ad8\u5e2b\u5927\u71d5\u5de2\u6821\u5340(\u6b78\u71d5\u98df\u5de2)", "RouteId": 7, "SeqNo": 45, "Terminal": 1, "DistrictId": 1, "Latitude": 22.787303, "Longitude": 120.405005, "IVRNo": 5191, "EXTVoiceNo": 32363, "traveltime": 0, "holidayTraveltime": 0}, {"Id": "2363", "pgp": 0, "GoBack": 2, "SID": 13555, "NameZh": "\u9ad8\u5e2b\u5927\u71d5\u5de2\u6821\u5340(\u6b78\u71d5\u98df\u5de2)", "RouteId": 7, "SeqNo": 1, "Terminal": 0, "DistrictId": 1, "Latitude": 22.786711, "Longitude": 120.404426, "IVRNo": 5191, "EXTVoiceNo": 32363, "traveltime": 0, "holidayTraveltime": 0}, {"Id": "2362", "pgp": 0, "GoBack": 2, "SID": 18156, "NameZh": "\u9ad8\u5e2b\u5927\u71d5\u5de2\u6821\u5340(\u81f4\u7406\u5927\u6a13)", "RouteId": 7, "SeqNo": 2, "Terminal": 0, "DistrictId": 1, "Latitude": 22.789149, "Longitude": 120.405885, "IVRNo": 1147, "EXTVoiceNo": 32362, "traveltime": 0, "holidayTraveltime": 0}, {"Id": "1108", "pgp": 0, "GoBack": 2, "SID": 14806, "NameZh": "\u9ad8\u5e2b\u5927\u9580\u53e3", "RouteId": 7, "SeqNo": 3, "Terminal": 0, "DistrictId": 1, "Latitude": 22.781754, "Longitude": 120.404416, "IVRNo": 716, "EXTVoiceNo": 21108, "traveltime": 0, "holidayTraveltime": 0}, {"Id": "1107", "pgp": 0, "GoBack": 2, "SID": 14807, "NameZh": "\u6df1\u6c34\u570b\u5c0f", "RouteId": 7, "SeqNo": 4, "Terminal": 0, "DistrictId": 1, "Latitude": 22.777077, "Longitude": 120.4058, "IVRNo": 715, "EXTVoiceNo": 21107, "traveltime": 0, "holidayTraveltime": 0}, {"Id": "1106", "pgp": 0, "GoBack": 2, "SID": 13600, "NameZh": "\u77f3\u683c", "RouteId": 7, "SeqNo": 5, "Terminal": 0, "DistrictId": 1, "Latitude": 22.77346, "Longitude": 120.40451, "IVRNo": 714, "EXTVoiceNo": 21106, "traveltime": 0, "holidayTraveltime": 0}, {"Id": "9996", "pgp": 0, "GoBack": 2, "SID": 14808, "NameZh": "\u7af9\u5d0e(\u9ad8\u96c4\u79d1\u5927.\u71d5\u5de2)", "RouteId": 7, "SeqNo": 6, "Terminal": 0, "DistrictId": 1, "Latitude": 22.772512, "Longitude": 120.401101, "IVRNo": 713, "EXTVoiceNo": 19996, "traveltime": 0, "holidayTraveltime": 0}, {"Id": "0227", "pgp": 0, "GoBack": 2, "SID": 13552, "NameZh": "\u9ad8\u96c4\u79d1\u5927(\u71d5\u5de2)", "RouteId": 7, "SeqNo": 7, "Terminal": 0, "DistrictId": 1, "Latitude": 22.772128, "Longitude": 120.399366, "IVRNo": 1146, "EXTVoiceNo": 227, "traveltime": 0, "holidayTraveltime": 0}, {"Id": "1414", "pgp": 0, "GoBack": 2, "SID": 14810, "NameZh": "\u6e05\u7167\u5bfa", "RouteId": 7, "SeqNo": 8, "Terminal": 0, "DistrictId": 1, "Latitude": 22.772754, "Longitude": 120.392785, "IVRNo": 712, "EXTVoiceNo": 1414, "traveltime": 0, "holidayTraveltime": 0}, {"Id": "1103", "pgp": 0, "GoBack": 2, "SID": 14811, "NameZh": "\u6df1\u6c34", "RouteId": 7, "SeqNo": 9, "Terminal": 0, "DistrictId": 1, "Latitude": 22.772204, "Longitude": 120.390123, "IVRNo": 711, "EXTVoiceNo": 21103, "traveltime": 0, "holidayTraveltime": 0}, {"Id": "1102", "pgp": 0, "GoBack": 2, "SID": 14812, "NameZh": "\u5854\u4ed4\u8173", "RouteId": 7, "SeqNo": 10, "Terminal": 0, "DistrictId": 1, "Latitude": 22.771047, "Longitude": 120.385307, "IVRNo": 710, "EXTVoiceNo": 21102, "traveltime": 0, "holidayTraveltime": 0}, {"Id": "1101", "pgp": 0, "GoBack": 2, "SID": 14813, "NameZh": "\u6a6b\u5c71\u570b\u5c0f", "RouteId": 7, "SeqNo": 11, "Terminal": 0, "DistrictId": 1, "Latitude": 22.767776, "Longitude": 120.379808, "IVRNo": 709, "EXTVoiceNo": 21101, "traveltime": 0, "holidayTraveltime": 0}, {"Id": "1100", "pgp": 0, "GoBack": 2, "SID": 14814, "NameZh": "\u6a6b\u5c71", "RouteId": 7, "SeqNo": 12, "Terminal": 0, "DistrictId": 1, "Latitude": 22.76577, "Longitude": 120.376262, "IVRNo": 708, "EXTVoiceNo": 21100, "traveltime": 0, "holidayTraveltime": 0}, {"Id": "9110", "pgp": 0, "GoBack": 2, "SID": 14870, "NameZh": "\u6a39\u5fb7\u79d1\u6280\u5927\u5b78(\u6821\u5340)", "RouteId": 7, "SeqNo": 13, "Terminal": 0, "DistrictId": 1, "Latitude": 22.763712, "Longitude": 120.376458, "IVRNo": 1225, "EXTVoiceNo": 9110, "traveltime": 0, "holidayTraveltime": 0}, {"Id": "9208", "pgp": 0, "GoBack": 2, "SID": 11295, "NameZh": "\u6a39\u79d1\u5927\u9580\u53e3", "RouteId": 7, "SeqNo": 14, "Terminal": 0, "DistrictId": 1, "Latitude": 22.764554, "Longitude": 120.37418, "IVRNo": 9759, "EXTVoiceNo": 9208, "traveltime": 0, "holidayTraveltime": 0}, {"Id": "9111", "pgp": 0, "GoBack": 2, "SID": 5250, "NameZh": "\u9ad8\u96c4\u770b\u5b88\u6240", "RouteId": 7, "SeqNo": 15, "Terminal": 0, "DistrictId": 1, "Latitude": 22.76151, "Longitude": 120.36911, "IVRNo": 7614, "EXTVoiceNo": 9111, "traveltime": 0, "holidayTraveltime": 0}, {"Id": "7602", "pgp": 0, "GoBack": 2, "SID": 5251, "NameZh": "\u7fa9\u5927\u91ab\u9662", "RouteId": 7, "SeqNo": 16, "Terminal": 0, "DistrictId": 1, "Latitude": 22.764857, "Longitude": 120.363955, "IVRNo": 7126, "EXTVoiceNo": 7602, "traveltime": 0, "holidayTraveltime": 0}, {"Id": "7601", "pgp": 0, "GoBack": 2, "SID": 5232, "NameZh": "\u5317\u9cf3\u96c4", "RouteId": 7, "SeqNo": 17, "Terminal": 0, "DistrictId": 1, "Latitude": 22.755763, "Longitude": 120.357388, "IVRNo": 7601, "EXTVoiceNo": 7601, "traveltime": 0, "holidayTraveltime": 0}, {"Id": "7600", "pgp": 0, "GoBack": 2, "SID": 5233, "NameZh": "\u9cf3\u5c71\u539d", "RouteId": 7, "SeqNo": 18, "Terminal": 0, "DistrictId": 1, "Latitude": 22.75365, "Longitude": 120.355022, "IVRNo": 7600, "EXTVoiceNo": 7600, "traveltime": 0, "holidayTraveltime": 0}, {"Id": "9275", "pgp": 0, "GoBack": 2, "SID": 11296, "NameZh": "\u897f\u5862\u98df\u54c1", "RouteId": 7, "SeqNo": 19, "Terminal": 0, "DistrictId": 1, "Latitude": 22.75036, "Longitude": 120.35211, "IVRNo": 9862, "EXTVoiceNo": 9275, "traveltime": 0, "holidayTraveltime": 0}, {"Id": "9155", "pgp": 0, "GoBack": 2, "SID": 11297, "NameZh": "\u5927\u793e\u4e2d\u6b63\u8def(\u4fdd\u793e\u91cc)", "RouteId": 7, "SeqNo": 20, "Terminal": 0, "DistrictId": 1, "Latitude": 22.74657, "Longitude": 120.35082, "IVRNo": 489, "EXTVoiceNo": 9155, "traveltime": 0, "holidayTraveltime": 0}, {"Id": "9273", "pgp": 0, "GoBack": 2, "SID": 11298, "NameZh": "\u4fdd\u820d\u7532\u8def", "RouteId": 7, "SeqNo": 21, "Terminal": 0, "DistrictId": 1, "Latitude": 22.74452, "Longitude": 120.34866, "IVRNo": 9860, "EXTVoiceNo": 9273, "traveltime": 0, "holidayTraveltime": 0}, {"Id": "9272", "pgp": 0, "GoBack": 2, "SID": 11299, "NameZh": "\u5149\u83ef\u8def\u53e3(\u4fdd\u793e\u91cc)", "RouteId": 7, "SeqNo": 22, "Terminal": 0, "DistrictId": 1, "Latitude": 22.74574, "Longitude": 120.34782, "IVRNo": 9859, "EXTVoiceNo": 9272, "traveltime": 0, "holidayTraveltime": 0}, {"Id": "7599", "pgp": 0, "GoBack": 2, "SID": 5234, "NameZh": "\u842c\u91d1\u677e", "RouteId": 7, "SeqNo": 23, "Terminal": 0, "DistrictId": 1, "Latitude": 22.747405, "Longitude": 120.345822, "IVRNo": 7599, "EXTVoiceNo": 7599, "traveltime": 0, "holidayTraveltime": 0}, {"Id": "7598", "pgp": 0, "GoBack": 2, "SID": 5235, "NameZh": "\u5317\u570b\u9e97\u666f", "RouteId": 7, "SeqNo": 24, "Terminal": 0, "DistrictId": 1, "Latitude": 22.741625, "Longitude": 120.338213, "IVRNo": 820, "EXTVoiceNo": 7598, "traveltime": 0, "holidayTraveltime": 0}, {"Id": "7106", "pgp": 0, "GoBack": 2, "SID": 4754, "NameZh": "\u6e05\u8c50\u91cc", "RouteId": 7, "SeqNo": 25, "Terminal": 0, "DistrictId": 1, "Latitude": 22.738647, "Longitude": 120.335447, "IVRNo": 7106, "EXTVoiceNo": 7106, "traveltime": 0, "holidayTraveltime": 0}, {"Id": "7105", "pgp": 0, "GoBack": 2, "SID": 18228, "NameZh": "\u6960\u6893\u904b\u52d5\u5712\u5340(\u571f\u5eab\u8def)", "RouteId": 7, "SeqNo": 26, "Terminal": 0, "DistrictId": 1, "Latitude": 22.73618, "Longitude": 120.333261, "IVRNo": 540, "EXTVoiceNo": 7105, "traveltime": 0, "holidayTraveltime": 0}, {"Id": "8032", "pgp": 0, "GoBack": 2, "SID": 5236, "NameZh": "\u96fb\u529b\u516c\u53f8(\u6960\u6893)", "RouteId": 7, "SeqNo": 27, "Terminal": 0, "DistrictId": 1, "Latitude": 22.732938, "Longitude": 120.33053, "IVRNo": 1675, "EXTVoiceNo": 8032, "traveltime": 0, "holidayTraveltime": 0}, {"Id": "7014", "pgp": 0, "GoBack": 2, "SID": 4667, "NameZh": "\u6960\u6893\u6d3e\u51fa\u6240(\u65d7\u6960\u8def)", "RouteId": 7, "SeqNo": 28, "Terminal": 0, "DistrictId": 1, "Latitude": 22.731056, "Longitude": 120.328296, "IVRNo": 7014, "EXTVoiceNo": 7014, "traveltime": 0, "holidayTraveltime": 0}, {"Id": "7077", "pgp": 0, "GoBack": 2, "SID": 4602, "NameZh": "\u6148\u96f2\u5bfa(\u6960\u6893\u5340\u516c\u6240)", "RouteId": 7, "SeqNo": 29, "Terminal": 0, "DistrictId": 1, "Latitude": 22.730165, "Longitude": 120.327107, "IVRNo": 7015, "EXTVoiceNo": 7077, "traveltime": 0, "holidayTraveltime": 0}, {"Id": "7076", "pgp": 0, "GoBack": 2, "SID": 4605, "NameZh": "\u6960\u6893\u706b\u8eca\u7ad9", "RouteId": 7, "SeqNo": 30, "Terminal": 0, "DistrictId": 1, "Latitude": 22.727566, "Longitude": 120.325352, "IVRNo": 7016, "EXTVoiceNo": 7076, "traveltime": 0, "holidayTraveltime": 0}, {"Id": "7012", "pgp": 0, "GoBack": 2, "SID": 4671, "NameZh": "\u5efa\u6960\u8def", "RouteId": 7, "SeqNo": 31, "Terminal": 0, "DistrictId": 1, "Latitude": 22.726788, "Longitude": 120.328404, "IVRNo": 7012, "EXTVoiceNo": 7012, "traveltime": 0, "holidayTraveltime": 0}, {"Id": "7011", "pgp": 0, "GoBack": 2, "SID": 4676, "NameZh": "\u6960\u967d\u570b\u5c0f", "RouteId": 7, "SeqNo": 32, "Terminal": 0, "DistrictId": 1, "Latitude": 22.725027, "Longitude": 120.329486, "IVRNo": 7011, "EXTVoiceNo": 7011, "traveltime": 0, "holidayTraveltime": 0}, {"Id": "8752", "pgp": 0, "GoBack": 2, "SID": 5697, "NameZh": "\u5065\u4ec1\u91ab\u9662", "RouteId": 7, "SeqNo": 33, "Terminal": 0, "DistrictId": 1, "Latitude": 22.72378, "Longitude": 120.32938, "IVRNo": 8752, "EXTVoiceNo": 8752, "traveltime": 0, "holidayTraveltime": 0}, {"Id": "0714", "pgp": 0, "GoBack": 2, "SID": 5211, "NameZh": "\u9ad8\u6960\u9678\u6a4b(\u6377\u904b\u90fd\u6703\u516c\u5712\u7ad9)", "RouteId": 7, "SeqNo": 34, "Terminal": 0, "DistrictId": 1, "Latitude": 22.727972, "Longitude": 120.321444, "IVRNo": 7508, "EXTVoiceNo": 20714, "traveltime": 0, "holidayTraveltime": 0}, {"Id": "8140", "pgp": 0, "GoBack": 2, "SID": 5463, "NameZh": "\u6377\u904b\u90fd\u6703\u516c\u5712\u7ad9", "RouteId": 7, "SeqNo": 35, "Terminal": 0, "DistrictId": 1, "Latitude": 22.730255, "Longitude": 120.320808, "IVRNo": 1283, "EXTVoiceNo": 8140, "traveltime": 0, "holidayTraveltime": 0}, {"Id": "7507", "pgp": 0, "GoBack": 2, "SID": 5212, "NameZh": "\u76e3\u7406\u8655(\u90fd\u6703\u516c\u5712)", "RouteId": 7, "SeqNo": 36, "Terminal": 0, "DistrictId": 1, "Latitude": 22.7313, "Longitude": 120.316491, "IVRNo": 7507, "EXTVoiceNo": 7507, "traveltime": 0, "holidayTraveltime": 0}, {"Id": "7506", "pgp": 0, "GoBack": 2, "SID": 5217, "NameZh": "\u6771\u7fe0\u5c4f\u91cc", "RouteId": 7, "SeqNo": 37, "Terminal": 0, "DistrictId": 1, "Latitude": 22.72825, "Longitude": 120.312383, "IVRNo": 7506, "EXTVoiceNo": 7506, "traveltime": 0, "holidayTraveltime": 0}, {"Id": "8045", "pgp": 0, "GoBack": 2, "SID": 5430, "NameZh": "\u9ad8\u96c4\u79d1\u5927(\u6960\u6893)", "RouteId": 7, "SeqNo": 38, "Terminal": 0, "DistrictId": 1, "Latitude": 22.724822, "Longitude": 120.313741, "IVRNo": 8025, "EXTVoiceNo": 8045, "traveltime": 0, "holidayTraveltime": 0}, {"Id": "8044", "pgp": 0, "GoBack": 2, "SID": 5434, "NameZh": "\u52a0\u660c\u8def\u53e3(\u6377\u904b\u5f8c\u52c1\u7ad9)", "RouteId": 7, "SeqNo": 39, "Terminal": 0, "DistrictId": 1, "Latitude": 22.722572, "Longitude": 120.316886, "IVRNo": 8026, "EXTVoiceNo": 8044, "traveltime": 0, "holidayTraveltime": 0}, {"Id": "7082", "pgp": 0, "GoBack": 2, "SID": 4680, "NameZh": "\u5f8c\u52c1\u570b\u4e2d(\u6377\u904b\u5f8c\u52c1\u7ad9)", "RouteId": 7, "SeqNo": 40, "Terminal": 0, "DistrictId": 1, "Latitude": 22.722133, "Longitude": 120.315466, "IVRNo": 7010, "EXTVoiceNo": 7082, "traveltime": 0, "holidayTraveltime": 0}, {"Id": "7009", "pgp": 0, "GoBack": 2, "SID": 4687, "NameZh": "\u5f8c\u52c1\u570b\u5c0f(\u6377\u904b\u5f8c\u52c1\u7ad9)", "RouteId": 7, "SeqNo": 41, "Terminal": 0, "DistrictId": 1, "Latitude": 22.721158, "Longitude": 120.313597, "IVRNo": 7083, "EXTVoiceNo": 7009, "traveltime": 0, "holidayTraveltime": 0}, {"Id": "4748", "pgp": 0, "GoBack": 2, "SID": 3334, "NameZh": "\u52a0\u660c\u8def", "RouteId": 7, "SeqNo": 42, "Terminal": 0, "DistrictId": 1, "Latitude": 22.720077, "Longitude": 120.310261, "IVRNo": 4740, "EXTVoiceNo": 4748, "traveltime": 0, "holidayTraveltime": 0}, {"Id": "4747", "pgp": 0, "GoBack": 2, "SID": 3339, "NameZh": "\u6771\u9580\u5165\u53e3", "RouteId": 7, "SeqNo": 43, "Terminal": 0, "DistrictId": 1, "Latitude": 22.719525, "Longitude": 120.308783, "IVRNo": 42, "EXTVoiceNo": 4747, "traveltime": 0, "holidayTraveltime": 0}, {"Id": "7084", "pgp": 0, "GoBack": 2, "SID": 4691, "NameZh": "\u6377\u904b\u6960\u6893\u52a0\u5de5\u5340\u7ad9", "RouteId": 7, "SeqNo": 44, "Terminal": 0, "DistrictId": 1, "Latitude": 22.718541, "Longitude": 120.306562, "IVRNo": 7008, "EXTVoiceNo": 7084, "traveltime": 0, "holidayTraveltime": 0}, {"Id": "4746", "pgp": 0, "GoBack": 2, "SID": 3345, "NameZh": "\u6960\u6893\u52a0\u5de5\u5340", "RouteId": 7, "SeqNo": 45, "Terminal": 0, "DistrictId": 1, "Latitude": 22.717387, "Longitude": 120.303127, "IVRNo": 4742, "EXTVoiceNo": 4746, "traveltime": 0, "holidayTraveltime": 0}, {"Id": "7001", "pgp": 0, "GoBack": 2, "SID": 4548, "NameZh": "\u52a0\u660c\u7ad9", "RouteId": 7, "SeqNo": 46, "Terminal": 1, "DistrictId": 1, "Latitude": 22.718651, "Longitude": 120.298566, "IVRNo": 7000, "EXTVoiceNo": 7001, "traveltime": 0, "holidayTraveltime": 0}]}