{"en": [{"Id": "0832", "pgp": 0, "GoBack": 1, "SID": 10676, "NameZh": "Gangshan Transfer Station (Gangshan Train Station)", "RouteId": 221, "SeqNo": 1, "Terminal": 0, "DistrictId": 1, "Latitude": 22.790986, "Longitude": 120.299244, "IVRNo": 832, "EXTVoiceNo": 832, "traveltime": 0, "holidayTraveltime": 0}, {"Id": "0112", "pgp": 0, "GoBack": 1, "SID": 11170, "NameZh": "Dade 3rd Rd. Intersection", "RouteId": 221, "SeqNo": 2, "Terminal": 0, "DistrictId": 1, "Latitude": 22.78874, "Longitude": 120.29934, "IVRNo": 9951, "EXTVoiceNo": 20112, "traveltime": 0, "holidayTraveltime": 0}, {"Id": "4788", "pgp": 0, "GoBack": 1, "SID": 11270, "NameZh": "Gangshan Cultural Center (Back Door)", "RouteId": 221, "SeqNo": 3, "Terminal": 0, "DistrictId": 1, "Latitude": 22.78287, "Longitude": 120.2994, "IVRNo": 8037, "EXTVoiceNo": 4788, "traveltime": 0, "holidayTraveltime": 0}, {"Id": "0828", "pgp": 0, "GoBack": 1, "SID": 13326, "NameZh": "MRT Gangshan South Station", "RouteId": 221, "SeqNo": 4, "Terminal": 0, "DistrictId": 1, "Latitude": 22.780612, "Longitude": 120.300541, "IVRNo": 828, "EXTVoiceNo": 828, "traveltime": 0, "holidayTraveltime": 0}, {"Id": "0017", "pgp": 0, "GoBack": 1, "SID": 11271, "NameZh": "Gangshan Office (National Taxation Bureau of Kaohsiung)", "RouteId": 221, "SeqNo": 5, "Terminal": 0, "DistrictId": 1, "Latitude": 22.78453, "Longitude": 120.2912, "IVRNo": 8039, "EXTVoiceNo": 17, "traveltime": 0, "holidayTraveltime": 0}, {"Id": "7163", "pgp": 0, "GoBack": 1, "SID": 11273, "NameZh": "Armed Forces General Hospital Gangshan Branch", "RouteId": 221, "SeqNo": 6, "Terminal": 0, "DistrictId": 1, "Latitude": 22.78913, "Longitude": 120.28515, "IVRNo": 9039, "EXTVoiceNo": 17163, "traveltime": 0, "holidayTraveltime": 0}, {"Id": "0016", "pgp": 0, "GoBack": 1, "SID": 11275, "NameZh": "Lok An Hospital", "RouteId": 221, "SeqNo": 7, "Terminal": 0, "DistrictId": 1, "Latitude": 22.79218, "Longitude": 120.28109, "IVRNo": 8033, "EXTVoiceNo": 16, "traveltime": 0, "holidayTraveltime": 0}, {"Id": "2364", "pgp": 0, "GoBack": 1, "SID": 17937, "NameZh": "Yuying Rd.", "RouteId": 221, "SeqNo": 8, "Terminal": 0, "DistrictId": 1, "Latitude": 22.794006, "Longitude": 120.28193, "IVRNo": 1221, "EXTVoiceNo": 2364, "traveltime": 0, "holidayTraveltime": 0}, {"Id": "6057", "pgp": 0, "GoBack": 1, "SID": 14756, "NameZh": "Gongyuan W. Rd.", "RouteId": 221, "SeqNo": 9, "Terminal": 0, "DistrictId": 1, "Latitude": 22.795345, "Longitude": 120.284906, "IVRNo": 651, "EXTVoiceNo": 26057, "traveltime": 0, "holidayTraveltime": 0}, {"Id": "1111", "pgp": 0, "GoBack": 1, "SID": 6167, "NameZh": "Shoufong Village", "RouteId": 221, "SeqNo": 10, "Terminal": 0, "DistrictId": 1, "Latitude": 22.797181, "Longitude": 120.286303, "IVRNo": 795, "EXTVoiceNo": 21111, "traveltime": 0, "holidayTraveltime": 0}, {"Id": "6063", "pgp": 0, "GoBack": 1, "SID": 14757, "NameZh": "Welfare Service Center", "RouteId": 221, "SeqNo": 11, "Terminal": 0, "DistrictId": 1, "Latitude": 22.799334, "Longitude": 120.290723, "IVRNo": 652, "EXTVoiceNo": 26063, "traveltime": 0, "holidayTraveltime": 0}, {"Id": "9166", "pgp": 0, "GoBack": 1, "SID": 10796, "NameZh": "Gangshan Agricultural & Industrial Vocational Senior High School", "RouteId": 221, "SeqNo": 12, "Terminal": 0, "DistrictId": 1, "Latitude": 22.8022, "Longitude": 120.2917, "IVRNo": 874, "EXTVoiceNo": 9166, "traveltime": 0, "holidayTraveltime": 0}, {"Id": "9167", "pgp": 0, "GoBack": 1, "SID": 10797, "NameZh": "Tzu Chi University Continuing Education Center", "RouteId": 221, "SeqNo": 13, "Terminal": 0, "DistrictId": 1, "Latitude": 22.80751, "Longitude": 120.28523, "IVRNo": 9644, "EXTVoiceNo": 9167, "traveltime": 0, "holidayTraveltime": 0}, {"Id": "3447", "pgp": 0, "GoBack": 1, "SID": 10798, "NameZh": "Wanzihnei (Gangshan)", "RouteId": 221, "SeqNo": 14, "Terminal": 0, "DistrictId": 1, "Latitude": 22.809707, "Longitude": 120.282383, "IVRNo": 616, "EXTVoiceNo": 13447, "traveltime": 0, "holidayTraveltime": 0}, {"Id": "9169", "pgp": 0, "GoBack": 1, "SID": 10799, "NameZh": "Yude St. Intersection", "RouteId": 221, "SeqNo": 15, "Terminal": 0, "DistrictId": 1, "Latitude": 22.81185, "Longitude": 120.28005, "IVRNo": 9646, "EXTVoiceNo": 9169, "traveltime": 0, "holidayTraveltime": 0}, {"Id": "9170", "pgp": 0, "GoBack": 1, "SID": 10800, "NameZh": "Taiwan Cement Corporation", "RouteId": 221, "SeqNo": 16, "Terminal": 0, "DistrictId": 1, "Latitude": 22.81696, "Longitude": 120.2737, "IVRNo": 9647, "EXTVoiceNo": 9170, "traveltime": 0, "holidayTraveltime": 0}, {"Id": "9171", "pgp": 0, "GoBack": 1, "SID": 10801, "NameZh": "Beilingcian", "RouteId": 221, "SeqNo": 17, "Terminal": 0, "DistrictId": 1, "Latitude": 22.8212, "Longitude": 120.26946, "IVRNo": 9648, "EXTVoiceNo": 9171, "traveltime": 0, "holidayTraveltime": 0}, {"Id": "9172", "pgp": 0, "GoBack": 1, "SID": 10802, "NameZh": "Wei Chuan Foods Corp.", "RouteId": 221, "SeqNo": 18, "Terminal": 0, "DistrictId": 1, "Latitude": 22.82731, "Longitude": 120.2666, "IVRNo": 9649, "EXTVoiceNo": 9172, "traveltime": 0, "holidayTraveltime": 0}, {"Id": "9173", "pgp": 0, "GoBack": 1, "SID": 10862, "NameZh": "Kao Yuan University", "RouteId": 221, "SeqNo": 19, "Terminal": 0, "DistrictId": 1, "Latitude": 22.8415, "Longitude": 120.26383, "IVRNo": 9650, "EXTVoiceNo": 9173, "traveltime": 0, "holidayTraveltime": 0}, {"Id": "9174", "pgp": 0, "GoBack": 1, "SID": 10805, "NameZh": "East Alliance Enterprise Corporation", "RouteId": 221, "SeqNo": 20, "Terminal": 0, "DistrictId": 1, "Latitude": 22.84871, "Longitude": 120.26246, "IVRNo": 9651, "EXTVoiceNo": 9174, "traveltime": 0, "holidayTraveltime": 0}, {"Id": "9175", "pgp": 0, "GoBack": 1, "SID": 10806, "NameZh": "Lujhu District Office (Jhongshan Rd.)", "RouteId": 221, "SeqNo": 21, "Terminal": 0, "DistrictId": 1, "Latitude": 22.853811, "Longitude": 120.26144, "IVRNo": 829, "EXTVoiceNo": 9175, "traveltime": 0, "holidayTraveltime": 0}, {"Id": "9176", "pgp": 0, "GoBack": 1, "SID": 10807, "NameZh": "Lujhu", "RouteId": 221, "SeqNo": 22, "Terminal": 0, "DistrictId": 1, "Latitude": 22.85905, "Longitude": 120.26016, "IVRNo": 9653, "EXTVoiceNo": 9176, "traveltime": 0, "holidayTraveltime": 0}, {"Id": "0148", "pgp": 0, "GoBack": 1, "SID": 14097, "NameZh": "Lujhu Farmers` Association", "RouteId": 221, "SeqNo": 23, "Terminal": 0, "DistrictId": 1, "Latitude": 22.861015, "Longitude": 120.260212, "IVRNo": 4788, "EXTVoiceNo": 148, "traveltime": 0, "holidayTraveltime": 0}, {"Id": "6055", "pgp": 0, "GoBack": 1, "SID": 14758, "NameZh": "Dashe Rd.", "RouteId": 221, "SeqNo": 24, "Terminal": 0, "DistrictId": 1, "Latitude": 22.862898, "Longitude": 120.261941, "IVRNo": 653, "EXTVoiceNo": 26055, "traveltime": 0, "holidayTraveltime": 0}, {"Id": "6054", "pgp": 0, "GoBack": 1, "SID": 14759, "NameZh": "Dashe Elementary School", "RouteId": 221, "SeqNo": 25, "Terminal": 0, "DistrictId": 1, "Latitude": 22.867012, "Longitude": 120.265489, "IVRNo": 654, "EXTVoiceNo": 26054, "traveltime": 0, "holidayTraveltime": 0}, {"Id": "6052", "pgp": 0, "GoBack": 1, "SID": 14760, "NameZh": "Yijia Police Station", "RouteId": 221, "SeqNo": 26, "Terminal": 0, "DistrictId": 1, "Latitude": 22.869929, "Longitude": 120.268132, "IVRNo": 655, "EXTVoiceNo": 26052, "traveltime": 0, "holidayTraveltime": 0}, {"Id": "0068", "pgp": 0, "GoBack": 1, "SID": 14761, "NameZh": "Daren Rd.", "RouteId": 221, "SeqNo": 27, "Terminal": 0, "DistrictId": 1, "Latitude": 22.870867, "Longitude": 120.270081, "IVRNo": 656, "EXTVoiceNo": 20068, "traveltime": 0, "holidayTraveltime": 0}, {"Id": "1103", "pgp": 0, "GoBack": 1, "SID": 14320, "NameZh": "Yijia (Lujhu)", "RouteId": 221, "SeqNo": 28, "Terminal": 0, "DistrictId": 1, "Latitude": 22.871588, "Longitude": 120.273586, "IVRNo": 1053, "EXTVoiceNo": 1103, "traveltime": 0, "holidayTraveltime": 0}, {"Id": "6069", "pgp": 0, "GoBack": 1, "SID": 14762, "NameZh": "Fude Temple", "RouteId": 221, "SeqNo": 29, "Terminal": 0, "DistrictId": 1, "Latitude": 22.871774, "Longitude": 120.274304, "IVRNo": 657, "EXTVoiceNo": 26069, "traveltime": 0, "holidayTraveltime": 0}, {"Id": "6058", "pgp": 0, "GoBack": 1, "SID": 14763, "NameZh": "Taiping Rd.", "RouteId": 221, "SeqNo": 30, "Terminal": 0, "DistrictId": 1, "Latitude": 22.867163, "Longitude": 120.288043, "IVRNo": 658, "EXTVoiceNo": 26058, "traveltime": 0, "holidayTraveltime": 0}, {"Id": "6053", "pgp": 0, "GoBack": 1, "SID": 14764, "NameZh": "Siakeng Village", "RouteId": 221, "SeqNo": 31, "Terminal": 0, "DistrictId": 1, "Latitude": 22.868169, "Longitude": 120.290164, "IVRNo": 659, "EXTVoiceNo": 26053, "traveltime": 0, "holidayTraveltime": 0}, {"Id": "6068", "pgp": 0, "GoBack": 1, "SID": 14765, "NameZh": "Sinsheng Rd.", "RouteId": 221, "SeqNo": 32, "Terminal": 0, "DistrictId": 1, "Latitude": 22.872506, "Longitude": 120.291217, "IVRNo": 660, "EXTVoiceNo": 26068, "traveltime": 0, "holidayTraveltime": 0}, {"Id": "6060", "pgp": 0, "GoBack": 1, "SID": 14766, "NameZh": "Jhuyuan Village", "RouteId": 221, "SeqNo": 33, "Terminal": 0, "DistrictId": 1, "Latitude": 22.874808, "Longitude": 120.291753, "IVRNo": 661, "EXTVoiceNo": 26060, "traveltime": 0, "holidayTraveltime": 0}, {"Id": "1200", "pgp": 0, "GoBack": 1, "SID": 12424, "NameZh": "Chunglu Village", "RouteId": 221, "SeqNo": 34, "Terminal": 0, "DistrictId": 1, "Latitude": 22.88922, "Longitude": 120.29296, "IVRNo": 1031, "EXTVoiceNo": 21200, "traveltime": 0, "holidayTraveltime": 0}, {"Id": "6056", "pgp": 0, "GoBack": 1, "SID": 14767, "NameZh": "Chunglu", "RouteId": 221, "SeqNo": 35, "Terminal": 0, "DistrictId": 1, "Latitude": 22.893651, "Longitude": 120.29363, "IVRNo": 662, "EXTVoiceNo": 26056, "traveltime": 0, "holidayTraveltime": 0}, {"Id": "6066", "pgp": 0, "GoBack": 1, "SID": 14768, "NameZh": "Alian Farmers` Association (Midst Branch)", "RouteId": 221, "SeqNo": 36, "Terminal": 0, "DistrictId": 1, "Latitude": 22.894926, "Longitude": 120.295068, "IVRNo": 663, "EXTVoiceNo": 26066, "traveltime": 0, "holidayTraveltime": 0}, {"Id": "1199", "pgp": 0, "GoBack": 1, "SID": 12423, "NameZh": "Chung-Lu Primary School", "RouteId": 221, "SeqNo": 37, "Terminal": 0, "DistrictId": 1, "Latitude": 22.89441, "Longitude": 120.29944, "IVRNo": 1030, "EXTVoiceNo": 21199, "traveltime": 0, "holidayTraveltime": 0}, {"Id": "6059", "pgp": 0, "GoBack": 1, "SID": 14769, "NameZh": "Shihan Village", "RouteId": 221, "SeqNo": 38, "Terminal": 0, "DistrictId": 1, "Latitude": 22.89373, "Longitude": 120.308608, "IVRNo": 664, "EXTVoiceNo": 26059, "traveltime": 0, "holidayTraveltime": 0}, {"Id": "6070", "pgp": 0, "GoBack": 1, "SID": 14770, "NameZh": "Su Family Historical Residence", "RouteId": 221, "SeqNo": 39, "Terminal": 0, "DistrictId": 1, "Latitude": 22.893907, "Longitude": 120.310659, "IVRNo": 665, "EXTVoiceNo": 26070, "traveltime": 0, "holidayTraveltime": 0}, {"Id": "6064", "pgp": 0, "GoBack": 1, "SID": 14771, "NameZh": "Shewei Rd. Intersection", "RouteId": 221, "SeqNo": 40, "Terminal": 0, "DistrictId": 1, "Latitude": 22.891637, "Longitude": 120.315272, "IVRNo": 666, "EXTVoiceNo": 26064, "traveltime": 0, "holidayTraveltime": 0}, {"Id": "6067", "pgp": 0, "GoBack": 1, "SID": 14772, "NameZh": "Cingci Village", "RouteId": 221, "SeqNo": 41, "Terminal": 0, "DistrictId": 1, "Latitude": 22.891032, "Longitude": 120.319237, "IVRNo": 667, "EXTVoiceNo": 26067, "traveltime": 0, "holidayTraveltime": 0}, {"Id": "0747", "pgp": 0, "GoBack": 1, "SID": 14773, "NameZh": "Dingcuo (Alian)", "RouteId": 221, "SeqNo": 42, "Terminal": 0, "DistrictId": 1, "Latitude": 22.890949, "Longitude": 120.321093, "IVRNo": 668, "EXTVoiceNo": 20747, "traveltime": 0, "holidayTraveltime": 0}, {"Id": "0147", "pgp": 0, "GoBack": 1, "SID": 3897, "NameZh": "Shetou", "RouteId": 221, "SeqNo": 43, "Terminal": 0, "DistrictId": 1, "Latitude": 22.889743, "Longitude": 120.322272, "IVRNo": 4790, "EXTVoiceNo": 147, "traveltime": 0, "holidayTraveltime": 0}, {"Id": "6065", "pgp": 0, "GoBack": 1, "SID": 19096, "NameZh": "Alian District Office", "RouteId": 221, "SeqNo": 44, "Terminal": 1, "DistrictId": 1, "Latitude": 22.883324, "Longitude": 120.32685, "IVRNo": 669, "EXTVoiceNo": 26065, "traveltime": 0, "holidayTraveltime": 0}, {"Id": "9153", "pgp": 0, "GoBack": 2, "SID": 10976, "NameZh": "Alian Police Station", "RouteId": 221, "SeqNo": 1, "Terminal": 0, "DistrictId": 1, "Latitude": 22.87898, "Longitude": 120.32928, "IVRNo": 9589, "EXTVoiceNo": 9153, "traveltime": 0, "holidayTraveltime": 0}, {"Id": "6065", "pgp": 0, "GoBack": 2, "SID": 14774, "NameZh": "Alian District Office", "RouteId": 221, "SeqNo": 2, "Terminal": 0, "DistrictId": 1, "Latitude": 22.883124, "Longitude": 120.327207, "IVRNo": 669, "EXTVoiceNo": 26065, "traveltime": 0, "holidayTraveltime": 0}, {"Id": "0147", "pgp": 0, "GoBack": 2, "SID": 3898, "NameZh": "Shetou", "RouteId": 221, "SeqNo": 3, "Terminal": 0, "DistrictId": 1, "Latitude": 22.889877, "Longitude": 120.322335, "IVRNo": 4790, "EXTVoiceNo": 147, "traveltime": 0, "holidayTraveltime": 0}, {"Id": "0747", "pgp": 0, "GoBack": 2, "SID": 14775, "NameZh": "Dingcuo (Alian)", "RouteId": 221, "SeqNo": 4, "Terminal": 0, "DistrictId": 1, "Latitude": 22.891019, "Longitude": 120.320942, "IVRNo": 668, "EXTVoiceNo": 20747, "traveltime": 0, "holidayTraveltime": 0}, {"Id": "6067", "pgp": 0, "GoBack": 2, "SID": 14776, "NameZh": "Cingci Village", "RouteId": 221, "SeqNo": 5, "Terminal": 0, "DistrictId": 1, "Latitude": 22.891032, "Longitude": 120.319237, "IVRNo": 667, "EXTVoiceNo": 26067, "traveltime": 0, "holidayTraveltime": 0}, {"Id": "6064", "pgp": 0, "GoBack": 2, "SID": 14777, "NameZh": "Shewei Rd. Intersection", "RouteId": 221, "SeqNo": 6, "Terminal": 0, "DistrictId": 1, "Latitude": 22.891637, "Longitude": 120.315272, "IVRNo": 666, "EXTVoiceNo": 26064, "traveltime": 0, "holidayTraveltime": 0}, {"Id": "6070", "pgp": 0, "GoBack": 2, "SID": 14778, "NameZh": "Su Family Historical Residence", "RouteId": 221, "SeqNo": 7, "Terminal": 0, "DistrictId": 1, "Latitude": 22.893907, "Longitude": 120.310659, "IVRNo": 665, "EXTVoiceNo": 26070, "traveltime": 0, "holidayTraveltime": 0}, {"Id": "6059", "pgp": 0, "GoBack": 2, "SID": 14779, "NameZh": "Shihan Village", "RouteId": 221, "SeqNo": 8, "Terminal": 0, "DistrictId": 1, "Latitude": 22.893789, "Longitude": 120.308275, "IVRNo": 664, "EXTVoiceNo": 26059, "traveltime": 0, "holidayTraveltime": 0}, {"Id": "1199", "pgp": 0, "GoBack": 2, "SID": 12425, "NameZh": "Chung-Lu Primary School", "RouteId": 221, "SeqNo": 9, "Terminal": 0, "DistrictId": 1, "Latitude": 22.89448, "Longitude": 120.29936, "IVRNo": 1030, "EXTVoiceNo": 21199, "traveltime": 0, "holidayTraveltime": 0}, {"Id": "6066", "pgp": 0, "GoBack": 2, "SID": 14780, "NameZh": "Alian Farmers` Association (Midst Branch)", "RouteId": 221, "SeqNo": 10, "Terminal": 0, "DistrictId": 1, "Latitude": 22.895143, "Longitude": 120.294574, "IVRNo": 663, "EXTVoiceNo": 26066, "traveltime": 0, "holidayTraveltime": 0}, {"Id": "6056", "pgp": 0, "GoBack": 2, "SID": 14781, "NameZh": "Chunglu", "RouteId": 221, "SeqNo": 11, "Terminal": 0, "DistrictId": 1, "Latitude": 22.894007, "Longitude": 120.29363, "IVRNo": 662, "EXTVoiceNo": 26056, "traveltime": 0, "holidayTraveltime": 0}, {"Id": "1200", "pgp": 0, "GoBack": 2, "SID": 12426, "NameZh": "Chunglu Village", "RouteId": 221, "SeqNo": 12, "Terminal": 0, "DistrictId": 1, "Latitude": 22.88941, "Longitude": 120.29284, "IVRNo": 1031, "EXTVoiceNo": 21200, "traveltime": 0, "holidayTraveltime": 0}, {"Id": "6060", "pgp": 0, "GoBack": 2, "SID": 14782, "NameZh": "Jhuyuan Village", "RouteId": 221, "SeqNo": 13, "Terminal": 0, "DistrictId": 1, "Latitude": 22.878172, "Longitude": 120.292225, "IVRNo": 661, "EXTVoiceNo": 26060, "traveltime": 0, "holidayTraveltime": 0}, {"Id": "6068", "pgp": 0, "GoBack": 2, "SID": 14783, "NameZh": "Sinsheng Rd.", "RouteId": 221, "SeqNo": 14, "Terminal": 0, "DistrictId": 1, "Latitude": 22.872506, "Longitude": 120.291217, "IVRNo": 660, "EXTVoiceNo": 26068, "traveltime": 0, "holidayTraveltime": 0}, {"Id": "6053", "pgp": 0, "GoBack": 2, "SID": 14784, "NameZh": "Siakeng Village", "RouteId": 221, "SeqNo": 15, "Terminal": 0, "DistrictId": 1, "Latitude": 22.868169, "Longitude": 120.290164, "IVRNo": 659, "EXTVoiceNo": 26053, "traveltime": 0, "holidayTraveltime": 0}, {"Id": "6058", "pgp": 0, "GoBack": 2, "SID": 14785, "NameZh": "Taiping Rd.", "RouteId": 221, "SeqNo": 16, "Terminal": 0, "DistrictId": 1, "Latitude": 22.867163, "Longitude": 120.288243, "IVRNo": 658, "EXTVoiceNo": 26058, "traveltime": 0, "holidayTraveltime": 0}, {"Id": "6069", "pgp": 0, "GoBack": 2, "SID": 14786, "NameZh": "Fude Temple", "RouteId": 221, "SeqNo": 17, "Terminal": 0, "DistrictId": 1, "Latitude": 22.871774, "Longitude": 120.274304, "IVRNo": 657, "EXTVoiceNo": 26069, "traveltime": 0, "holidayTraveltime": 0}, {"Id": "1103", "pgp": 0, "GoBack": 2, "SID": 13875, "NameZh": "Yijia (Lujhu)", "RouteId": 221, "SeqNo": 18, "Terminal": 0, "DistrictId": 1, "Latitude": 22.871588, "Longitude": 120.273461, "IVRNo": 1053, "EXTVoiceNo": 1103, "traveltime": 0, "holidayTraveltime": 0}, {"Id": "0068", "pgp": 0, "GoBack": 2, "SID": 14787, "NameZh": "Daren Rd.", "RouteId": 221, "SeqNo": 19, "Terminal": 0, "DistrictId": 1, "Latitude": 22.87145, "Longitude": 120.272655, "IVRNo": 656, "EXTVoiceNo": 20068, "traveltime": 0, "holidayTraveltime": 0}, {"Id": "6052", "pgp": 0, "GoBack": 2, "SID": 14788, "NameZh": "Yijia Police Station", "RouteId": 221, "SeqNo": 20, "Terminal": 0, "DistrictId": 1, "Latitude": 22.869493, "Longitude": 120.267591, "IVRNo": 655, "EXTVoiceNo": 26052, "traveltime": 0, "holidayTraveltime": 0}, {"Id": "6054", "pgp": 0, "GoBack": 2, "SID": 14789, "NameZh": "Dashe Elementary School", "RouteId": 221, "SeqNo": 21, "Terminal": 0, "DistrictId": 1, "Latitude": 22.866457, "Longitude": 120.264995, "IVRNo": 654, "EXTVoiceNo": 26054, "traveltime": 0, "holidayTraveltime": 0}, {"Id": "6055", "pgp": 0, "GoBack": 2, "SID": 14790, "NameZh": "Dashe Rd.", "RouteId": 221, "SeqNo": 22, "Terminal": 0, "DistrictId": 1, "Latitude": 22.862898, "Longitude": 120.261941, "IVRNo": 653, "EXTVoiceNo": 26055, "traveltime": 0, "holidayTraveltime": 0}, {"Id": "0148", "pgp": 0, "GoBack": 2, "SID": 14573, "NameZh": "Lujhu Farmers` Association", "RouteId": 221, "SeqNo": 23, "Terminal": 0, "DistrictId": 1, "Latitude": 22.860995, "Longitude": 120.260062, "IVRNo": 4788, "EXTVoiceNo": 148, "traveltime": 0, "holidayTraveltime": 0}, {"Id": "9176", "pgp": 0, "GoBack": 2, "SID": 10926, "NameZh": "Lujhu", "RouteId": 221, "SeqNo": 24, "Terminal": 0, "DistrictId": 1, "Latitude": 22.8595, "Longitude": 120.25991, "IVRNo": 9653, "EXTVoiceNo": 9176, "traveltime": 0, "holidayTraveltime": 0}, {"Id": "9175", "pgp": 0, "GoBack": 2, "SID": 10927, "NameZh": "Lujhu District Office (Jhongshan Rd.)", "RouteId": 221, "SeqNo": 25, "Terminal": 0, "DistrictId": 1, "Latitude": 22.853791, "Longitude": 120.261249, "IVRNo": 829, "EXTVoiceNo": 9175, "traveltime": 0, "holidayTraveltime": 0}, {"Id": "9174", "pgp": 0, "GoBack": 2, "SID": 10928, "NameZh": "East Alliance Enterprise Corporation", "RouteId": 221, "SeqNo": 26, "Terminal": 0, "DistrictId": 1, "Latitude": 22.84906, "Longitude": 120.26211, "IVRNo": 9651, "EXTVoiceNo": 9174, "traveltime": 0, "holidayTraveltime": 0}, {"Id": "9173", "pgp": 0, "GoBack": 2, "SID": 10929, "NameZh": "Kao Yuan University", "RouteId": 221, "SeqNo": 27, "Terminal": 0, "DistrictId": 1, "Latitude": 22.84061, "Longitude": 120.26376, "IVRNo": 9650, "EXTVoiceNo": 9173, "traveltime": 0, "holidayTraveltime": 0}, {"Id": "9172", "pgp": 0, "GoBack": 2, "SID": 10930, "NameZh": "Wei Chuan Foods Corp.", "RouteId": 221, "SeqNo": 28, "Terminal": 0, "DistrictId": 1, "Latitude": 22.82738, "Longitude": 120.26628, "IVRNo": 9649, "EXTVoiceNo": 9172, "traveltime": 0, "holidayTraveltime": 0}, {"Id": "9171", "pgp": 0, "GoBack": 2, "SID": 10931, "NameZh": "Beilingcian", "RouteId": 221, "SeqNo": 29, "Terminal": 0, "DistrictId": 1, "Latitude": 22.82085, "Longitude": 120.26948, "IVRNo": 9648, "EXTVoiceNo": 9171, "traveltime": 0, "holidayTraveltime": 0}, {"Id": "9170", "pgp": 0, "GoBack": 2, "SID": 10932, "NameZh": "Taiwan Cement Corporation", "RouteId": 221, "SeqNo": 30, "Terminal": 0, "DistrictId": 1, "Latitude": 22.81695, "Longitude": 120.27386, "IVRNo": 9647, "EXTVoiceNo": 9170, "traveltime": 0, "holidayTraveltime": 0}, {"Id": "9169", "pgp": 0, "GoBack": 2, "SID": 10933, "NameZh": "Yude St. Intersection", "RouteId": 221, "SeqNo": 31, "Terminal": 0, "DistrictId": 1, "Latitude": 22.81153, "Longitude": 120.27986, "IVRNo": 9646, "EXTVoiceNo": 9169, "traveltime": 0, "holidayTraveltime": 0}, {"Id": "3447", "pgp": 0, "GoBack": 2, "SID": 10934, "NameZh": "Wanzihnei (Gangshan)", "RouteId": 221, "SeqNo": 32, "Terminal": 0, "DistrictId": 1, "Latitude": 22.809597, "Longitude": 120.282279, "IVRNo": 616, "EXTVoiceNo": 13447, "traveltime": 0, "holidayTraveltime": 0}, {"Id": "9167", "pgp": 0, "GoBack": 2, "SID": 10935, "NameZh": "Tzu Chi University Continuing Education Center", "RouteId": 221, "SeqNo": 33, "Terminal": 0, "DistrictId": 1, "Latitude": 22.80685, "Longitude": 120.28546, "IVRNo": 9644, "EXTVoiceNo": 9167, "traveltime": 0, "holidayTraveltime": 0}, {"Id": "9166", "pgp": 0, "GoBack": 2, "SID": 11148, "NameZh": "Gangshan Agricultural & Industrial Vocational Senior High School", "RouteId": 221, "SeqNo": 34, "Terminal": 0, "DistrictId": 1, "Latitude": 22.80206, "Longitude": 120.2913, "IVRNo": 874, "EXTVoiceNo": 9166, "traveltime": 0, "holidayTraveltime": 0}, {"Id": "6063", "pgp": 0, "GoBack": 2, "SID": 14791, "NameZh": "Welfare Service Center", "RouteId": 221, "SeqNo": 35, "Terminal": 0, "DistrictId": 1, "Latitude": 22.799354, "Longitude": 120.291712, "IVRNo": 652, "EXTVoiceNo": 26063, "traveltime": 0, "holidayTraveltime": 0}, {"Id": "1111", "pgp": 0, "GoBack": 2, "SID": 6168, "NameZh": "Shoufong Village", "RouteId": 221, "SeqNo": 36, "Terminal": 0, "DistrictId": 1, "Latitude": 22.797043, "Longitude": 120.286354, "IVRNo": 795, "EXTVoiceNo": 21111, "traveltime": 0, "holidayTraveltime": 0}, {"Id": "6057", "pgp": 0, "GoBack": 2, "SID": 14792, "NameZh": "Gongyuan W. Rd.", "RouteId": 221, "SeqNo": 37, "Terminal": 0, "DistrictId": 1, "Latitude": 22.79452, "Longitude": 120.284468, "IVRNo": 651, "EXTVoiceNo": 26057, "traveltime": 0, "holidayTraveltime": 0}, {"Id": "2364", "pgp": 0, "GoBack": 2, "SID": 17938, "NameZh": "Yuying Rd.", "RouteId": 221, "SeqNo": 38, "Terminal": 0, "DistrictId": 1, "Latitude": 22.794006, "Longitude": 120.28193, "IVRNo": 1221, "EXTVoiceNo": 2364, "traveltime": 0, "holidayTraveltime": 0}, {"Id": "0016", "pgp": 0, "GoBack": 2, "SID": 11276, "NameZh": "Lok An Hospital", "RouteId": 221, "SeqNo": 39, "Terminal": 0, "DistrictId": 1, "Latitude": 22.79239, "Longitude": 120.2809, "IVRNo": 8033, "EXTVoiceNo": 16, "traveltime": 0, "holidayTraveltime": 0}, {"Id": "8121", "pgp": 0, "GoBack": 2, "SID": 14595, "NameZh": "Liouciao W. Rd.", "RouteId": 221, "SeqNo": 40, "Terminal": 0, "DistrictId": 1, "Latitude": 22.789942, "Longitude": 120.282465, "IVRNo": 14532, "EXTVoiceNo": 8121, "traveltime": 0, "holidayTraveltime": 0}, {"Id": "7163", "pgp": 0, "GoBack": 2, "SID": 11274, "NameZh": "Armed Forces General Hospital Gangshan Branch", "RouteId": 221, "SeqNo": 41, "Terminal": 0, "DistrictId": 1, "Latitude": 22.78879, "Longitude": 120.28509, "IVRNo": 9039, "EXTVoiceNo": 17163, "traveltime": 0, "holidayTraveltime": 0}, {"Id": "0017", "pgp": 0, "GoBack": 2, "SID": 11272, "NameZh": "Gangshan Office (National Taxation Bureau of Kaohsiung)", "RouteId": 221, "SeqNo": 42, "Terminal": 0, "DistrictId": 1, "Latitude": 22.7844, "Longitude": 120.29123, "IVRNo": 8039, "EXTVoiceNo": 17, "traveltime": 0, "holidayTraveltime": 0}, {"Id": "1110", "pgp": 0, "GoBack": 2, "SID": 10787, "NameZh": "Gangshan Cultural Center", "RouteId": 221, "SeqNo": 43, "Terminal": 0, "DistrictId": 1, "Latitude": 22.78411, "Longitude": 120.2971, "IVRNo": 9564, "EXTVoiceNo": 21110, "traveltime": 0, "holidayTraveltime": 0}, {"Id": "0828", "pgp": 0, "GoBack": 2, "SID": 13364, "NameZh": "MRT Gangshan South Station", "RouteId": 221, "SeqNo": 44, "Terminal": 0, "DistrictId": 1, "Latitude": 22.780347, "Longitude": 120.300666, "IVRNo": 828, "EXTVoiceNo": 828, "traveltime": 0, "holidayTraveltime": 0}, {"Id": "4788", "pgp": 0, "GoBack": 2, "SID": 11270, "NameZh": "Gangshan Cultural Center (Back Door)", "RouteId": 221, "SeqNo": 45, "Terminal": 0, "DistrictId": 1, "Latitude": 22.78287, "Longitude": 120.2994, "IVRNo": 8037, "EXTVoiceNo": 4788, "traveltime": 0, "holidayTraveltime": 0}, {"Id": "0112", "pgp": 0, "GoBack": 2, "SID": 11171, "NameZh": "Dade 3rd Rd. Intersection", "RouteId": 221, "SeqNo": 46, "Terminal": 0, "DistrictId": 1, "Latitude": 22.78884, "Longitude": 120.29959, "IVRNo": 9951, "EXTVoiceNo": 20112, "traveltime": 0, "holidayTraveltime": 0}, {"Id": "0832", "pgp": 0, "GoBack": 2, "SID": 10677, "NameZh": "Gangshan Transfer Station (Gangshan Train Station)", "RouteId": 221, "SeqNo": 47, "Terminal": 1, "DistrictId": 1, "Latitude": 22.791607, "Longitude": 120.299162, "IVRNo": 832, "EXTVoiceNo": 832, "traveltime": 0, "holidayTraveltime": 0}], "zh": [{"Id": "0832", "pgp": 0, "GoBack": 1, "SID": 10676, "NameZh": "\u5ca1\u5c71\u8f49\u904b\u7ad9(\u5ca1\u5c71\u706b\u8eca\u7ad9)", "RouteId": 221, "SeqNo": 1, "Terminal": 0, "DistrictId": 1, "Latitude": 22.790986, "Longitude": 120.299244, "IVRNo": 832, "EXTVoiceNo": 832, "traveltime": 0, "holidayTraveltime": 0}, {"Id": "0112", "pgp": 0, "GoBack": 1, "SID": 11170, "NameZh": "\u5927\u5fb7\u4e09\u8def\u53e3", "RouteId": 221, "SeqNo": 2, "Terminal": 0, "DistrictId": 1, "Latitude": 22.78874, "Longitude": 120.29934, "IVRNo": 9951, "EXTVoiceNo": 20112, "traveltime": 0, "holidayTraveltime": 0}, {"Id": "4788", "pgp": 0, "GoBack": 1, "SID": 11270, "NameZh": "\u5ca1\u5c71\u6587\u5316\u4e2d\u5fc3(\u5f8c\u9580)", "RouteId": 221, "SeqNo": 3, "Terminal": 0, "DistrictId": 1, "Latitude": 22.78287, "Longitude": 120.2994, "IVRNo": 8037, "EXTVoiceNo": 4788, "traveltime": 0, "holidayTraveltime": 0}, {"Id": "0828", "pgp": 0, "GoBack": 1, "SID": 13326, "NameZh": "\u6377\u904b\u5357\u5ca1\u5c71\u7ad9", "RouteId": 221, "SeqNo": 4, "Terminal": 0, "DistrictId": 1, "Latitude": 22.780612, "Longitude": 120.300541, "IVRNo": 828, "EXTVoiceNo": 828, "traveltime": 0, "holidayTraveltime": 0}, {"Id": "0017", "pgp": 0, "GoBack": 1, "SID": 11271, "NameZh": "\u5ca1\u5c71\u7a3d\u5fb5\u6240(\u570b\u7a05\u5c40)", "RouteId": 221, "SeqNo": 5, "Terminal": 0, "DistrictId": 1, "Latitude": 22.78453, "Longitude": 120.2912, "IVRNo": 8039, "EXTVoiceNo": 17, "traveltime": 0, "holidayTraveltime": 0}, {"Id": "7163", "pgp": 0, "GoBack": 1, "SID": 11273, "NameZh": "\u570b\u8ecd\u5ca1\u5c71\u91ab\u9662", "RouteId": 221, "SeqNo": 6, "Terminal": 0, "DistrictId": 1, "Latitude": 22.78913, "Longitude": 120.28515, "IVRNo": 9039, "EXTVoiceNo": 17163, "traveltime": 0, "holidayTraveltime": 0}, {"Id": "0016", "pgp": 0, "GoBack": 1, "SID": 11275, "NameZh": "\u6a02\u5b89\u91ab\u9662", "RouteId": 221, "SeqNo": 7, "Terminal": 0, "DistrictId": 1, "Latitude": 22.79218, "Longitude": 120.28109, "IVRNo": 8033, "EXTVoiceNo": 16, "traveltime": 0, "holidayTraveltime": 0}, {"Id": "2364", "pgp": 0, "GoBack": 1, "SID": 17937, "NameZh": "\u80b2\u82f1\u8def", "RouteId": 221, "SeqNo": 8, "Terminal": 0, "DistrictId": 1, "Latitude": 22.794006, "Longitude": 120.28193, "IVRNo": 1221, "EXTVoiceNo": 2364, "traveltime": 0, "holidayTraveltime": 0}, {"Id": "6057", "pgp": 0, "GoBack": 1, "SID": 14756, "NameZh": "\u516c\u5712\u897f\u8def", "RouteId": 221, "SeqNo": 9, "Terminal": 0, "DistrictId": 1, "Latitude": 22.795345, "Longitude": 120.284906, "IVRNo": 651, "EXTVoiceNo": 26057, "traveltime": 0, "holidayTraveltime": 0}, {"Id": "1111", "pgp": 0, "GoBack": 1, "SID": 6167, "NameZh": "\u58fd\u5cf0\u91cc", "RouteId": 221, "SeqNo": 10, "Terminal": 0, "DistrictId": 1, "Latitude": 22.797181, "Longitude": 120.286303, "IVRNo": 795, "EXTVoiceNo": 21111, "traveltime": 0, "holidayTraveltime": 0}, {"Id": "6063", "pgp": 0, "GoBack": 1, "SID": 14757, "NameZh": "\u7267\u4eba\u9928", "RouteId": 221, "SeqNo": 11, "Terminal": 0, "DistrictId": 1, "Latitude": 22.799334, "Longitude": 120.290723, "IVRNo": 652, "EXTVoiceNo": 26063, "traveltime": 0, "holidayTraveltime": 0}, {"Id": "9166", "pgp": 0, "GoBack": 1, "SID": 10796, "NameZh": "\u5ca1\u5c71\u8fb2\u5de5", "RouteId": 221, "SeqNo": 12, "Terminal": 0, "DistrictId": 1, "Latitude": 22.8022, "Longitude": 120.2917, "IVRNo": 874, "EXTVoiceNo": 9166, "traveltime": 0, "holidayTraveltime": 0}, {"Id": "9167", "pgp": 0, "GoBack": 1, "SID": 10797, "NameZh": "\u6148\u6fdf\u5927\u5b78\u63a8\u5ee3\u4e2d\u5fc3", "RouteId": 221, "SeqNo": 13, "Terminal": 0, "DistrictId": 1, "Latitude": 22.80751, "Longitude": 120.28523, "IVRNo": 9644, "EXTVoiceNo": 9167, "traveltime": 0, "holidayTraveltime": 0}, {"Id": "3447", "pgp": 0, "GoBack": 1, "SID": 10798, "NameZh": "\u7063\u5b50\u5167(\u5ca1\u5c71)", "RouteId": 221, "SeqNo": 14, "Terminal": 0, "DistrictId": 1, "Latitude": 22.809707, "Longitude": 120.282383, "IVRNo": 616, "EXTVoiceNo": 13447, "traveltime": 0, "holidayTraveltime": 0}, {"Id": "9169", "pgp": 0, "GoBack": 1, "SID": 10799, "NameZh": "\u80b2\u5fb7\u8857\u53e3", "RouteId": 221, "SeqNo": 15, "Terminal": 0, "DistrictId": 1, "Latitude": 22.81185, "Longitude": 120.28005, "IVRNo": 9646, "EXTVoiceNo": 9169, "traveltime": 0, "holidayTraveltime": 0}, {"Id": "9170", "pgp": 0, "GoBack": 1, "SID": 10800, "NameZh": "\u53f0\u6ce5\u516c\u53f8", "RouteId": 221, "SeqNo": 16, "Terminal": 0, "DistrictId": 1, "Latitude": 22.81696, "Longitude": 120.2737, "IVRNo": 9647, "EXTVoiceNo": 9170, "traveltime": 0, "holidayTraveltime": 0}, {"Id": "9171", "pgp": 0, "GoBack": 1, "SID": 10801, "NameZh": "\u5317\u5dba\u5898", "RouteId": 221, "SeqNo": 17, "Terminal": 0, "DistrictId": 1, "Latitude": 22.8212, "Longitude": 120.26946, "IVRNo": 9648, "EXTVoiceNo": 9171, "traveltime": 0, "holidayTraveltime": 0}, {"Id": "9172", "pgp": 0, "GoBack": 1, "SID": 10802, "NameZh": "\u5473\u5168\u516c\u53f8", "RouteId": 221, "SeqNo": 18, "Terminal": 0, "DistrictId": 1, "Latitude": 22.82731, "Longitude": 120.2666, "IVRNo": 9649, "EXTVoiceNo": 9172, "traveltime": 0, "holidayTraveltime": 0}, {"Id": "9173", "pgp": 0, "GoBack": 1, "SID": 10862, "NameZh": "\u9ad8\u82d1\u79d1\u5927", "RouteId": 221, "SeqNo": 19, "Terminal": 0, "DistrictId": 1, "Latitude": 22.8415, "Longitude": 120.26383, "IVRNo": 9650, "EXTVoiceNo": 9173, "traveltime": 0, "holidayTraveltime": 0}, {"Id": "9174", "pgp": 0, "GoBack": 1, "SID": 10805, "NameZh": "\u6771\u76df\u516c\u53f8", "RouteId": 221, "SeqNo": 20, "Terminal": 0, "DistrictId": 1, "Latitude": 22.84871, "Longitude": 120.26246, "IVRNo": 9651, "EXTVoiceNo": 9174, "traveltime": 0, "holidayTraveltime": 0}, {"Id": "9175", "pgp": 0, "GoBack": 1, "SID": 10806, "NameZh": "\u8def\u7af9\u5340\u516c\u6240(\u4e2d\u5c71\u8def)", "RouteId": 221, "SeqNo": 21, "Terminal": 0, "DistrictId": 1, "Latitude": 22.853811, "Longitude": 120.26144, "IVRNo": 829, "EXTVoiceNo": 9175, "traveltime": 0, "holidayTraveltime": 0}, {"Id": "9176", "pgp": 0, "GoBack": 1, "SID": 10807, "NameZh": "\u8def\u7af9", "RouteId": 221, "SeqNo": 22, "Terminal": 0, "DistrictId": 1, "Latitude": 22.85905, "Longitude": 120.26016, "IVRNo": 9653, "EXTVoiceNo": 9176, "traveltime": 0, "holidayTraveltime": 0}, {"Id": "0148", "pgp": 0, "GoBack": 1, "SID": 14097, "NameZh": "\u8def\u7af9\u8fb2\u6703", "RouteId": 221, "SeqNo": 23, "Terminal": 0, "DistrictId": 1, "Latitude": 22.861015, "Longitude": 120.260212, "IVRNo": 4788, "EXTVoiceNo": 148, "traveltime": 0, "holidayTraveltime": 0}, {"Id": "6055", "pgp": 0, "GoBack": 1, "SID": 14758, "NameZh": "\u5927\u793e\u8def", "RouteId": 221, "SeqNo": 24, "Terminal": 0, "DistrictId": 1, "Latitude": 22.862898, "Longitude": 120.261941, "IVRNo": 653, "EXTVoiceNo": 26055, "traveltime": 0, "holidayTraveltime": 0}, {"Id": "6054", "pgp": 0, "GoBack": 1, "SID": 14759, "NameZh": "\u5927\u793e\u570b\u5c0f", "RouteId": 221, "SeqNo": 25, "Terminal": 0, "DistrictId": 1, "Latitude": 22.867012, "Longitude": 120.265489, "IVRNo": 654, "EXTVoiceNo": 26054, "traveltime": 0, "holidayTraveltime": 0}, {"Id": "6052", "pgp": 0, "GoBack": 1, "SID": 14760, "NameZh": "\u4e00\u7532\u6d3e\u51fa\u6240", "RouteId": 221, "SeqNo": 26, "Terminal": 0, "DistrictId": 1, "Latitude": 22.869929, "Longitude": 120.268132, "IVRNo": 655, "EXTVoiceNo": 26052, "traveltime": 0, "holidayTraveltime": 0}, {"Id": "0068", "pgp": 0, "GoBack": 1, "SID": 14761, "NameZh": "\u5927\u4ec1\u8def", "RouteId": 221, "SeqNo": 27, "Terminal": 0, "DistrictId": 1, "Latitude": 22.870867, "Longitude": 120.270081, "IVRNo": 656, "EXTVoiceNo": 20068, "traveltime": 0, "holidayTraveltime": 0}, {"Id": "1103", "pgp": 0, "GoBack": 1, "SID": 14320, "NameZh": "\u4e00\u7532(\u8def\u7af9)", "RouteId": 221, "SeqNo": 28, "Terminal": 0, "DistrictId": 1, "Latitude": 22.871588, "Longitude": 120.273586, "IVRNo": 1053, "EXTVoiceNo": 1103, "traveltime": 0, "holidayTraveltime": 0}, {"Id": "6069", "pgp": 0, "GoBack": 1, "SID": 14762, "NameZh": "\u798f\u5fb7\u5bae", "RouteId": 221, "SeqNo": 29, "Terminal": 0, "DistrictId": 1, "Latitude": 22.871774, "Longitude": 120.274304, "IVRNo": 657, "EXTVoiceNo": 26069, "traveltime": 0, "holidayTraveltime": 0}, {"Id": "6058", "pgp": 0, "GoBack": 1, "SID": 14763, "NameZh": "\u592a\u5e73\u8def", "RouteId": 221, "SeqNo": 30, "Terminal": 0, "DistrictId": 1, "Latitude": 22.867163, "Longitude": 120.288043, "IVRNo": 658, "EXTVoiceNo": 26058, "traveltime": 0, "holidayTraveltime": 0}, {"Id": "6053", "pgp": 0, "GoBack": 1, "SID": 14764, "NameZh": "\u4e0b\u5751\u91cc", "RouteId": 221, "SeqNo": 31, "Terminal": 0, "DistrictId": 1, "Latitude": 22.868169, "Longitude": 120.290164, "IVRNo": 659, "EXTVoiceNo": 26053, "traveltime": 0, "holidayTraveltime": 0}, {"Id": "6068", "pgp": 0, "GoBack": 1, "SID": 14765, "NameZh": "\u65b0\u751f\u8def", "RouteId": 221, "SeqNo": 32, "Terminal": 0, "DistrictId": 1, "Latitude": 22.872506, "Longitude": 120.291217, "IVRNo": 660, "EXTVoiceNo": 26068, "traveltime": 0, "holidayTraveltime": 0}, {"Id": "6060", "pgp": 0, "GoBack": 1, "SID": 14766, "NameZh": "\u7af9\u5712\u91cc", "RouteId": 221, "SeqNo": 33, "Terminal": 0, "DistrictId": 1, "Latitude": 22.874808, "Longitude": 120.291753, "IVRNo": 661, "EXTVoiceNo": 26060, "traveltime": 0, "holidayTraveltime": 0}, {"Id": "1200", "pgp": 0, "GoBack": 1, "SID": 12424, "NameZh": "\u4e2d\u8def\u91cc", "RouteId": 221, "SeqNo": 34, "Terminal": 0, "DistrictId": 1, "Latitude": 22.88922, "Longitude": 120.29296, "IVRNo": 1031, "EXTVoiceNo": 21200, "traveltime": 0, "holidayTraveltime": 0}, {"Id": "6056", "pgp": 0, "GoBack": 1, "SID": 14767, "NameZh": "\u4e2d\u8def", "RouteId": 221, "SeqNo": 35, "Terminal": 0, "DistrictId": 1, "Latitude": 22.893651, "Longitude": 120.29363, "IVRNo": 662, "EXTVoiceNo": 26056, "traveltime": 0, "holidayTraveltime": 0}, {"Id": "6066", "pgp": 0, "GoBack": 1, "SID": 14768, "NameZh": "\u963f\u84ee\u8fb2\u6703(\u4e2d\u8def\u5206\u90e8)", "RouteId": 221, "SeqNo": 36, "Terminal": 0, "DistrictId": 1, "Latitude": 22.894926, "Longitude": 120.295068, "IVRNo": 663, "EXTVoiceNo": 26066, "traveltime": 0, "holidayTraveltime": 0}, {"Id": "1199", "pgp": 0, "GoBack": 1, "SID": 12423, "NameZh": "\u4e2d\u8def\u570b\u5c0f", "RouteId": 221, "SeqNo": 37, "Terminal": 0, "DistrictId": 1, "Latitude": 22.89441, "Longitude": 120.29944, "IVRNo": 1030, "EXTVoiceNo": 21199, "traveltime": 0, "holidayTraveltime": 0}, {"Id": "6059", "pgp": 0, "GoBack": 1, "SID": 14769, "NameZh": "\u77f3\u5b89\u91cc", "RouteId": 221, "SeqNo": 38, "Terminal": 0, "DistrictId": 1, "Latitude": 22.89373, "Longitude": 120.308608, "IVRNo": 664, "EXTVoiceNo": 26059, "traveltime": 0, "holidayTraveltime": 0}, {"Id": "6070", "pgp": 0, "GoBack": 1, "SID": 14770, "NameZh": "\u8607\u5bb6\u53e4\u539d", "RouteId": 221, "SeqNo": 39, "Terminal": 0, "DistrictId": 1, "Latitude": 22.893907, "Longitude": 120.310659, "IVRNo": 665, "EXTVoiceNo": 26070, "traveltime": 0, "holidayTraveltime": 0}, {"Id": "6064", "pgp": 0, "GoBack": 1, "SID": 14771, "NameZh": "\u793e\u5c3e\u8def\u53e3", "RouteId": 221, "SeqNo": 40, "Terminal": 0, "DistrictId": 1, "Latitude": 22.891637, "Longitude": 120.315272, "IVRNo": 666, "EXTVoiceNo": 26064, "traveltime": 0, "holidayTraveltime": 0}, {"Id": "6067", "pgp": 0, "GoBack": 1, "SID": 14772, "NameZh": "\u9752\u65d7\u91cc", "RouteId": 221, "SeqNo": 41, "Terminal": 0, "DistrictId": 1, "Latitude": 22.891032, "Longitude": 120.319237, "IVRNo": 667, "EXTVoiceNo": 26067, "traveltime": 0, "holidayTraveltime": 0}, {"Id": "0747", "pgp": 0, "GoBack": 1, "SID": 14773, "NameZh": "\u9802\u539d(\u963f\u84ee)", "RouteId": 221, "SeqNo": 42, "Terminal": 0, "DistrictId": 1, "Latitude": 22.890949, "Longitude": 120.321093, "IVRNo": 668, "EXTVoiceNo": 20747, "traveltime": 0, "holidayTraveltime": 0}, {"Id": "0147", "pgp": 0, "GoBack": 1, "SID": 3897, "NameZh": "\u793e\u982d", "RouteId": 221, "SeqNo": 43, "Terminal": 0, "DistrictId": 1, "Latitude": 22.889743, "Longitude": 120.322272, "IVRNo": 4790, "EXTVoiceNo": 147, "traveltime": 0, "holidayTraveltime": 0}, {"Id": "6065", "pgp": 0, "GoBack": 1, "SID": 19096, "NameZh": "\u963f\u84ee\u5340\u516c\u6240", "RouteId": 221, "SeqNo": 44, "Terminal": 1, "DistrictId": 1, "Latitude": 22.883324, "Longitude": 120.32685, "IVRNo": 669, "EXTVoiceNo": 26065, "traveltime": 0, "holidayTraveltime": 0}, {"Id": "9153", "pgp": 0, "GoBack": 2, "SID": 10976, "NameZh": "\u963f\u84ee\u5206\u99d0\u6240", "RouteId": 221, "SeqNo": 1, "Terminal": 0, "DistrictId": 1, "Latitude": 22.87898, "Longitude": 120.32928, "IVRNo": 9589, "EXTVoiceNo": 9153, "traveltime": 0, "holidayTraveltime": 0}, {"Id": "6065", "pgp": 0, "GoBack": 2, "SID": 14774, "NameZh": "\u963f\u84ee\u5340\u516c\u6240", "RouteId": 221, "SeqNo": 2, "Terminal": 0, "DistrictId": 1, "Latitude": 22.883124, "Longitude": 120.327207, "IVRNo": 669, "EXTVoiceNo": 26065, "traveltime": 0, "holidayTraveltime": 0}, {"Id": "0147", "pgp": 0, "GoBack": 2, "SID": 3898, "NameZh": "\u793e\u982d", "RouteId": 221, "SeqNo": 3, "Terminal": 0, "DistrictId": 1, "Latitude": 22.889877, "Longitude": 120.322335, "IVRNo": 4790, "EXTVoiceNo": 147, "traveltime": 0, "holidayTraveltime": 0}, {"Id": "0747", "pgp": 0, "GoBack": 2, "SID": 14775, "NameZh": "\u9802\u539d(\u963f\u84ee)", "RouteId": 221, "SeqNo": 4, "Terminal": 0, "DistrictId": 1, "Latitude": 22.891019, "Longitude": 120.320942, "IVRNo": 668, "EXTVoiceNo": 20747, "traveltime": 0, "holidayTraveltime": 0}, {"Id": "6067", "pgp": 0, "GoBack": 2, "SID": 14776, "NameZh": "\u9752\u65d7\u91cc", "RouteId": 221, "SeqNo": 5, "Terminal": 0, "DistrictId": 1, "Latitude": 22.891032, "Longitude": 120.319237, "IVRNo": 667, "EXTVoiceNo": 26067, "traveltime": 0, "holidayTraveltime": 0}, {"Id": "6064", "pgp": 0, "GoBack": 2, "SID": 14777, "NameZh": "\u793e\u5c3e\u8def\u53e3", "RouteId": 221, "SeqNo": 6, "Terminal": 0, "DistrictId": 1, "Latitude": 22.891637, "Longitude": 120.315272, "IVRNo": 666, "EXTVoiceNo": 26064, "traveltime": 0, "holidayTraveltime": 0}, {"Id": "6070", "pgp": 0, "GoBack": 2, "SID": 14778, "NameZh": "\u8607\u5bb6\u53e4\u539d", "RouteId": 221, "SeqNo": 7, "Terminal": 0, "DistrictId": 1, "Latitude": 22.893907, "Longitude": 120.310659, "IVRNo": 665, "EXTVoiceNo": 26070, "traveltime": 0, "holidayTraveltime": 0}, {"Id": "6059", "pgp": 0, "GoBack": 2, "SID": 14779, "NameZh": "\u77f3\u5b89\u91cc", "RouteId": 221, "SeqNo": 8, "Terminal": 0, "DistrictId": 1, "Latitude": 22.893789, "Longitude": 120.308275, "IVRNo": 664, "EXTVoiceNo": 26059, "traveltime": 0, "holidayTraveltime": 0}, {"Id": "1199", "pgp": 0, "GoBack": 2, "SID": 12425, "NameZh": "\u4e2d\u8def\u570b\u5c0f", "RouteId": 221, "SeqNo": 9, "Terminal": 0, "DistrictId": 1, "Latitude": 22.89448, "Longitude": 120.29936, "IVRNo": 1030, "EXTVoiceNo": 21199, "traveltime": 0, "holidayTraveltime": 0}, {"Id": "6066", "pgp": 0, "GoBack": 2, "SID": 14780, "NameZh": "\u963f\u84ee\u8fb2\u6703(\u4e2d\u8def\u5206\u90e8)", "RouteId": 221, "SeqNo": 10, "Terminal": 0, "DistrictId": 1, "Latitude": 22.895143, "Longitude": 120.294574, "IVRNo": 663, "EXTVoiceNo": 26066, "traveltime": 0, "holidayTraveltime": 0}, {"Id": "6056", "pgp": 0, "GoBack": 2, "SID": 14781, "NameZh": "\u4e2d\u8def", "RouteId": 221, "SeqNo": 11, "Terminal": 0, "DistrictId": 1, "Latitude": 22.894007, "Longitude": 120.29363, "IVRNo": 662, "EXTVoiceNo": 26056, "traveltime": 0, "holidayTraveltime": 0}, {"Id": "1200", "pgp": 0, "GoBack": 2, "SID": 12426, "NameZh": "\u4e2d\u8def\u91cc", "RouteId": 221, "SeqNo": 12, "Terminal": 0, "DistrictId": 1, "Latitude": 22.88941, "Longitude": 120.29284, "IVRNo": 1031, "EXTVoiceNo": 21200, "traveltime": 0, "holidayTraveltime": 0}, {"Id": "6060", "pgp": 0, "GoBack": 2, "SID": 14782, "NameZh": "\u7af9\u5712\u91cc", "RouteId": 221, "SeqNo": 13, "Terminal": 0, "DistrictId": 1, "Latitude": 22.878172, "Longitude": 120.292225, "IVRNo": 661, "EXTVoiceNo": 26060, "traveltime": 0, "holidayTraveltime": 0}, {"Id": "6068", "pgp": 0, "GoBack": 2, "SID": 14783, "NameZh": "\u65b0\u751f\u8def", "RouteId": 221, "SeqNo": 14, "Terminal": 0, "DistrictId": 1, "Latitude": 22.872506, "Longitude": 120.291217, "IVRNo": 660, "EXTVoiceNo": 26068, "traveltime": 0, "holidayTraveltime": 0}, {"Id": "6053", "pgp": 0, "GoBack": 2, "SID": 14784, "NameZh": "\u4e0b\u5751\u91cc", "RouteId": 221, "SeqNo": 15, "Terminal": 0, "DistrictId": 1, "Latitude": 22.868169, "Longitude": 120.290164, "IVRNo": 659, "EXTVoiceNo": 26053, "traveltime": 0, "holidayTraveltime": 0}, {"Id": "6058", "pgp": 0, "GoBack": 2, "SID": 14785, "NameZh": "\u592a\u5e73\u8def", "RouteId": 221, "SeqNo": 16, "Terminal": 0, "DistrictId": 1, "Latitude": 22.867163, "Longitude": 120.288243, "IVRNo": 658, "EXTVoiceNo": 26058, "traveltime": 0, "holidayTraveltime": 0}, {"Id": "6069", "pgp": 0, "GoBack": 2, "SID": 14786, "NameZh": "\u798f\u5fb7\u5bae", "RouteId": 221, "SeqNo": 17, "Terminal": 0, "DistrictId": 1, "Latitude": 22.871774, "Longitude": 120.274304, "IVRNo": 657, "EXTVoiceNo": 26069, "traveltime": 0, "holidayTraveltime": 0}, {"Id": "1103", "pgp": 0, "GoBack": 2, "SID": 13875, "NameZh": "\u4e00\u7532(\u8def\u7af9)", "RouteId": 221, "SeqNo": 18, "Terminal": 0, "DistrictId": 1, "Latitude": 22.871588, "Longitude": 120.273461, "IVRNo": 1053, "EXTVoiceNo": 1103, "traveltime": 0, "holidayTraveltime": 0}, {"Id": "0068", "pgp": 0, "GoBack": 2, "SID": 14787, "NameZh": "\u5927\u4ec1\u8def", "RouteId": 221, "SeqNo": 19, "Terminal": 0, "DistrictId": 1, "Latitude": 22.87145, "Longitude": 120.272655, "IVRNo": 656, "EXTVoiceNo": 20068, "traveltime": 0, "holidayTraveltime": 0}, {"Id": "6052", "pgp": 0, "GoBack": 2, "SID": 14788, "NameZh": "\u4e00\u7532\u6d3e\u51fa\u6240", "RouteId": 221, "SeqNo": 20, "Terminal": 0, "DistrictId": 1, "Latitude": 22.869493, "Longitude": 120.267591, "IVRNo": 655, "EXTVoiceNo": 26052, "traveltime": 0, "holidayTraveltime": 0}, {"Id": "6054", "pgp": 0, "GoBack": 2, "SID": 14789, "NameZh": "\u5927\u793e\u570b\u5c0f", "RouteId": 221, "SeqNo": 21, "Terminal": 0, "DistrictId": 1, "Latitude": 22.866457, "Longitude": 120.264995, "IVRNo": 654, "EXTVoiceNo": 26054, "traveltime": 0, "holidayTraveltime": 0}, {"Id": "6055", "pgp": 0, "GoBack": 2, "SID": 14790, "NameZh": "\u5927\u793e\u8def", "RouteId": 221, "SeqNo": 22, "Terminal": 0, "DistrictId": 1, "Latitude": 22.862898, "Longitude": 120.261941, "IVRNo": 653, "EXTVoiceNo": 26055, "traveltime": 0, "holidayTraveltime": 0}, {"Id": "0148", "pgp": 0, "GoBack": 2, "SID": 14573, "NameZh": "\u8def\u7af9\u8fb2\u6703", "RouteId": 221, "SeqNo": 23, "Terminal": 0, "DistrictId": 1, "Latitude": 22.860995, "Longitude": 120.260062, "IVRNo": 4788, "EXTVoiceNo": 148, "traveltime": 0, "holidayTraveltime": 0}, {"Id": "9176", "pgp": 0, "GoBack": 2, "SID": 10926, "NameZh": "\u8def\u7af9", "RouteId": 221, "SeqNo": 24, "Terminal": 0, "DistrictId": 1, "Latitude": 22.8595, "Longitude": 120.25991, "IVRNo": 9653, "EXTVoiceNo": 9176, "traveltime": 0, "holidayTraveltime": 0}, {"Id": "9175", "pgp": 0, "GoBack": 2, "SID": 10927, "NameZh": "\u8def\u7af9\u5340\u516c\u6240(\u4e2d\u5c71\u8def)", "RouteId": 221, "SeqNo": 25, "Terminal": 0, "DistrictId": 1, "Latitude": 22.853791, "Longitude": 120.261249, "IVRNo": 829, "EXTVoiceNo": 9175, "traveltime": 0, "holidayTraveltime": 0}, {"Id": "9174", "pgp": 0, "GoBack": 2, "SID": 10928, "NameZh": "\u6771\u76df\u516c\u53f8", "RouteId": 221, "SeqNo": 26, "Terminal": 0, "DistrictId": 1, "Latitude": 22.84906, "Longitude": 120.26211, "IVRNo": 9651, "EXTVoiceNo": 9174, "traveltime": 0, "holidayTraveltime": 0}, {"Id": "9173", "pgp": 0, "GoBack": 2, "SID": 10929, "NameZh": "\u9ad8\u82d1\u79d1\u5927", "RouteId": 221, "SeqNo": 27, "Terminal": 0, "DistrictId": 1, "Latitude": 22.84061, "Longitude": 120.26376, "IVRNo": 9650, "EXTVoiceNo": 9173, "traveltime": 0, "holidayTraveltime": 0}, {"Id": "9172", "pgp": 0, "GoBack": 2, "SID": 10930, "NameZh": "\u5473\u5168\u516c\u53f8", "RouteId": 221, "SeqNo": 28, "Terminal": 0, "DistrictId": 1, "Latitude": 22.82738, "Longitude": 120.26628, "IVRNo": 9649, "EXTVoiceNo": 9172, "traveltime": 0, "holidayTraveltime": 0}, {"Id": "9171", "pgp": 0, "GoBack": 2, "SID": 10931, "NameZh": "\u5317\u5dba\u5898", "RouteId": 221, "SeqNo": 29, "Terminal": 0, "DistrictId": 1, "Latitude": 22.82085, "Longitude": 120.26948, "IVRNo": 9648, "EXTVoiceNo": 9171, "traveltime": 0, "holidayTraveltime": 0}, {"Id": "9170", "pgp": 0, "GoBack": 2, "SID": 10932, "NameZh": "\u53f0\u6ce5\u516c\u53f8", "RouteId": 221, "SeqNo": 30, "Terminal": 0, "DistrictId": 1, "Latitude": 22.81695, "Longitude": 120.27386, "IVRNo": 9647, "EXTVoiceNo": 9170, "traveltime": 0, "holidayTraveltime": 0}, {"Id": "9169", "pgp": 0, "GoBack": 2, "SID": 10933, "NameZh": "\u80b2\u5fb7\u8857\u53e3", "RouteId": 221, "SeqNo": 31, "Terminal": 0, "DistrictId": 1, "Latitude": 22.81153, "Longitude": 120.27986, "IVRNo": 9646, "EXTVoiceNo": 9169, "traveltime": 0, "holidayTraveltime": 0}, {"Id": "3447", "pgp": 0, "GoBack": 2, "SID": 10934, "NameZh": "\u7063\u5b50\u5167(\u5ca1\u5c71)", "RouteId": 221, "SeqNo": 32, "Terminal": 0, "DistrictId": 1, "Latitude": 22.809597, "Longitude": 120.282279, "IVRNo": 616, "EXTVoiceNo": 13447, "traveltime": 0, "holidayTraveltime": 0}, {"Id": "9167", "pgp": 0, "GoBack": 2, "SID": 10935, "NameZh": "\u6148\u6fdf\u5927\u5b78\u63a8\u5ee3\u4e2d\u5fc3", "RouteId": 221, "SeqNo": 33, "Terminal": 0, "DistrictId": 1, "Latitude": 22.80685, "Longitude": 120.28546, "IVRNo": 9644, "EXTVoiceNo": 9167, "traveltime": 0, "holidayTraveltime": 0}, {"Id": "9166", "pgp": 0, "GoBack": 2, "SID": 11148, "NameZh": "\u5ca1\u5c71\u8fb2\u5de5", "RouteId": 221, "SeqNo": 34, "Terminal": 0, "DistrictId": 1, "Latitude": 22.80206, "Longitude": 120.2913, "IVRNo": 874, "EXTVoiceNo": 9166, "traveltime": 0, "holidayTraveltime": 0}, {"Id": "6063", "pgp": 0, "GoBack": 2, "SID": 14791, "NameZh": "\u7267\u4eba\u9928", "RouteId": 221, "SeqNo": 35, "Terminal": 0, "DistrictId": 1, "Latitude": 22.799354, "Longitude": 120.291712, "IVRNo": 652, "EXTVoiceNo": 26063, "traveltime": 0, "holidayTraveltime": 0}, {"Id": "1111", "pgp": 0, "GoBack": 2, "SID": 6168, "NameZh": "\u58fd\u5cf0\u91cc", "RouteId": 221, "SeqNo": 36, "Terminal": 0, "DistrictId": 1, "Latitude": 22.797043, "Longitude": 120.286354, "IVRNo": 795, "EXTVoiceNo": 21111, "traveltime": 0, "holidayTraveltime": 0}, {"Id": "6057", "pgp": 0, "GoBack": 2, "SID": 14792, "NameZh": "\u516c\u5712\u897f\u8def", "RouteId": 221, "SeqNo": 37, "Terminal": 0, "DistrictId": 1, "Latitude": 22.79452, "Longitude": 120.284468, "IVRNo": 651, "EXTVoiceNo": 26057, "traveltime": 0, "holidayTraveltime": 0}, {"Id": "2364", "pgp": 0, "GoBack": 2, "SID": 17938, "NameZh": "\u80b2\u82f1\u8def", "RouteId": 221, "SeqNo": 38, "Terminal": 0, "DistrictId": 1, "Latitude": 22.794006, "Longitude": 120.28193, "IVRNo": 1221, "EXTVoiceNo": 2364, "traveltime": 0, "holidayTraveltime": 0}, {"Id": "0016", "pgp": 0, "GoBack": 2, "SID": 11276, "NameZh": "\u6a02\u5b89\u91ab\u9662", "RouteId": 221, "SeqNo": 39, "Terminal": 0, "DistrictId": 1, "Latitude": 22.79239, "Longitude": 120.2809, "IVRNo": 8033, "EXTVoiceNo": 16, "traveltime": 0, "holidayTraveltime": 0}, {"Id": "8121", "pgp": 0, "GoBack": 2, "SID": 14595, "NameZh": "\u67f3\u6a4b\u897f\u8def", "RouteId": 221, "SeqNo": 40, "Terminal": 0, "DistrictId": 1, "Latitude": 22.789942, "Longitude": 120.282465, "IVRNo": 14532, "EXTVoiceNo": 8121, "traveltime": 0, "holidayTraveltime": 0}, {"Id": "7163", "pgp": 0, "GoBack": 2, "SID": 11274, "NameZh": "\u570b\u8ecd\u5ca1\u5c71\u91ab\u9662", "RouteId": 221, "SeqNo": 41, "Terminal": 0, "DistrictId": 1, "Latitude": 22.78879, "Longitude": 120.28509, "IVRNo": 9039, "EXTVoiceNo": 17163, "traveltime": 0, "holidayTraveltime": 0}, {"Id": "0017", "pgp": 0, "GoBack": 2, "SID": 11272, "NameZh": "\u5ca1\u5c71\u7a3d\u5fb5\u6240(\u570b\u7a05\u5c40)", "RouteId": 221, "SeqNo": 42, "Terminal": 0, "DistrictId": 1, "Latitude": 22.7844, "Longitude": 120.29123, "IVRNo": 8039, "EXTVoiceNo": 17, "traveltime": 0, "holidayTraveltime": 0}, {"Id": "1110", "pgp": 0, "GoBack": 2, "SID": 10787, "NameZh": "\u5ca1\u5c71\u6587\u5316\u4e2d\u5fc3", "RouteId": 221, "SeqNo": 43, "Terminal": 0, "DistrictId": 1, "Latitude": 22.78411, "Longitude": 120.2971, "IVRNo": 9564, "EXTVoiceNo": 21110, "traveltime": 0, "holidayTraveltime": 0}, {"Id": "0828", "pgp": 0, "GoBack": 2, "SID": 13364, "NameZh": "\u6377\u904b\u5357\u5ca1\u5c71\u7ad9", "RouteId": 221, "SeqNo": 44, "Terminal": 0, "DistrictId": 1, "Latitude": 22.780347, "Longitude": 120.300666, "IVRNo": 828, "EXTVoiceNo": 828, "traveltime": 0, "holidayTraveltime": 0}, {"Id": "4788", "pgp": 0, "GoBack": 2, "SID": 11270, "NameZh": "\u5ca1\u5c71\u6587\u5316\u4e2d\u5fc3(\u5f8c\u9580)", "RouteId": 221, "SeqNo": 45, "Terminal": 0, "DistrictId": 1, "Latitude": 22.78287, "Longitude": 120.2994, "IVRNo": 8037, "EXTVoiceNo": 4788, "traveltime": 0, "holidayTraveltime": 0}, {"Id": "0112", "pgp": 0, "GoBack": 2, "SID": 11171, "NameZh": "\u5927\u5fb7\u4e09\u8def\u53e3", "RouteId": 221, "SeqNo": 46, "Terminal": 0, "DistrictId": 1, "Latitude": 22.78884, "Longitude": 120.29959, "IVRNo": 9951, "EXTVoiceNo": 20112, "traveltime": 0, "holidayTraveltime": 0}, {"Id": "0832", "pgp": 0, "GoBack": 2, "SID": 10677, "NameZh": "\u5ca1\u5c71\u8f49\u904b\u7ad9(\u5ca1\u5c71\u706b\u8eca\u7ad9)", "RouteId": 221, "SeqNo": 47, "Terminal": 1, "DistrictId": 1, "Latitude": 22.791607, "Longitude": 120.299162, "IVRNo": 832, "EXTVoiceNo": 832, "traveltime": 0, "holidayTraveltime": 0}]}