{"en": [{"Id": "1000", "pgp": 0, "GoBack": 1, "SID": 179, "NameZh": "Rueifong Station (Rueilong Rd.)", "RouteId": 812, "SeqNo": 1, "Terminal": 0, "DistrictId": 1, "Latitude": 22.605954, "Longitude": 120.337592, "IVRNo": 1000, "EXTVoiceNo": 1000, "traveltime": 0, "holidayTraveltime": 0}, {"Id": "1202", "pgp": 0, "GoBack": 1, "SID": 306, "NameZh": "Yongfong Rd. Intersection", "RouteId": 812, "SeqNo": 2, "Terminal": 0, "DistrictId": 1, "Latitude": 22.605731, "Longitude": 120.334067, "IVRNo": 1202, "EXTVoiceNo": 1202, "traveltime": 0, "holidayTraveltime": 0}, {"Id": "1502", "pgp": 0, "GoBack": 1, "SID": 733, "NameZh": "Gongjheng Rd. Intersection", "RouteId": 812, "SeqNo": 3, "Terminal": 0, "DistrictId": 1, "Latitude": 22.601928, "Longitude": 120.332791, "IVRNo": 1502, "EXTVoiceNo": 1502, "traveltime": 0, "holidayTraveltime": 0}, {"Id": "1504", "pgp": 0, "GoBack": 1, "SID": 737, "NameZh": "Nanjheng 2nd Rd. Intersection", "RouteId": 812, "SeqNo": 4, "Terminal": 0, "DistrictId": 1, "Latitude": 22.600174, "Longitude": 120.329347, "IVRNo": 1504, "EXTVoiceNo": 1504, "traveltime": 0, "holidayTraveltime": 0}, {"Id": "1505", "pgp": 0, "GoBack": 1, "SID": 738, "NameZh": "Ruei Siang Primary School", "RouteId": 812, "SeqNo": 5, "Terminal": 0, "DistrictId": 1, "Latitude": 22.599669, "Longitude": 120.326238, "IVRNo": 1505, "EXTVoiceNo": 1505, "traveltime": 0, "holidayTraveltime": 0}, {"Id": "1110", "pgp": 0, "GoBack": 1, "SID": 740, "NameZh": "Rueisiang High School (Banchao Rd.)", "RouteId": 812, "SeqNo": 6, "Terminal": 0, "DistrictId": 1, "Latitude": 22.602373, "Longitude": 120.324969, "IVRNo": 1110, "EXTVoiceNo": 1110, "traveltime": 0, "holidayTraveltime": 0}, {"Id": "1506", "pgp": 0, "GoBack": 1, "SID": 2473, "NameZh": "Rueisiang High School (Kaisyuan 4th Rd.)", "RouteId": 812, "SeqNo": 7, "Terminal": 0, "DistrictId": 1, "Latitude": 22.602879, "Longitude": 120.323507, "IVRNo": 1506, "EXTVoiceNo": 1506, "traveltime": 0, "holidayTraveltime": 0}, {"Id": "2418", "pgp": 0, "GoBack": 1, "SID": 19199, "NameZh": "LRT Kaisyuan Rueitian Station", "RouteId": 812, "SeqNo": 8, "Terminal": 0, "DistrictId": 1, "Latitude": 22.599083, "Longitude": 120.319626, "IVRNo": 32418, "EXTVoiceNo": 32418, "traveltime": 0, "holidayTraveltime": 0}, {"Id": "3457", "pgp": 0, "GoBack": 1, "SID": 2474, "NameZh": "World Trade Plaza", "RouteId": 812, "SeqNo": 9, "Terminal": 0, "DistrictId": 1, "Latitude": 22.597649, "Longitude": 120.318114, "IVRNo": 3405, "EXTVoiceNo": 3457, "traveltime": 0, "holidayTraveltime": 0}, {"Id": "2420", "pgp": 0, "GoBack": 1, "SID": 2475, "NameZh": "MRT Kaisyuan Statrion 1 (LRT Star of Cianjhen Station)", "RouteId": 812, "SeqNo": 10, "Terminal": 0, "DistrictId": 1, "Latitude": 22.595729, "Longitude": 120.315442, "IVRNo": 32420, "EXTVoiceNo": 32420, "traveltime": 0, "holidayTraveltime": 0}, {"Id": "0251", "pgp": 0, "GoBack": 1, "SID": 19196, "NameZh": "LRT Kaisyuan Jhonghua Station (Old Kai Syuan 4th Rd.)", "RouteId": 812, "SeqNo": 11, "Terminal": 0, "DistrictId": 1, "Latitude": 22.593942, "Longitude": 120.310802, "IVRNo": 251, "EXTVoiceNo": 251, "traveltime": 0, "holidayTraveltime": 0}, {"Id": "9362", "pgp": 0, "GoBack": 1, "SID": 4523, "NameZh": "Southern Vocational Training Center (Kaisyuan 4th Rd.)", "RouteId": 812, "SeqNo": 12, "Terminal": 0, "DistrictId": 1, "Latitude": 22.593152, "Longitude": 120.308281, "IVRNo": 6504, "EXTVoiceNo": 9362, "traveltime": 0, "holidayTraveltime": 0}, {"Id": "0205", "pgp": 0, "GoBack": 1, "SID": 13140, "NameZh": "Cianjhen Station", "RouteId": 812, "SeqNo": 13, "Terminal": 1, "DistrictId": 1, "Latitude": 22.591408, "Longitude": 120.305336, "IVRNo": 3001, "EXTVoiceNo": 20205, "traveltime": 0, "holidayTraveltime": 0}, {"Id": "0205", "pgp": 0, "GoBack": 2, "SID": 2130, "NameZh": "Cianjhen Station", "RouteId": 812, "SeqNo": 1, "Terminal": 0, "DistrictId": 1, "Latitude": 22.591549, "Longitude": 120.305376, "IVRNo": 3001, "EXTVoiceNo": 20205, "traveltime": 0, "holidayTraveltime": 0}, {"Id": "9362", "pgp": 0, "GoBack": 2, "SID": 4534, "NameZh": "Southern Vocational Training Center (Kaisyuan 4th Rd.)", "RouteId": 812, "SeqNo": 2, "Terminal": 0, "DistrictId": 1, "Latitude": 22.592894, "Longitude": 120.307892, "IVRNo": 6504, "EXTVoiceNo": 9362, "traveltime": 0, "holidayTraveltime": 0}, {"Id": "0251", "pgp": 0, "GoBack": 2, "SID": 14184, "NameZh": "LRT Kaisyuan Jhonghua Station (Old Kai Syuan 4th Rd.)", "RouteId": 812, "SeqNo": 3, "Terminal": 0, "DistrictId": 1, "Latitude": 22.594014, "Longitude": 120.311295, "IVRNo": 251, "EXTVoiceNo": 251, "traveltime": 0, "holidayTraveltime": 0}, {"Id": "2420", "pgp": 0, "GoBack": 2, "SID": 2482, "NameZh": "MRT Kaisyuan Statrion 1 (LRT Star of Cianjhen Station)", "RouteId": 812, "SeqNo": 4, "Terminal": 0, "DistrictId": 1, "Latitude": 22.595457, "Longitude": 120.315367, "IVRNo": 32420, "EXTVoiceNo": 32420, "traveltime": 0, "holidayTraveltime": 0}, {"Id": "3457", "pgp": 0, "GoBack": 2, "SID": 2414, "NameZh": "World Trade Plaza", "RouteId": 812, "SeqNo": 5, "Terminal": 0, "DistrictId": 1, "Latitude": 22.597559, "Longitude": 120.317996, "IVRNo": 3405, "EXTVoiceNo": 3457, "traveltime": 0, "holidayTraveltime": 0}, {"Id": "2418", "pgp": 0, "GoBack": 2, "SID": 2415, "NameZh": "LRT Kaisyuan Rueitian Station", "RouteId": 812, "SeqNo": 6, "Terminal": 0, "DistrictId": 1, "Latitude": 22.599481, "Longitude": 120.320163, "IVRNo": 32418, "EXTVoiceNo": 32418, "traveltime": 0, "holidayTraveltime": 0}, {"Id": "1506", "pgp": 0, "GoBack": 2, "SID": 2419, "NameZh": "Rueisiang High School (Kaisyuan 4th Rd.)", "RouteId": 812, "SeqNo": 7, "Terminal": 0, "DistrictId": 1, "Latitude": 22.60269, "Longitude": 120.323328, "IVRNo": 1506, "EXTVoiceNo": 1506, "traveltime": 0, "holidayTraveltime": 0}, {"Id": "1110", "pgp": 0, "GoBack": 2, "SID": 814, "NameZh": "Rueisiang High School (Banchao Rd.)", "RouteId": 812, "SeqNo": 8, "Terminal": 0, "DistrictId": 1, "Latitude": 22.60242, "Longitude": 120.32494, "IVRNo": 1110, "EXTVoiceNo": 1110, "traveltime": 0, "holidayTraveltime": 0}, {"Id": "1505", "pgp": 0, "GoBack": 2, "SID": 815, "NameZh": "Ruei Siang Primary School", "RouteId": 812, "SeqNo": 9, "Terminal": 0, "DistrictId": 1, "Latitude": 22.599828, "Longitude": 120.326107, "IVRNo": 1505, "EXTVoiceNo": 1505, "traveltime": 0, "holidayTraveltime": 0}, {"Id": "1504", "pgp": 0, "GoBack": 2, "SID": 818, "NameZh": "Nanjheng 2nd Rd. Intersection", "RouteId": 812, "SeqNo": 10, "Terminal": 0, "DistrictId": 1, "Latitude": 22.600135, "Longitude": 120.3294, "IVRNo": 1504, "EXTVoiceNo": 1504, "traveltime": 0, "holidayTraveltime": 0}, {"Id": "1502", "pgp": 0, "GoBack": 2, "SID": 822, "NameZh": "Gongjheng Rd. Intersection", "RouteId": 812, "SeqNo": 11, "Terminal": 0, "DistrictId": 1, "Latitude": 22.60182, "Longitude": 120.33293, "IVRNo": 1502, "EXTVoiceNo": 1502, "traveltime": 0, "holidayTraveltime": 0}, {"Id": "1202", "pgp": 0, "GoBack": 2, "SID": 385, "NameZh": "Yongfong Rd. Intersection", "RouteId": 812, "SeqNo": 12, "Terminal": 0, "DistrictId": 1, "Latitude": 22.60557, "Longitude": 120.33402, "IVRNo": 1202, "EXTVoiceNo": 1202, "traveltime": 0, "holidayTraveltime": 0}, {"Id": "1000", "pgp": 0, "GoBack": 2, "SID": 290, "NameZh": "Rueifong Station (Rueilong Rd.)", "RouteId": 812, "SeqNo": 13, "Terminal": 1, "DistrictId": 1, "Latitude": 22.605988, "Longitude": 120.337586, "IVRNo": 1000, "EXTVoiceNo": 1000, "traveltime": 0, "holidayTraveltime": 0}], "zh": [{"Id": "1000", "pgp": 0, "GoBack": 1, "SID": 179, "NameZh": "\u745e\u8c50\u7ad9(\u745e\u9686\u8def)", "RouteId": 812, "SeqNo": 1, "Terminal": 0, "DistrictId": 1, "Latitude": 22.605954, "Longitude": 120.337592, "IVRNo": 1000, "EXTVoiceNo": 1000, "traveltime": 0, "holidayTraveltime": 0}, {"Id": "1202", "pgp": 0, "GoBack": 1, "SID": 306, "NameZh": "\u6c38\u8c50\u8def\u53e3", "RouteId": 812, "SeqNo": 2, "Terminal": 0, "DistrictId": 1, "Latitude": 22.605731, "Longitude": 120.334067, "IVRNo": 1202, "EXTVoiceNo": 1202, "traveltime": 0, "holidayTraveltime": 0}, {"Id": "1502", "pgp": 0, "GoBack": 1, "SID": 733, "NameZh": "\u516c\u6b63\u8def\u53e3", "RouteId": 812, "SeqNo": 3, "Terminal": 0, "DistrictId": 1, "Latitude": 22.601928, "Longitude": 120.332791, "IVRNo": 1502, "EXTVoiceNo": 1502, "traveltime": 0, "holidayTraveltime": 0}, {"Id": "1504", "pgp": 0, "GoBack": 1, "SID": 737, "NameZh": "\u5357\u6b63\u4e8c\u8def\u53e3", "RouteId": 812, "SeqNo": 4, "Terminal": 0, "DistrictId": 1, "Latitude": 22.600174, "Longitude": 120.329347, "IVRNo": 1504, "EXTVoiceNo": 1504, "traveltime": 0, "holidayTraveltime": 0}, {"Id": "1505", "pgp": 0, "GoBack": 1, "SID": 738, "NameZh": "\u745e\u7965\u570b\u5c0f", "RouteId": 812, "SeqNo": 5, "Terminal": 0, "DistrictId": 1, "Latitude": 22.599669, "Longitude": 120.326238, "IVRNo": 1505, "EXTVoiceNo": 1505, "traveltime": 0, "holidayTraveltime": 0}, {"Id": "1110", "pgp": 0, "GoBack": 1, "SID": 740, "NameZh": "\u745e\u7965\u9ad8\u4e2d(\u73ed\u8d85\u8def)", "RouteId": 812, "SeqNo": 6, "Terminal": 0, "DistrictId": 1, "Latitude": 22.602373, "Longitude": 120.324969, "IVRNo": 1110, "EXTVoiceNo": 1110, "traveltime": 0, "holidayTraveltime": 0}, {"Id": "1506", "pgp": 0, "GoBack": 1, "SID": 2473, "NameZh": "\u745e\u7965\u9ad8\u4e2d(\u51f1\u65cb\u56db\u8def)", "RouteId": 812, "SeqNo": 7, "Terminal": 0, "DistrictId": 1, "Latitude": 22.602879, "Longitude": 120.323507, "IVRNo": 1506, "EXTVoiceNo": 1506, "traveltime": 0, "holidayTraveltime": 0}, {"Id": "2418", "pgp": 0, "GoBack": 1, "SID": 19199, "NameZh": "\u8f15\u8ecc\u51f1\u65cb\u745e\u7530\u7ad9", "RouteId": 812, "SeqNo": 8, "Terminal": 0, "DistrictId": 1, "Latitude": 22.599083, "Longitude": 120.319626, "IVRNo": 32418, "EXTVoiceNo": 32418, "traveltime": 0, "holidayTraveltime": 0}, {"Id": "3457", "pgp": 0, "GoBack": 1, "SID": 2474, "NameZh": "\u4e16\u8cbf\u5ee3\u5834", "RouteId": 812, "SeqNo": 9, "Terminal": 0, "DistrictId": 1, "Latitude": 22.597649, "Longitude": 120.318114, "IVRNo": 3405, "EXTVoiceNo": 3457, "traveltime": 0, "holidayTraveltime": 0}, {"Id": "2420", "pgp": 0, "GoBack": 1, "SID": 2475, "NameZh": "\u6377\u904b\u51f1\u65cb\u7ad91(\u8f15\u8ecc\u524d\u93ae\u4e4b\u661f\u7ad9)", "RouteId": 812, "SeqNo": 10, "Terminal": 0, "DistrictId": 1, "Latitude": 22.595729, "Longitude": 120.315442, "IVRNo": 32420, "EXTVoiceNo": 32420, "traveltime": 0, "holidayTraveltime": 0}, {"Id": "0251", "pgp": 0, "GoBack": 1, "SID": 19196, "NameZh": "\u8f15\u8ecc\u51f1\u65cb\u4e2d\u83ef\u7ad9(\u820a\u51f1\u65cb\u56db\u8def)", "RouteId": 812, "SeqNo": 11, "Terminal": 0, "DistrictId": 1, "Latitude": 22.593942, "Longitude": 120.310802, "IVRNo": 251, "EXTVoiceNo": 251, "traveltime": 0, "holidayTraveltime": 0}, {"Id": "9362", "pgp": 0, "GoBack": 1, "SID": 4523, "NameZh": "\u5357\u8a13\u4e2d\u5fc3(\u51f1\u65cb\u56db\u8def)", "RouteId": 812, "SeqNo": 12, "Terminal": 0, "DistrictId": 1, "Latitude": 22.593152, "Longitude": 120.308281, "IVRNo": 6504, "EXTVoiceNo": 9362, "traveltime": 0, "holidayTraveltime": 0}, {"Id": "0205", "pgp": 0, "GoBack": 1, "SID": 13140, "NameZh": "\u524d\u93ae\u7ad9", "RouteId": 812, "SeqNo": 13, "Terminal": 1, "DistrictId": 1, "Latitude": 22.591408, "Longitude": 120.305336, "IVRNo": 3001, "EXTVoiceNo": 20205, "traveltime": 0, "holidayTraveltime": 0}, {"Id": "0205", "pgp": 0, "GoBack": 2, "SID": 2130, "NameZh": "\u524d\u93ae\u7ad9", "RouteId": 812, "SeqNo": 1, "Terminal": 0, "DistrictId": 1, "Latitude": 22.591549, "Longitude": 120.305376, "IVRNo": 3001, "EXTVoiceNo": 20205, "traveltime": 0, "holidayTraveltime": 0}, {"Id": "9362", "pgp": 0, "GoBack": 2, "SID": 4534, "NameZh": "\u5357\u8a13\u4e2d\u5fc3(\u51f1\u65cb\u56db\u8def)", "RouteId": 812, "SeqNo": 2, "Terminal": 0, "DistrictId": 1, "Latitude": 22.592894, "Longitude": 120.307892, "IVRNo": 6504, "EXTVoiceNo": 9362, "traveltime": 0, "holidayTraveltime": 0}, {"Id": "0251", "pgp": 0, "GoBack": 2, "SID": 14184, "NameZh": "\u8f15\u8ecc\u51f1\u65cb\u4e2d\u83ef\u7ad9(\u820a\u51f1\u65cb\u56db\u8def)", "RouteId": 812, "SeqNo": 3, "Terminal": 0, "DistrictId": 1, "Latitude": 22.594014, "Longitude": 120.311295, "IVRNo": 251, "EXTVoiceNo": 251, "traveltime": 0, "holidayTraveltime": 0}, {"Id": "2420", "pgp": 0, "GoBack": 2, "SID": 2482, "NameZh": "\u6377\u904b\u51f1\u65cb\u7ad91(\u8f15\u8ecc\u524d\u93ae\u4e4b\u661f\u7ad9)", "RouteId": 812, "SeqNo": 4, "Terminal": 0, "DistrictId": 1, "Latitude": 22.595457, "Longitude": 120.315367, "IVRNo": 32420, "EXTVoiceNo": 32420, "traveltime": 0, "holidayTraveltime": 0}, {"Id": "3457", "pgp": 0, "GoBack": 2, "SID": 2414, "NameZh": "\u4e16\u8cbf\u5ee3\u5834", "RouteId": 812, "SeqNo": 5, "Terminal": 0, "DistrictId": 1, "Latitude": 22.597559, "Longitude": 120.317996, "IVRNo": 3405, "EXTVoiceNo": 3457, "traveltime": 0, "holidayTraveltime": 0}, {"Id": "2418", "pgp": 0, "GoBack": 2, "SID": 2415, "NameZh": "\u8f15\u8ecc\u51f1\u65cb\u745e\u7530\u7ad9", "RouteId": 812, "SeqNo": 6, "Terminal": 0, "DistrictId": 1, "Latitude": 22.599481, "Longitude": 120.320163, "IVRNo": 32418, "EXTVoiceNo": 32418, "traveltime": 0, "holidayTraveltime": 0}, {"Id": "1506", "pgp": 0, "GoBack": 2, "SID": 2419, "NameZh": "\u745e\u7965\u9ad8\u4e2d(\u51f1\u65cb\u56db\u8def)", "RouteId": 812, "SeqNo": 7, "Terminal": 0, "DistrictId": 1, "Latitude": 22.60269, "Longitude": 120.323328, "IVRNo": 1506, "EXTVoiceNo": 1506, "traveltime": 0, "holidayTraveltime": 0}, {"Id": "1110", "pgp": 0, "GoBack": 2, "SID": 814, "NameZh": "\u745e\u7965\u9ad8\u4e2d(\u73ed\u8d85\u8def)", "RouteId": 812, "SeqNo": 8, "Terminal": 0, "DistrictId": 1, "Latitude": 22.60242, "Longitude": 120.32494, "IVRNo": 1110, "EXTVoiceNo": 1110, "traveltime": 0, "holidayTraveltime": 0}, {"Id": "1505", "pgp": 0, "GoBack": 2, "SID": 815, "NameZh": "\u745e\u7965\u570b\u5c0f", "RouteId": 812, "SeqNo": 9, "Terminal": 0, "DistrictId": 1, "Latitude": 22.599828, "Longitude": 120.326107, "IVRNo": 1505, "EXTVoiceNo": 1505, "traveltime": 0, "holidayTraveltime": 0}, {"Id": "1504", "pgp": 0, "GoBack": 2, "SID": 818, "NameZh": "\u5357\u6b63\u4e8c\u8def\u53e3", "RouteId": 812, "SeqNo": 10, "Terminal": 0, "DistrictId": 1, "Latitude": 22.600135, "Longitude": 120.3294, "IVRNo": 1504, "EXTVoiceNo": 1504, "traveltime": 0, "holidayTraveltime": 0}, {"Id": "1502", "pgp": 0, "GoBack": 2, "SID": 822, "NameZh": "\u516c\u6b63\u8def\u53e3", "RouteId": 812, "SeqNo": 11, "Terminal": 0, "DistrictId": 1, "Latitude": 22.60182, "Longitude": 120.33293, "IVRNo": 1502, "EXTVoiceNo": 1502, "traveltime": 0, "holidayTraveltime": 0}, {"Id": "1202", "pgp": 0, "GoBack": 2, "SID": 385, "NameZh": "\u6c38\u8c50\u8def\u53e3", "RouteId": 812, "SeqNo": 12, "Terminal": 0, "DistrictId": 1, "Latitude": 22.60557, "Longitude": 120.33402, "IVRNo": 1202, "EXTVoiceNo": 1202, "traveltime": 0, "holidayTraveltime": 0}, {"Id": "1000", "pgp": 0, "GoBack": 2, "SID": 290, "NameZh": "\u745e\u8c50\u7ad9(\u745e\u9686\u8def)", "RouteId": 812, "SeqNo": 13, "Terminal": 1, "DistrictId": 1, "Latitude": 22.605988, "Longitude": 120.337586, "IVRNo": 1000, "EXTVoiceNo": 1000, "traveltime": 0, "holidayTraveltime": 0}]}