{"en": [{"Id": "1000", "pgp": 0, "GoBack": 1, "SID": 182, "NameZh": "Rueifong Station (Rueilong Rd.)", "RouteId": 26, "SeqNo": 1, "Terminal": 0, "DistrictId": 1, "Latitude": 22.606023, "Longitude": 120.338085, "IVRNo": 1000, "EXTVoiceNo": 1000, "traveltime": 0, "holidayTraveltime": 0}, {"Id": "1202", "pgp": 0, "GoBack": 1, "SID": 305, "NameZh": "Yongfong Rd. Intersection", "RouteId": 26, "SeqNo": 2, "Terminal": 0, "DistrictId": 1, "Latitude": 22.60578, "Longitude": 120.33406, "IVRNo": 1202, "EXTVoiceNo": 1202, "traveltime": 0, "holidayTraveltime": 0}, {"Id": "1203", "pgp": 0, "GoBack": 1, "SID": 310, "NameZh": "Rueilong Rd.", "RouteId": 26, "SeqNo": 3, "Terminal": 0, "DistrictId": 1, "Latitude": 22.60564, "Longitude": 120.33183, "IVRNo": 1203, "EXTVoiceNo": 1203, "traveltime": 0, "holidayTraveltime": 0}, {"Id": "1244", "pgp": 0, "GoBack": 1, "SID": 313, "NameZh": "Gangshanzih", "RouteId": 26, "SeqNo": 4, "Terminal": 0, "DistrictId": 1, "Latitude": 22.60544, "Longitude": 120.32944, "IVRNo": 1204, "EXTVoiceNo": 1244, "traveltime": 0, "holidayTraveltime": 0}, {"Id": "1205", "pgp": 0, "GoBack": 1, "SID": 316, "NameZh": "Siande Market", "RouteId": 26, "SeqNo": 5, "Terminal": 0, "DistrictId": 1, "Latitude": 22.60523, "Longitude": 120.32624, "IVRNo": 1205, "EXTVoiceNo": 1205, "traveltime": 0, "holidayTraveltime": 0}, {"Id": "2417", "pgp": 0, "GoBack": 1, "SID": 371, "NameZh": "Yisin 1st Rd. Intersection (LRT Lizainei Station)", "RouteId": 26, "SeqNo": 6, "Terminal": 0, "DistrictId": 1, "Latitude": 22.60626, "Longitude": 120.32486, "IVRNo": 32417, "EXTVoiceNo": 32417, "traveltime": 0, "holidayTraveltime": 0}, {"Id": "1207", "pgp": 0, "GoBack": 1, "SID": 323, "NameZh": "Sianming Rd. Intersection", "RouteId": 26, "SeqNo": 7, "Terminal": 0, "DistrictId": 1, "Latitude": 22.60933, "Longitude": 120.3256, "IVRNo": 1207, "EXTVoiceNo": 1207, "traveltime": 0, "holidayTraveltime": 0}, {"Id": "1208", "pgp": 0, "GoBack": 1, "SID": 326, "NameZh": "Ersheng 1st Rd.", "RouteId": 26, "SeqNo": 8, "Terminal": 0, "DistrictId": 1, "Latitude": 22.61196, "Longitude": 120.32573, "IVRNo": 1208, "EXTVoiceNo": 1208, "traveltime": 0, "holidayTraveltime": 0}, {"Id": "1212", "pgp": 0, "GoBack": 1, "SID": 327, "NameZh": "Guanghua Junior High School (Ersheng 1st Rd.)", "RouteId": 26, "SeqNo": 9, "Terminal": 0, "DistrictId": 1, "Latitude": 22.61256, "Longitude": 120.32112, "IVRNo": 1212, "EXTVoiceNo": 1212, "traveltime": 0, "holidayTraveltime": 0}, {"Id": "1210", "pgp": 0, "GoBack": 1, "SID": 338, "NameZh": "Jhongjheng Industrial High School (Ersheng 1st Rd.)", "RouteId": 26, "SeqNo": 10, "Terminal": 0, "DistrictId": 1, "Latitude": 22.612763, "Longitude": 120.319254, "IVRNo": 1210, "EXTVoiceNo": 1210, "traveltime": 0, "holidayTraveltime": 0}, {"Id": "1211", "pgp": 0, "GoBack": 1, "SID": 340, "NameZh": "Nanning St. Intersection", "RouteId": 26, "SeqNo": 11, "Terminal": 0, "DistrictId": 1, "Latitude": 22.6131, "Longitude": 120.31702, "IVRNo": 1211, "EXTVoiceNo": 1211, "traveltime": 0, "holidayTraveltime": 0}, {"Id": "1115", "pgp": 0, "GoBack": 1, "SID": 341, "NameZh": "Mincyuan Park (Ersheng 2nd Rd.)", "RouteId": 26, "SeqNo": 12, "Terminal": 0, "DistrictId": 1, "Latitude": 22.6135, "Longitude": 120.31383, "IVRNo": 1115, "EXTVoiceNo": 1115, "traveltime": 0, "holidayTraveltime": 0}, {"Id": "1213", "pgp": 0, "GoBack": 1, "SID": 342, "NameZh": "Siouwun St. Intersection", "RouteId": 26, "SeqNo": 13, "Terminal": 0, "DistrictId": 1, "Latitude": 22.61393, "Longitude": 120.31051, "IVRNo": 1213, "EXTVoiceNo": 1213, "traveltime": 0, "holidayTraveltime": 0}, {"Id": "1214", "pgp": 0, "GoBack": 1, "SID": 343, "NameZh": "Ersheng 2nd Rd. Intersection", "RouteId": 26, "SeqNo": 14, "Terminal": 0, "DistrictId": 1, "Latitude": 22.61468, "Longitude": 120.3087, "IVRNo": 1214, "EXTVoiceNo": 1214, "traveltime": 0, "holidayTraveltime": 0}, {"Id": "1233", "pgp": 0, "GoBack": 1, "SID": 344, "NameZh": "Linsen 2nd Rd.", "RouteId": 26, "SeqNo": 15, "Terminal": 0, "DistrictId": 1, "Latitude": 22.61636, "Longitude": 120.30808, "IVRNo": 1215, "EXTVoiceNo": 1233, "traveltime": 0, "holidayTraveltime": 0}, {"Id": "1226", "pgp": 0, "GoBack": 1, "SID": 345, "NameZh": "Lingya Junior High School (Linsen 2nd Rd.)", "RouteId": 26, "SeqNo": 16, "Terminal": 0, "DistrictId": 1, "Latitude": 22.61933, "Longitude": 120.30691, "IVRNo": 1226, "EXTVoiceNo": 1226, "traveltime": 0, "holidayTraveltime": 0}, {"Id": "1020", "pgp": 0, "GoBack": 1, "SID": 346, "NameZh": "Cingnian Rd. Intersection (Linsen 2nd Rd.)", "RouteId": 26, "SeqNo": 17, "Terminal": 0, "DistrictId": 1, "Latitude": 22.621, "Longitude": 120.30626, "IVRNo": 147, "EXTVoiceNo": 1020, "traveltime": 0, "holidayTraveltime": 0}, {"Id": "7119", "pgp": 0, "GoBack": 1, "SID": 347, "NameZh": "Sinsing Senior High School (Shinkuchan)", "RouteId": 26, "SeqNo": 18, "Terminal": 0, "DistrictId": 1, "Latitude": 22.62395, "Longitude": 120.30513, "IVRNo": 1218, "EXTVoiceNo": 17119, "traveltime": 0, "holidayTraveltime": 0}, {"Id": "1219", "pgp": 0, "GoBack": 1, "SID": 348, "NameZh": "Sinsing Elementary School", "RouteId": 26, "SeqNo": 19, "Terminal": 0, "DistrictId": 1, "Latitude": 22.62674, "Longitude": 120.30431, "IVRNo": 1219, "EXTVoiceNo": 1219, "traveltime": 0, "holidayTraveltime": 0}, {"Id": "1220", "pgp": 0, "GoBack": 1, "SID": 349, "NameZh": "Sinsing Market", "RouteId": 26, "SeqNo": 20, "Terminal": 0, "DistrictId": 1, "Latitude": 22.62868, "Longitude": 120.30442, "IVRNo": 1220, "EXTVoiceNo": 1220, "traveltime": 0, "holidayTraveltime": 0}, {"Id": "9238", "pgp": 0, "GoBack": 1, "SID": 3882, "NameZh": "Kaohsiung Post Office (MRT Formosa Boulevard Station)", "RouteId": 26, "SeqNo": 21, "Terminal": 0, "DistrictId": 1, "Latitude": 22.6306, "Longitude": 120.30456, "IVRNo": 553, "EXTVoiceNo": 9238, "traveltime": 0, "holidayTraveltime": 0}, {"Id": "0522", "pgp": 0, "GoBack": 1, "SID": 3901, "NameZh": "The Directorate General of Telecommunications", "RouteId": 26, "SeqNo": 22, "Terminal": 0, "DistrictId": 1, "Latitude": 22.63344, "Longitude": 120.30482, "IVRNo": 522, "EXTVoiceNo": 522, "traveltime": 0, "holidayTraveltime": 0}, {"Id": "0411", "pgp": 0, "GoBack": 1, "SID": 2879, "NameZh": "Linsen Rd. Intersection", "RouteId": 26, "SeqNo": 23, "Terminal": 0, "DistrictId": 1, "Latitude": 22.637686, "Longitude": 120.304303, "IVRNo": 92, "EXTVoiceNo": 411, "traveltime": 0, "holidayTraveltime": 0}, {"Id": "0412", "pgp": 0, "GoBack": 1, "SID": 2897, "NameZh": "Kaohsiung Train Station (MRT Kaohsiung Main Station)", "RouteId": 26, "SeqNo": 24, "Terminal": 1, "DistrictId": 1, "Latitude": 22.636991, "Longitude": 120.302217, "IVRNo": 412, "EXTVoiceNo": 412, "traveltime": 0, "holidayTraveltime": 0}, {"Id": "0412", "pgp": 0, "GoBack": 2, "SID": 19011, "NameZh": "Kaohsiung Train Station (MRT Kaohsiung Main Station)", "RouteId": 26, "SeqNo": 1, "Terminal": 0, "DistrictId": 1, "Latitude": 22.636446, "Longitude": 120.30219, "IVRNo": 412, "EXTVoiceNo": 412, "traveltime": 0, "holidayTraveltime": 0}, {"Id": "0522", "pgp": 0, "GoBack": 2, "SID": 4105, "NameZh": "The Directorate General of Telecommunications", "RouteId": 26, "SeqNo": 2, "Terminal": 0, "DistrictId": 1, "Latitude": 22.63342, "Longitude": 120.30468, "IVRNo": 522, "EXTVoiceNo": 522, "traveltime": 0, "holidayTraveltime": 0}, {"Id": "9238", "pgp": 0, "GoBack": 2, "SID": 4106, "NameZh": "Kaohsiung Post Office (MRT Formosa Boulevard Station)", "RouteId": 26, "SeqNo": 3, "Terminal": 0, "DistrictId": 1, "Latitude": 22.63056, "Longitude": 120.3043, "IVRNo": 553, "EXTVoiceNo": 9238, "traveltime": 0, "holidayTraveltime": 0}, {"Id": "1220", "pgp": 0, "GoBack": 2, "SID": 350, "NameZh": "Sinsing Market", "RouteId": 26, "SeqNo": 4, "Terminal": 0, "DistrictId": 1, "Latitude": 22.62852, "Longitude": 120.3043, "IVRNo": 1220, "EXTVoiceNo": 1220, "traveltime": 0, "holidayTraveltime": 0}, {"Id": "1219", "pgp": 0, "GoBack": 2, "SID": 351, "NameZh": "Sinsing Elementary School", "RouteId": 26, "SeqNo": 5, "Terminal": 0, "DistrictId": 1, "Latitude": 22.62692, "Longitude": 120.30415, "IVRNo": 1219, "EXTVoiceNo": 1219, "traveltime": 0, "holidayTraveltime": 0}, {"Id": "7119", "pgp": 0, "GoBack": 2, "SID": 352, "NameZh": "Sinsing Senior High School (Shinkuchan)", "RouteId": 26, "SeqNo": 6, "Terminal": 0, "DistrictId": 1, "Latitude": 22.62387, "Longitude": 120.30504, "IVRNo": 1218, "EXTVoiceNo": 17119, "traveltime": 0, "holidayTraveltime": 0}, {"Id": "1020", "pgp": 0, "GoBack": 2, "SID": 353, "NameZh": "Cingnian Rd. Intersection (Linsen 2nd Rd.)", "RouteId": 26, "SeqNo": 7, "Terminal": 0, "DistrictId": 1, "Latitude": 22.62074, "Longitude": 120.30625, "IVRNo": 147, "EXTVoiceNo": 1020, "traveltime": 0, "holidayTraveltime": 0}, {"Id": "1226", "pgp": 0, "GoBack": 2, "SID": 354, "NameZh": "Lingya Junior High School (Linsen 2nd Rd.)", "RouteId": 26, "SeqNo": 8, "Terminal": 0, "DistrictId": 1, "Latitude": 22.61938, "Longitude": 120.30675, "IVRNo": 1226, "EXTVoiceNo": 1226, "traveltime": 0, "holidayTraveltime": 0}, {"Id": "1233", "pgp": 0, "GoBack": 2, "SID": 355, "NameZh": "Linsen 2nd Rd.", "RouteId": 26, "SeqNo": 9, "Terminal": 0, "DistrictId": 1, "Latitude": 22.61628, "Longitude": 120.30798, "IVRNo": 1215, "EXTVoiceNo": 1233, "traveltime": 0, "holidayTraveltime": 0}, {"Id": "1214", "pgp": 0, "GoBack": 2, "SID": 356, "NameZh": "Ersheng 2nd Rd. Intersection", "RouteId": 26, "SeqNo": 10, "Terminal": 0, "DistrictId": 1, "Latitude": 22.61474, "Longitude": 120.30857, "IVRNo": 1214, "EXTVoiceNo": 1214, "traveltime": 0, "holidayTraveltime": 0}, {"Id": "1213", "pgp": 0, "GoBack": 2, "SID": 357, "NameZh": "Siouwun St. Intersection", "RouteId": 26, "SeqNo": 11, "Terminal": 0, "DistrictId": 1, "Latitude": 22.61386, "Longitude": 120.31037, "IVRNo": 1213, "EXTVoiceNo": 1213, "traveltime": 0, "holidayTraveltime": 0}, {"Id": "1115", "pgp": 0, "GoBack": 2, "SID": 358, "NameZh": "Mincyuan Park (Ersheng 2nd Rd.)", "RouteId": 26, "SeqNo": 12, "Terminal": 0, "DistrictId": 1, "Latitude": 22.61347, "Longitude": 120.31339, "IVRNo": 1115, "EXTVoiceNo": 1115, "traveltime": 0, "holidayTraveltime": 0}, {"Id": "1211", "pgp": 0, "GoBack": 2, "SID": 359, "NameZh": "Nanning St. Intersection", "RouteId": 26, "SeqNo": 13, "Terminal": 0, "DistrictId": 1, "Latitude": 22.61303, "Longitude": 120.31684, "IVRNo": 1211, "EXTVoiceNo": 1211, "traveltime": 0, "holidayTraveltime": 0}, {"Id": "1210", "pgp": 0, "GoBack": 2, "SID": 362, "NameZh": "Jhongjheng Industrial High School (Ersheng 1st Rd.)", "RouteId": 26, "SeqNo": 14, "Terminal": 0, "DistrictId": 1, "Latitude": 22.61276, "Longitude": 120.31893, "IVRNo": 1210, "EXTVoiceNo": 1210, "traveltime": 0, "holidayTraveltime": 0}, {"Id": "1212", "pgp": 0, "GoBack": 2, "SID": 363, "NameZh": "Guanghua Junior High School (Ersheng 1st Rd.)", "RouteId": 26, "SeqNo": 15, "Terminal": 0, "DistrictId": 1, "Latitude": 22.612429, "Longitude": 120.32138, "IVRNo": 1212, "EXTVoiceNo": 1212, "traveltime": 0, "holidayTraveltime": 0}, {"Id": "1208", "pgp": 0, "GoBack": 2, "SID": 365, "NameZh": "Ersheng 1st Rd.", "RouteId": 26, "SeqNo": 16, "Terminal": 0, "DistrictId": 1, "Latitude": 22.6119, "Longitude": 120.32561, "IVRNo": 1208, "EXTVoiceNo": 1208, "traveltime": 0, "holidayTraveltime": 0}, {"Id": "1207", "pgp": 0, "GoBack": 2, "SID": 325, "NameZh": "Sianming Rd. Intersection", "RouteId": 26, "SeqNo": 17, "Terminal": 0, "DistrictId": 1, "Latitude": 22.60933, "Longitude": 120.3256, "IVRNo": 1207, "EXTVoiceNo": 1207, "traveltime": 0, "holidayTraveltime": 0}, {"Id": "2417", "pgp": 0, "GoBack": 2, "SID": 370, "NameZh": "Yisin 1st Rd. Intersection (LRT Lizainei Station)", "RouteId": 26, "SeqNo": 18, "Terminal": 0, "DistrictId": 1, "Latitude": 22.60633, "Longitude": 120.32474, "IVRNo": 32417, "EXTVoiceNo": 32417, "traveltime": 0, "holidayTraveltime": 0}, {"Id": "1205", "pgp": 0, "GoBack": 2, "SID": 373, "NameZh": "Siande Market", "RouteId": 26, "SeqNo": 19, "Terminal": 0, "DistrictId": 1, "Latitude": 22.60516, "Longitude": 120.32646, "IVRNo": 1205, "EXTVoiceNo": 1205, "traveltime": 0, "holidayTraveltime": 0}, {"Id": "1244", "pgp": 0, "GoBack": 2, "SID": 376, "NameZh": "Gangshanzih", "RouteId": 26, "SeqNo": 20, "Terminal": 0, "DistrictId": 1, "Latitude": 22.60544, "Longitude": 120.33013, "IVRNo": 1204, "EXTVoiceNo": 1244, "traveltime": 0, "holidayTraveltime": 0}, {"Id": "1203", "pgp": 0, "GoBack": 2, "SID": 379, "NameZh": "Rueilong Rd.", "RouteId": 26, "SeqNo": 21, "Terminal": 0, "DistrictId": 1, "Latitude": 22.60556, "Longitude": 120.33182, "IVRNo": 1203, "EXTVoiceNo": 1203, "traveltime": 0, "holidayTraveltime": 0}, {"Id": "1202", "pgp": 0, "GoBack": 2, "SID": 382, "NameZh": "Yongfong Rd. Intersection", "RouteId": 26, "SeqNo": 22, "Terminal": 0, "DistrictId": 1, "Latitude": 22.60572, "Longitude": 120.33409, "IVRNo": 1202, "EXTVoiceNo": 1202, "traveltime": 0, "holidayTraveltime": 0}, {"Id": "1000", "pgp": 0, "GoBack": 2, "SID": 286, "NameZh": "Rueifong Station (Rueilong Rd.)", "RouteId": 26, "SeqNo": 23, "Terminal": 1, "DistrictId": 1, "Latitude": 22.606023, "Longitude": 120.338091, "IVRNo": 1000, "EXTVoiceNo": 1000, "traveltime": 0, "holidayTraveltime": 0}], "zh": [{"Id": "1000", "pgp": 0, "GoBack": 1, "SID": 182, "NameZh": "\u745e\u8c50\u7ad9(\u745e\u9686\u8def)", "RouteId": 26, "SeqNo": 1, "Terminal": 0, "DistrictId": 1, "Latitude": 22.606023, "Longitude": 120.338085, "IVRNo": 1000, "EXTVoiceNo": 1000, "traveltime": 0, "holidayTraveltime": 0}, {"Id": "1202", "pgp": 0, "GoBack": 1, "SID": 305, "NameZh": "\u6c38\u8c50\u8def\u53e3", "RouteId": 26, "SeqNo": 2, "Terminal": 0, "DistrictId": 1, "Latitude": 22.60578, "Longitude": 120.33406, "IVRNo": 1202, "EXTVoiceNo": 1202, "traveltime": 0, "holidayTraveltime": 0}, {"Id": "1203", "pgp": 0, "GoBack": 1, "SID": 310, "NameZh": "\u745e\u9686\u8def", "RouteId": 26, "SeqNo": 3, "Terminal": 0, "DistrictId": 1, "Latitude": 22.60564, "Longitude": 120.33183, "IVRNo": 1203, "EXTVoiceNo": 1203, "traveltime": 0, "holidayTraveltime": 0}, {"Id": "1244", "pgp": 0, "GoBack": 1, "SID": 313, "NameZh": "\u5d17\u5c71\u4ed4", "RouteId": 26, "SeqNo": 4, "Terminal": 0, "DistrictId": 1, "Latitude": 22.60544, "Longitude": 120.32944, "IVRNo": 1204, "EXTVoiceNo": 1244, "traveltime": 0, "holidayTraveltime": 0}, {"Id": "1205", "pgp": 0, "GoBack": 1, "SID": 316, "NameZh": "\u61b2\u5fb7\u5e02\u5834", "RouteId": 26, "SeqNo": 5, "Terminal": 0, "DistrictId": 1, "Latitude": 22.60523, "Longitude": 120.32624, "IVRNo": 1205, "EXTVoiceNo": 1205, "traveltime": 0, "holidayTraveltime": 0}, {"Id": "2417", "pgp": 0, "GoBack": 1, "SID": 371, "NameZh": "\u4e00\u5fc3\u4e00\u8def\u53e3(\u8f15\u8ecc\u7c6c\u4ed4\u5167\u7ad9)", "RouteId": 26, "SeqNo": 6, "Terminal": 0, "DistrictId": 1, "Latitude": 22.60626, "Longitude": 120.32486, "IVRNo": 32417, "EXTVoiceNo": 32417, "traveltime": 0, "holidayTraveltime": 0}, {"Id": "1207", "pgp": 0, "GoBack": 1, "SID": 323, "NameZh": "\u8ce2\u660e\u8def\u53e3", "RouteId": 26, "SeqNo": 7, "Terminal": 0, "DistrictId": 1, "Latitude": 22.60933, "Longitude": 120.3256, "IVRNo": 1207, "EXTVoiceNo": 1207, "traveltime": 0, "holidayTraveltime": 0}, {"Id": "1208", "pgp": 0, "GoBack": 1, "SID": 326, "NameZh": "\u4e8c\u8056\u4e00\u8def", "RouteId": 26, "SeqNo": 8, "Terminal": 0, "DistrictId": 1, "Latitude": 22.61196, "Longitude": 120.32573, "IVRNo": 1208, "EXTVoiceNo": 1208, "traveltime": 0, "holidayTraveltime": 0}, {"Id": "1212", "pgp": 0, "GoBack": 1, "SID": 327, "NameZh": "\u5149\u83ef\u570b\u4e2d(\u4e8c\u8056\u4e00\u8def)", "RouteId": 26, "SeqNo": 9, "Terminal": 0, "DistrictId": 1, "Latitude": 22.61256, "Longitude": 120.32112, "IVRNo": 1212, "EXTVoiceNo": 1212, "traveltime": 0, "holidayTraveltime": 0}, {"Id": "1210", "pgp": 0, "GoBack": 1, "SID": 338, "NameZh": "\u4e2d\u6b63\u9ad8\u5de5(\u4e8c\u8056\u4e00\u8def)", "RouteId": 26, "SeqNo": 10, "Terminal": 0, "DistrictId": 1, "Latitude": 22.612763, "Longitude": 120.319254, "IVRNo": 1210, "EXTVoiceNo": 1210, "traveltime": 0, "holidayTraveltime": 0}, {"Id": "1211", "pgp": 0, "GoBack": 1, "SID": 340, "NameZh": "\u5357\u5be7\u8857\u53e3", "RouteId": 26, "SeqNo": 11, "Terminal": 0, "DistrictId": 1, "Latitude": 22.6131, "Longitude": 120.31702, "IVRNo": 1211, "EXTVoiceNo": 1211, "traveltime": 0, "holidayTraveltime": 0}, {"Id": "1115", "pgp": 0, "GoBack": 1, "SID": 341, "NameZh": "\u6c11\u6b0a\u516c\u5712(\u4e8c\u8056\u4e8c\u8def)", "RouteId": 26, "SeqNo": 12, "Terminal": 0, "DistrictId": 1, "Latitude": 22.6135, "Longitude": 120.31383, "IVRNo": 1115, "EXTVoiceNo": 1115, "traveltime": 0, "holidayTraveltime": 0}, {"Id": "1213", "pgp": 0, "GoBack": 1, "SID": 342, "NameZh": "\u4fee\u6587\u8857\u53e3", "RouteId": 26, "SeqNo": 13, "Terminal": 0, "DistrictId": 1, "Latitude": 22.61393, "Longitude": 120.31051, "IVRNo": 1213, "EXTVoiceNo": 1213, "traveltime": 0, "holidayTraveltime": 0}, {"Id": "1214", "pgp": 0, "GoBack": 1, "SID": 343, "NameZh": "\u4e8c\u8056\u4e8c\u8def\u53e3", "RouteId": 26, "SeqNo": 14, "Terminal": 0, "DistrictId": 1, "Latitude": 22.61468, "Longitude": 120.3087, "IVRNo": 1214, "EXTVoiceNo": 1214, "traveltime": 0, "holidayTraveltime": 0}, {"Id": "1233", "pgp": 0, "GoBack": 1, "SID": 344, "NameZh": "\u6797\u68ee\u4e8c\u8def", "RouteId": 26, "SeqNo": 15, "Terminal": 0, "DistrictId": 1, "Latitude": 22.61636, "Longitude": 120.30808, "IVRNo": 1215, "EXTVoiceNo": 1233, "traveltime": 0, "holidayTraveltime": 0}, {"Id": "1226", "pgp": 0, "GoBack": 1, "SID": 345, "NameZh": "\u82d3\u96c5\u570b\u4e2d(\u6797\u68ee\u4e8c\u8def)", "RouteId": 26, "SeqNo": 16, "Terminal": 0, "DistrictId": 1, "Latitude": 22.61933, "Longitude": 120.30691, "IVRNo": 1226, "EXTVoiceNo": 1226, "traveltime": 0, "holidayTraveltime": 0}, {"Id": "1020", "pgp": 0, "GoBack": 1, "SID": 346, "NameZh": "\u9752\u5e74\u8def\u53e3(\u6797\u68ee\u4e8c\u8def)", "RouteId": 26, "SeqNo": 17, "Terminal": 0, "DistrictId": 1, "Latitude": 22.621, "Longitude": 120.30626, "IVRNo": 147, "EXTVoiceNo": 1020, "traveltime": 0, "holidayTraveltime": 0}, {"Id": "7119", "pgp": 0, "GoBack": 1, "SID": 347, "NameZh": "\u65b0\u8208\u9ad8\u4e2d(\u65b0\u5800\u6c5f)", "RouteId": 26, "SeqNo": 18, "Terminal": 0, "DistrictId": 1, "Latitude": 22.62395, "Longitude": 120.30513, "IVRNo": 1218, "EXTVoiceNo": 17119, "traveltime": 0, "holidayTraveltime": 0}, {"Id": "1219", "pgp": 0, "GoBack": 1, "SID": 348, "NameZh": "\u65b0\u8208\u570b\u5c0f", "RouteId": 26, "SeqNo": 19, "Terminal": 0, "DistrictId": 1, "Latitude": 22.62674, "Longitude": 120.30431, "IVRNo": 1219, "EXTVoiceNo": 1219, "traveltime": 0, "holidayTraveltime": 0}, {"Id": "1220", "pgp": 0, "GoBack": 1, "SID": 349, "NameZh": "\u65b0\u8208\u5e02\u5834", "RouteId": 26, "SeqNo": 20, "Terminal": 0, "DistrictId": 1, "Latitude": 22.62868, "Longitude": 120.30442, "IVRNo": 1220, "EXTVoiceNo": 1220, "traveltime": 0, "holidayTraveltime": 0}, {"Id": "9238", "pgp": 0, "GoBack": 1, "SID": 3882, "NameZh": "\u90f5\u653f\u7e3d\u5c40(\u6377\u904b\u7f8e\u9e97\u5cf6\u7ad9)", "RouteId": 26, "SeqNo": 21, "Terminal": 0, "DistrictId": 1, "Latitude": 22.6306, "Longitude": 120.30456, "IVRNo": 553, "EXTVoiceNo": 9238, "traveltime": 0, "holidayTraveltime": 0}, {"Id": "0522", "pgp": 0, "GoBack": 1, "SID": 3901, "NameZh": "\u96fb\u4fe1\u7e3d\u5c40", "RouteId": 26, "SeqNo": 22, "Terminal": 0, "DistrictId": 1, "Latitude": 22.63344, "Longitude": 120.30482, "IVRNo": 522, "EXTVoiceNo": 522, "traveltime": 0, "holidayTraveltime": 0}, {"Id": "0411", "pgp": 0, "GoBack": 1, "SID": 2879, "NameZh": "\u6797\u68ee\u8def\u53e3", "RouteId": 26, "SeqNo": 23, "Terminal": 0, "DistrictId": 1, "Latitude": 22.637686, "Longitude": 120.304303, "IVRNo": 92, "EXTVoiceNo": 411, "traveltime": 0, "holidayTraveltime": 0}, {"Id": "0412", "pgp": 0, "GoBack": 1, "SID": 2897, "NameZh": "\u9ad8\u96c4\u706b\u8eca\u7ad9(\u6377\u904b\u9ad8\u96c4\u8eca\u7ad9)", "RouteId": 26, "SeqNo": 24, "Terminal": 1, "DistrictId": 1, "Latitude": 22.636991, "Longitude": 120.302217, "IVRNo": 412, "EXTVoiceNo": 412, "traveltime": 0, "holidayTraveltime": 0}, {"Id": "0412", "pgp": 0, "GoBack": 2, "SID": 19011, "NameZh": "\u9ad8\u96c4\u706b\u8eca\u7ad9(\u6377\u904b\u9ad8\u96c4\u8eca\u7ad9)", "RouteId": 26, "SeqNo": 1, "Terminal": 0, "DistrictId": 1, "Latitude": 22.636446, "Longitude": 120.30219, "IVRNo": 412, "EXTVoiceNo": 412, "traveltime": 0, "holidayTraveltime": 0}, {"Id": "0522", "pgp": 0, "GoBack": 2, "SID": 4105, "NameZh": "\u96fb\u4fe1\u7e3d\u5c40", "RouteId": 26, "SeqNo": 2, "Terminal": 0, "DistrictId": 1, "Latitude": 22.63342, "Longitude": 120.30468, "IVRNo": 522, "EXTVoiceNo": 522, "traveltime": 0, "holidayTraveltime": 0}, {"Id": "9238", "pgp": 0, "GoBack": 2, "SID": 4106, "NameZh": "\u90f5\u653f\u7e3d\u5c40(\u6377\u904b\u7f8e\u9e97\u5cf6\u7ad9)", "RouteId": 26, "SeqNo": 3, "Terminal": 0, "DistrictId": 1, "Latitude": 22.63056, "Longitude": 120.3043, "IVRNo": 553, "EXTVoiceNo": 9238, "traveltime": 0, "holidayTraveltime": 0}, {"Id": "1220", "pgp": 0, "GoBack": 2, "SID": 350, "NameZh": "\u65b0\u8208\u5e02\u5834", "RouteId": 26, "SeqNo": 4, "Terminal": 0, "DistrictId": 1, "Latitude": 22.62852, "Longitude": 120.3043, "IVRNo": 1220, "EXTVoiceNo": 1220, "traveltime": 0, "holidayTraveltime": 0}, {"Id": "1219", "pgp": 0, "GoBack": 2, "SID": 351, "NameZh": "\u65b0\u8208\u570b\u5c0f", "RouteId": 26, "SeqNo": 5, "Terminal": 0, "DistrictId": 1, "Latitude": 22.62692, "Longitude": 120.30415, "IVRNo": 1219, "EXTVoiceNo": 1219, "traveltime": 0, "holidayTraveltime": 0}, {"Id": "7119", "pgp": 0, "GoBack": 2, "SID": 352, "NameZh": "\u65b0\u8208\u9ad8\u4e2d(\u65b0\u5800\u6c5f)", "RouteId": 26, "SeqNo": 6, "Terminal": 0, "DistrictId": 1, "Latitude": 22.62387, "Longitude": 120.30504, "IVRNo": 1218, "EXTVoiceNo": 17119, "traveltime": 0, "holidayTraveltime": 0}, {"Id": "1020", "pgp": 0, "GoBack": 2, "SID": 353, "NameZh": "\u9752\u5e74\u8def\u53e3(\u6797\u68ee\u4e8c\u8def)", "RouteId": 26, "SeqNo": 7, "Terminal": 0, "DistrictId": 1, "Latitude": 22.62074, "Longitude": 120.30625, "IVRNo": 147, "EXTVoiceNo": 1020, "traveltime": 0, "holidayTraveltime": 0}, {"Id": "1226", "pgp": 0, "GoBack": 2, "SID": 354, "NameZh": "\u82d3\u96c5\u570b\u4e2d(\u6797\u68ee\u4e8c\u8def)", "RouteId": 26, "SeqNo": 8, "Terminal": 0, "DistrictId": 1, "Latitude": 22.61938, "Longitude": 120.30675, "IVRNo": 1226, "EXTVoiceNo": 1226, "traveltime": 0, "holidayTraveltime": 0}, {"Id": "1233", "pgp": 0, "GoBack": 2, "SID": 355, "NameZh": "\u6797\u68ee\u4e8c\u8def", "RouteId": 26, "SeqNo": 9, "Terminal": 0, "DistrictId": 1, "Latitude": 22.61628, "Longitude": 120.30798, "IVRNo": 1215, "EXTVoiceNo": 1233, "traveltime": 0, "holidayTraveltime": 0}, {"Id": "1214", "pgp": 0, "GoBack": 2, "SID": 356, "NameZh": "\u4e8c\u8056\u4e8c\u8def\u53e3", "RouteId": 26, "SeqNo": 10, "Terminal": 0, "DistrictId": 1, "Latitude": 22.61474, "Longitude": 120.30857, "IVRNo": 1214, "EXTVoiceNo": 1214, "traveltime": 0, "holidayTraveltime": 0}, {"Id": "1213", "pgp": 0, "GoBack": 2, "SID": 357, "NameZh": "\u4fee\u6587\u8857\u53e3", "RouteId": 26, "SeqNo": 11, "Terminal": 0, "DistrictId": 1, "Latitude": 22.61386, "Longitude": 120.31037, "IVRNo": 1213, "EXTVoiceNo": 1213, "traveltime": 0, "holidayTraveltime": 0}, {"Id": "1115", "pgp": 0, "GoBack": 2, "SID": 358, "NameZh": "\u6c11\u6b0a\u516c\u5712(\u4e8c\u8056\u4e8c\u8def)", "RouteId": 26, "SeqNo": 12, "Terminal": 0, "DistrictId": 1, "Latitude": 22.61347, "Longitude": 120.31339, "IVRNo": 1115, "EXTVoiceNo": 1115, "traveltime": 0, "holidayTraveltime": 0}, {"Id": "1211", "pgp": 0, "GoBack": 2, "SID": 359, "NameZh": "\u5357\u5be7\u8857\u53e3", "RouteId": 26, "SeqNo": 13, "Terminal": 0, "DistrictId": 1, "Latitude": 22.61303, "Longitude": 120.31684, "IVRNo": 1211, "EXTVoiceNo": 1211, "traveltime": 0, "holidayTraveltime": 0}, {"Id": "1210", "pgp": 0, "GoBack": 2, "SID": 362, "NameZh": "\u4e2d\u6b63\u9ad8\u5de5(\u4e8c\u8056\u4e00\u8def)", "RouteId": 26, "SeqNo": 14, "Terminal": 0, "DistrictId": 1, "Latitude": 22.61276, "Longitude": 120.31893, "IVRNo": 1210, "EXTVoiceNo": 1210, "traveltime": 0, "holidayTraveltime": 0}, {"Id": "1212", "pgp": 0, "GoBack": 2, "SID": 363, "NameZh": "\u5149\u83ef\u570b\u4e2d(\u4e8c\u8056\u4e00\u8def)", "RouteId": 26, "SeqNo": 15, "Terminal": 0, "DistrictId": 1, "Latitude": 22.612429, "Longitude": 120.32138, "IVRNo": 1212, "EXTVoiceNo": 1212, "traveltime": 0, "holidayTraveltime": 0}, {"Id": "1208", "pgp": 0, "GoBack": 2, "SID": 365, "NameZh": "\u4e8c\u8056\u4e00\u8def", "RouteId": 26, "SeqNo": 16, "Terminal": 0, "DistrictId": 1, "Latitude": 22.6119, "Longitude": 120.32561, "IVRNo": 1208, "EXTVoiceNo": 1208, "traveltime": 0, "holidayTraveltime": 0}, {"Id": "1207", "pgp": 0, "GoBack": 2, "SID": 325, "NameZh": "\u8ce2\u660e\u8def\u53e3", "RouteId": 26, "SeqNo": 17, "Terminal": 0, "DistrictId": 1, "Latitude": 22.60933, "Longitude": 120.3256, "IVRNo": 1207, "EXTVoiceNo": 1207, "traveltime": 0, "holidayTraveltime": 0}, {"Id": "2417", "pgp": 0, "GoBack": 2, "SID": 370, "NameZh": "\u4e00\u5fc3\u4e00\u8def\u53e3(\u8f15\u8ecc\u7c6c\u4ed4\u5167\u7ad9)", "RouteId": 26, "SeqNo": 18, "Terminal": 0, "DistrictId": 1, "Latitude": 22.60633, "Longitude": 120.32474, "IVRNo": 32417, "EXTVoiceNo": 32417, "traveltime": 0, "holidayTraveltime": 0}, {"Id": "1205", "pgp": 0, "GoBack": 2, "SID": 373, "NameZh": "\u61b2\u5fb7\u5e02\u5834", "RouteId": 26, "SeqNo": 19, "Terminal": 0, "DistrictId": 1, "Latitude": 22.60516, "Longitude": 120.32646, "IVRNo": 1205, "EXTVoiceNo": 1205, "traveltime": 0, "holidayTraveltime": 0}, {"Id": "1244", "pgp": 0, "GoBack": 2, "SID": 376, "NameZh": "\u5d17\u5c71\u4ed4", "RouteId": 26, "SeqNo": 20, "Terminal": 0, "DistrictId": 1, "Latitude": 22.60544, "Longitude": 120.33013, "IVRNo": 1204, "EXTVoiceNo": 1244, "traveltime": 0, "holidayTraveltime": 0}, {"Id": "1203", "pgp": 0, "GoBack": 2, "SID": 379, "NameZh": "\u745e\u9686\u8def", "RouteId": 26, "SeqNo": 21, "Terminal": 0, "DistrictId": 1, "Latitude": 22.60556, "Longitude": 120.33182, "IVRNo": 1203, "EXTVoiceNo": 1203, "traveltime": 0, "holidayTraveltime": 0}, {"Id": "1202", "pgp": 0, "GoBack": 2, "SID": 382, "NameZh": "\u6c38\u8c50\u8def\u53e3", "RouteId": 26, "SeqNo": 22, "Terminal": 0, "DistrictId": 1, "Latitude": 22.60572, "Longitude": 120.33409, "IVRNo": 1202, "EXTVoiceNo": 1202, "traveltime": 0, "holidayTraveltime": 0}, {"Id": "1000", "pgp": 0, "GoBack": 2, "SID": 286, "NameZh": "\u745e\u8c50\u7ad9(\u745e\u9686\u8def)", "RouteId": 26, "SeqNo": 23, "Terminal": 1, "DistrictId": 1, "Latitude": 22.606023, "Longitude": 120.338091, "IVRNo": 1000, "EXTVoiceNo": 1000, "traveltime": 0, "holidayTraveltime": 0}]}