{"en": [{"Id": "5026", "pgp": 0, "GoBack": 1, "SID": 8815, "NameZh": "THSR Zuoying Station", "RouteId": 8252, "SeqNo": 1, "Terminal": 0, "DistrictId": 1, "Latitude": 22.686962, "Longitude": 120.308698, "IVRNo": 5026, "EXTVoiceNo": 5026, "traveltime": 0, "holidayTraveltime": 0}, {"Id": "5012", "pgp": 0, "GoBack": 1, "SID": 3587, "NameZh": "Boai 3rd Rd.", "RouteId": 8252, "SeqNo": 2, "Terminal": 0, "DistrictId": 1, "Latitude": 22.680157, "Longitude": 120.309088, "IVRNo": 5012, "EXTVoiceNo": 5012, "traveltime": 0, "holidayTraveltime": 0}, {"Id": "5015", "pgp": 0, "GoBack": 1, "SID": 3589, "NameZh": "Jhihjhen Rd. Intersection", "RouteId": 8252, "SeqNo": 3, "Terminal": 0, "DistrictId": 1, "Latitude": 22.672432, "Longitude": 120.304261, "IVRNo": 5015, "EXTVoiceNo": 5015, "traveltime": 0, "holidayTraveltime": 0}, {"Id": "5623", "pgp": 0, "GoBack": 1, "SID": 3595, "NameZh": "MRT Kaohsiung Arena Station", "RouteId": 8252, "SeqNo": 4, "Terminal": 0, "DistrictId": 1, "Latitude": 22.665601, "Longitude": 120.303565, "IVRNo": 2220, "EXTVoiceNo": 5623, "traveltime": 0, "holidayTraveltime": 0}, {"Id": "0239", "pgp": 0, "GoBack": 1, "SID": 4171, "NameZh": "Irrigation Association", "RouteId": 8252, "SeqNo": 5, "Terminal": 0, "DistrictId": 1, "Latitude": 22.661002, "Longitude": 120.307591, "IVRNo": 5626, "EXTVoiceNo": 20239, "traveltime": 0, "holidayTraveltime": 0}, {"Id": "920 ", "pgp": 0, "GoBack": 1, "SID": 13855, "NameZh": "Riverbank Park (Mingcheng 2nd Rd.)", "RouteId": 8252, "SeqNo": 6, "Terminal": 0, "DistrictId": 1, "Latitude": 22.660736, "Longitude": 120.310617, "IVRNo": 5920, "EXTVoiceNo": 5920, "traveltime": 0, "holidayTraveltime": 0}, {"Id": "0763", "pgp": 0, "GoBack": 1, "SID": 18304, "NameZh": "E-Da Dachang Hospital", "RouteId": 8252, "SeqNo": 7, "Terminal": 0, "DistrictId": 1, "Latitude": 22.657798, "Longitude": 120.319899, "IVRNo": 3315, "EXTVoiceNo": 763, "traveltime": 0, "holidayTraveltime": 0}, {"Id": "5911", "pgp": 0, "GoBack": 1, "SID": 13962, "NameZh": "Dingjhong Intersection", "RouteId": 8252, "SeqNo": 8, "Terminal": 0, "DistrictId": 1, "Latitude": 22.660062, "Longitude": 120.319644, "IVRNo": 5907, "EXTVoiceNo": 5911, "traveltime": 0, "holidayTraveltime": 0}, {"Id": "5408", "pgp": 0, "GoBack": 1, "SID": 4023, "NameZh": "Tiansiang Rd. Intersection (Minzu 1st Rd..)", "RouteId": 8252, "SeqNo": 9, "Terminal": 0, "DistrictId": 1, "Latitude": 22.66804, "Longitude": 120.31689, "IVRNo": 2213, "EXTVoiceNo": 5408, "traveltime": 0, "holidayTraveltime": 0}, {"Id": "5208", "pgp": 0, "GoBack": 1, "SID": 14309, "NameZh": "Wenzao Ursuline University of Languages  (Minzu 1st Rd.)", "RouteId": 8252, "SeqNo": 10, "Terminal": 0, "DistrictId": 1, "Latitude": 22.67071, "Longitude": 120.3176, "IVRNo": 453, "EXTVoiceNo": 5208, "traveltime": 0, "holidayTraveltime": 0}, {"Id": "225 ", "pgp": 0, "GoBack": 1, "SID": 12340, "NameZh": "Shu-Te University (Campus)", "RouteId": 8252, "SeqNo": 11, "Terminal": 0, "DistrictId": 1, "Latitude": 22.763769, "Longitude": 120.376044, "IVRNo": 1225, "EXTVoiceNo": 1225, "traveltime": 0, "holidayTraveltime": 0}, {"Id": "9208", "pgp": 0, "GoBack": 1, "SID": 9251, "NameZh": "Main Entrance to Shu-Te University", "RouteId": 8252, "SeqNo": 12, "Terminal": 0, "DistrictId": 1, "Latitude": 22.764554, "Longitude": 120.37418, "IVRNo": 9759, "EXTVoiceNo": 9208, "traveltime": 0, "holidayTraveltime": 0}, {"Id": "7602", "pgp": 0, "GoBack": 1, "SID": 14831, "NameZh": "E-Da Hospital", "RouteId": 8252, "SeqNo": 13, "Terminal": 1, "DistrictId": 1, "Latitude": 22.764849, "Longitude": 120.363845, "IVRNo": 7126, "EXTVoiceNo": 7602, "traveltime": 0, "holidayTraveltime": 0}, {"Id": "7602", "pgp": 0, "GoBack": 2, "SID": 14820, "NameZh": "E-Da Hospital", "RouteId": 8252, "SeqNo": 1, "Terminal": 0, "DistrictId": 1, "Latitude": 22.764815, "Longitude": 120.363995, "IVRNo": 7126, "EXTVoiceNo": 7602, "traveltime": 0, "holidayTraveltime": 0}, {"Id": "225 ", "pgp": 0, "GoBack": 2, "SID": 12346, "NameZh": "Shu-Te University (Campus)", "RouteId": 8252, "SeqNo": 2, "Terminal": 0, "DistrictId": 1, "Latitude": 22.763752, "Longitude": 120.376225, "IVRNo": 1225, "EXTVoiceNo": 1225, "traveltime": 0, "holidayTraveltime": 0}, {"Id": "9208", "pgp": 0, "GoBack": 2, "SID": 9276, "NameZh": "Main Entrance to Shu-Te University", "RouteId": 8252, "SeqNo": 3, "Terminal": 0, "DistrictId": 1, "Latitude": 22.764554, "Longitude": 120.37418, "IVRNo": 9759, "EXTVoiceNo": 9208, "traveltime": 0, "holidayTraveltime": 0}, {"Id": "5208", "pgp": 0, "GoBack": 2, "SID": 14326, "NameZh": "Wenzao Ursuline University of Languages  (Minzu 1st Rd.)", "RouteId": 8252, "SeqNo": 4, "Terminal": 0, "DistrictId": 1, "Latitude": 22.670754, "Longitude": 120.317407, "IVRNo": 453, "EXTVoiceNo": 5208, "traveltime": 0, "holidayTraveltime": 0}, {"Id": "5408", "pgp": 0, "GoBack": 2, "SID": 4093, "NameZh": "Tiansiang Rd. Intersection (Minzu 1st Rd..)", "RouteId": 8252, "SeqNo": 5, "Terminal": 0, "DistrictId": 1, "Latitude": 22.667693, "Longitude": 120.317013, "IVRNo": 2213, "EXTVoiceNo": 5408, "traveltime": 0, "holidayTraveltime": 0}, {"Id": "0763", "pgp": 0, "GoBack": 2, "SID": 18351, "NameZh": "E-Da Dachang Hospital", "RouteId": 8252, "SeqNo": 6, "Terminal": 0, "DistrictId": 1, "Latitude": 22.657798, "Longitude": 120.319899, "IVRNo": 3315, "EXTVoiceNo": 763, "traveltime": 0, "holidayTraveltime": 0}, {"Id": "5911", "pgp": 0, "GoBack": 2, "SID": 13997, "NameZh": "Dingjhong Intersection", "RouteId": 8252, "SeqNo": 7, "Terminal": 0, "DistrictId": 1, "Latitude": 22.660062, "Longitude": 120.319644, "IVRNo": 5907, "EXTVoiceNo": 5911, "traveltime": 0, "holidayTraveltime": 0}, {"Id": "920 ", "pgp": 0, "GoBack": 2, "SID": 13890, "NameZh": "Riverbank Park (Mingcheng 2nd Rd.)", "RouteId": 8252, "SeqNo": 8, "Terminal": 0, "DistrictId": 1, "Latitude": 22.660805, "Longitude": 120.310896, "IVRNo": 5920, "EXTVoiceNo": 5920, "traveltime": 0, "holidayTraveltime": 0}, {"Id": "0239", "pgp": 0, "GoBack": 2, "SID": 4207, "NameZh": "Irrigation Association", "RouteId": 8252, "SeqNo": 9, "Terminal": 0, "DistrictId": 1, "Latitude": 22.661148, "Longitude": 120.308007, "IVRNo": 5626, "EXTVoiceNo": 20239, "traveltime": 0, "holidayTraveltime": 0}, {"Id": "5623", "pgp": 0, "GoBack": 2, "SID": 3596, "NameZh": "MRT Kaohsiung Arena Station", "RouteId": 8252, "SeqNo": 10, "Terminal": 0, "DistrictId": 1, "Latitude": 22.666183, "Longitude": 120.303355, "IVRNo": 2220, "EXTVoiceNo": 5623, "traveltime": 0, "holidayTraveltime": 0}, {"Id": "5015", "pgp": 0, "GoBack": 2, "SID": 3660, "NameZh": "Jhihjhen Rd. Intersection", "RouteId": 8252, "SeqNo": 11, "Terminal": 0, "DistrictId": 1, "Latitude": 22.672051, "Longitude": 120.304248, "IVRNo": 5015, "EXTVoiceNo": 5015, "traveltime": 0, "holidayTraveltime": 0}, {"Id": "5012", "pgp": 0, "GoBack": 2, "SID": 3663, "NameZh": "Boai 3rd Rd.", "RouteId": 8252, "SeqNo": 12, "Terminal": 0, "DistrictId": 1, "Latitude": 22.679815, "Longitude": 120.308981, "IVRNo": 5012, "EXTVoiceNo": 5012, "traveltime": 0, "holidayTraveltime": 0}, {"Id": "5026", "pgp": 0, "GoBack": 2, "SID": 13305, "NameZh": "THSR Zuoying Station", "RouteId": 8252, "SeqNo": 13, "Terminal": 1, "DistrictId": 1, "Latitude": 22.687215, "Longitude": 120.309019, "IVRNo": 5026, "EXTVoiceNo": 5026, "traveltime": 0, "holidayTraveltime": 0}], "zh": [{"Id": "5026", "pgp": 0, "GoBack": 1, "SID": 8815, "NameZh": "\u9ad8\u9435\u5de6\u71df\u7ad9", "RouteId": 8252, "SeqNo": 1, "Terminal": 0, "DistrictId": 1, "Latitude": 22.686962, "Longitude": 120.308698, "IVRNo": 5026, "EXTVoiceNo": 5026, "traveltime": 0, "holidayTraveltime": 0}, {"Id": "5012", "pgp": 0, "GoBack": 1, "SID": 3587, "NameZh": "\u535a\u611b\u4e09\u8def", "RouteId": 8252, "SeqNo": 2, "Terminal": 0, "DistrictId": 1, "Latitude": 22.680157, "Longitude": 120.309088, "IVRNo": 5012, "EXTVoiceNo": 5012, "traveltime": 0, "holidayTraveltime": 0}, {"Id": "5015", "pgp": 0, "GoBack": 1, "SID": 3589, "NameZh": "\u81f3\u771f\u8def\u53e3", "RouteId": 8252, "SeqNo": 3, "Terminal": 0, "DistrictId": 1, "Latitude": 22.672432, "Longitude": 120.304261, "IVRNo": 5015, "EXTVoiceNo": 5015, "traveltime": 0, "holidayTraveltime": 0}, {"Id": "5623", "pgp": 0, "GoBack": 1, "SID": 3595, "NameZh": "\u6377\u904b\u5de8\u86cb\u7ad9", "RouteId": 8252, "SeqNo": 4, "Terminal": 0, "DistrictId": 1, "Latitude": 22.665601, "Longitude": 120.303565, "IVRNo": 2220, "EXTVoiceNo": 5623, "traveltime": 0, "holidayTraveltime": 0}, {"Id": "0239", "pgp": 0, "GoBack": 1, "SID": 4171, "NameZh": "\u6c34\u5229\u6703", "RouteId": 8252, "SeqNo": 5, "Terminal": 0, "DistrictId": 1, "Latitude": 22.661002, "Longitude": 120.307591, "IVRNo": 5626, "EXTVoiceNo": 20239, "traveltime": 0, "holidayTraveltime": 0}, {"Id": "920 ", "pgp": 0, "GoBack": 1, "SID": 13855, "NameZh": "\u6cb3\u5824\u516c\u5712(\u660e\u8aa0\u4e8c\u8def)", "RouteId": 8252, "SeqNo": 6, "Terminal": 0, "DistrictId": 1, "Latitude": 22.660736, "Longitude": 120.310617, "IVRNo": 5920, "EXTVoiceNo": 5920, "traveltime": 0, "holidayTraveltime": 0}, {"Id": "0763", "pgp": 0, "GoBack": 1, "SID": 18304, "NameZh": "\u5927\u660c\u91ab\u9662", "RouteId": 8252, "SeqNo": 7, "Terminal": 0, "DistrictId": 1, "Latitude": 22.657798, "Longitude": 120.319899, "IVRNo": 3315, "EXTVoiceNo": 763, "traveltime": 0, "holidayTraveltime": 0}, {"Id": "5911", "pgp": 0, "GoBack": 1, "SID": 13962, "NameZh": "\u9f0e\u4e2d\u8def\u53e3", "RouteId": 8252, "SeqNo": 8, "Terminal": 0, "DistrictId": 1, "Latitude": 22.660062, "Longitude": 120.319644, "IVRNo": 5907, "EXTVoiceNo": 5911, "traveltime": 0, "holidayTraveltime": 0}, {"Id": "5408", "pgp": 0, "GoBack": 1, "SID": 4023, "NameZh": "\u5929\u7965\u8def\u53e3(\u6c11\u65cf\u4e00\u8def)", "RouteId": 8252, "SeqNo": 9, "Terminal": 0, "DistrictId": 1, "Latitude": 22.66804, "Longitude": 120.31689, "IVRNo": 2213, "EXTVoiceNo": 5408, "traveltime": 0, "holidayTraveltime": 0}, {"Id": "5208", "pgp": 0, "GoBack": 1, "SID": 14309, "NameZh": "\u6587\u85fb\u5916\u8a9e\u5927\u5b78(\u6c11\u65cf\u4e00\u8def)", "RouteId": 8252, "SeqNo": 10, "Terminal": 0, "DistrictId": 1, "Latitude": 22.67071, "Longitude": 120.3176, "IVRNo": 453, "EXTVoiceNo": 5208, "traveltime": 0, "holidayTraveltime": 0}, {"Id": "225 ", "pgp": 0, "GoBack": 1, "SID": 12340, "NameZh": "\u6a39\u5fb7\u79d1\u6280\u5927\u5b78(\u6821\u5340)", "RouteId": 8252, "SeqNo": 11, "Terminal": 0, "DistrictId": 1, "Latitude": 22.763769, "Longitude": 120.376044, "IVRNo": 1225, "EXTVoiceNo": 1225, "traveltime": 0, "holidayTraveltime": 0}, {"Id": "9208", "pgp": 0, "GoBack": 1, "SID": 9251, "NameZh": "\u6a39\u79d1\u5927\u9580\u53e3", "RouteId": 8252, "SeqNo": 12, "Terminal": 0, "DistrictId": 1, "Latitude": 22.764554, "Longitude": 120.37418, "IVRNo": 9759, "EXTVoiceNo": 9208, "traveltime": 0, "holidayTraveltime": 0}, {"Id": "7602", "pgp": 0, "GoBack": 1, "SID": 14831, "NameZh": "\u7fa9\u5927\u91ab\u9662", "RouteId": 8252, "SeqNo": 13, "Terminal": 1, "DistrictId": 1, "Latitude": 22.764849, "Longitude": 120.363845, "IVRNo": 7126, "EXTVoiceNo": 7602, "traveltime": 0, "holidayTraveltime": 0}, {"Id": "7602", "pgp": 0, "GoBack": 2, "SID": 14820, "NameZh": "\u7fa9\u5927\u91ab\u9662", "RouteId": 8252, "SeqNo": 1, "Terminal": 0, "DistrictId": 1, "Latitude": 22.764815, "Longitude": 120.363995, "IVRNo": 7126, "EXTVoiceNo": 7602, "traveltime": 0, "holidayTraveltime": 0}, {"Id": "225 ", "pgp": 0, "GoBack": 2, "SID": 12346, "NameZh": "\u6a39\u5fb7\u79d1\u6280\u5927\u5b78(\u6821\u5340)", "RouteId": 8252, "SeqNo": 2, "Terminal": 0, "DistrictId": 1, "Latitude": 22.763752, "Longitude": 120.376225, "IVRNo": 1225, "EXTVoiceNo": 1225, "traveltime": 0, "holidayTraveltime": 0}, {"Id": "9208", "pgp": 0, "GoBack": 2, "SID": 9276, "NameZh": "\u6a39\u79d1\u5927\u9580\u53e3", "RouteId": 8252, "SeqNo": 3, "Terminal": 0, "DistrictId": 1, "Latitude": 22.764554, "Longitude": 120.37418, "IVRNo": 9759, "EXTVoiceNo": 9208, "traveltime": 0, "holidayTraveltime": 0}, {"Id": "5208", "pgp": 0, "GoBack": 2, "SID": 14326, "NameZh": "\u6587\u85fb\u5916\u8a9e\u5927\u5b78(\u6c11\u65cf\u4e00\u8def)", "RouteId": 8252, "SeqNo": 4, "Terminal": 0, "DistrictId": 1, "Latitude": 22.670754, "Longitude": 120.317407, "IVRNo": 453, "EXTVoiceNo": 5208, "traveltime": 0, "holidayTraveltime": 0}, {"Id": "5408", "pgp": 0, "GoBack": 2, "SID": 4093, "NameZh": "\u5929\u7965\u8def\u53e3(\u6c11\u65cf\u4e00\u8def)", "RouteId": 8252, "SeqNo": 5, "Terminal": 0, "DistrictId": 1, "Latitude": 22.667693, "Longitude": 120.317013, "IVRNo": 2213, "EXTVoiceNo": 5408, "traveltime": 0, "holidayTraveltime": 0}, {"Id": "0763", "pgp": 0, "GoBack": 2, "SID": 18351, "NameZh": "\u5927\u660c\u91ab\u9662", "RouteId": 8252, "SeqNo": 6, "Terminal": 0, "DistrictId": 1, "Latitude": 22.657798, "Longitude": 120.319899, "IVRNo": 3315, "EXTVoiceNo": 763, "traveltime": 0, "holidayTraveltime": 0}, {"Id": "5911", "pgp": 0, "GoBack": 2, "SID": 13997, "NameZh": "\u9f0e\u4e2d\u8def\u53e3", "RouteId": 8252, "SeqNo": 7, "Terminal": 0, "DistrictId": 1, "Latitude": 22.660062, "Longitude": 120.319644, "IVRNo": 5907, "EXTVoiceNo": 5911, "traveltime": 0, "holidayTraveltime": 0}, {"Id": "920 ", "pgp": 0, "GoBack": 2, "SID": 13890, "NameZh": "\u6cb3\u5824\u516c\u5712(\u660e\u8aa0\u4e8c\u8def)", "RouteId": 8252, "SeqNo": 8, "Terminal": 0, "DistrictId": 1, "Latitude": 22.660805, "Longitude": 120.310896, "IVRNo": 5920, "EXTVoiceNo": 5920, "traveltime": 0, "holidayTraveltime": 0}, {"Id": "0239", "pgp": 0, "GoBack": 2, "SID": 4207, "NameZh": "\u6c34\u5229\u6703", "RouteId": 8252, "SeqNo": 9, "Terminal": 0, "DistrictId": 1, "Latitude": 22.661148, "Longitude": 120.308007, "IVRNo": 5626, "EXTVoiceNo": 20239, "traveltime": 0, "holidayTraveltime": 0}, {"Id": "5623", "pgp": 0, "GoBack": 2, "SID": 3596, "NameZh": "\u6377\u904b\u5de8\u86cb\u7ad9", "RouteId": 8252, "SeqNo": 10, "Terminal": 0, "DistrictId": 1, "Latitude": 22.666183, "Longitude": 120.303355, "IVRNo": 2220, "EXTVoiceNo": 5623, "traveltime": 0, "holidayTraveltime": 0}, {"Id": "5015", "pgp": 0, "GoBack": 2, "SID": 3660, "NameZh": "\u81f3\u771f\u8def\u53e3", "RouteId": 8252, "SeqNo": 11, "Terminal": 0, "DistrictId": 1, "Latitude": 22.672051, "Longitude": 120.304248, "IVRNo": 5015, "EXTVoiceNo": 5015, "traveltime": 0, "holidayTraveltime": 0}, {"Id": "5012", "pgp": 0, "GoBack": 2, "SID": 3663, "NameZh": "\u535a\u611b\u4e09\u8def", "RouteId": 8252, "SeqNo": 12, "Terminal": 0, "DistrictId": 1, "Latitude": 22.679815, "Longitude": 120.308981, "IVRNo": 5012, "EXTVoiceNo": 5012, "traveltime": 0, "holidayTraveltime": 0}, {"Id": "5026", "pgp": 0, "GoBack": 2, "SID": 13305, "NameZh": "\u9ad8\u9435\u5de6\u71df\u7ad9", "RouteId": 8252, "SeqNo": 13, "Terminal": 1, "DistrictId": 1, "Latitude": 22.687215, "Longitude": 120.309019, "IVRNo": 5026, "EXTVoiceNo": 5026, "traveltime": 0, "holidayTraveltime": 0}]}