{"en": [{"Id": "1359", "pgp": 0, "GoBack": 1, "SID": 14531, "NameZh": "E. 6th St. Intersection", "RouteId": 857, "SeqNo": 1, "Terminal": 0, "DistrictId": 1, "Latitude": 22.724707, "Longitude": 120.308679, "IVRNo": 1359, "EXTVoiceNo": 1359, "traveltime": 0, "holidayTraveltime": 0}, {"Id": "1365", "pgp": 0, "GoBack": 1, "SID": 18391, "NameZh": "Kaifajing 2nd Rd. Intersection", "RouteId": 857, "SeqNo": 2, "Terminal": 0, "DistrictId": 1, "Latitude": 22.722709, "Longitude": 120.307336, "IVRNo": 1365, "EXTVoiceNo": 1365, "traveltime": 0, "holidayTraveltime": 0}, {"Id": "1354", "pgp": 0, "GoBack": 1, "SID": 11946, "NameZh": "Central lst St.", "RouteId": 857, "SeqNo": 3, "Terminal": 0, "DistrictId": 1, "Latitude": 22.72077, "Longitude": 120.307161, "IVRNo": 1354, "EXTVoiceNo": 1354, "traveltime": 0, "holidayTraveltime": 0}, {"Id": "1368", "pgp": 0, "GoBack": 1, "SID": 12509, "NameZh": "Jing 3rd Rd. Intersection", "RouteId": 857, "SeqNo": 4, "Terminal": 0, "DistrictId": 1, "Latitude": 22.721245, "Longitude": 120.306144, "IVRNo": 1368, "EXTVoiceNo": 1368, "traveltime": 0, "holidayTraveltime": 0}, {"Id": "1357", "pgp": 0, "GoBack": 1, "SID": 7928, "NameZh": "Central ring", "RouteId": 857, "SeqNo": 5, "Terminal": 0, "DistrictId": 1, "Latitude": 22.721919, "Longitude": 120.304816, "IVRNo": 1357, "EXTVoiceNo": 1357, "traveltime": 0, "holidayTraveltime": 0}, {"Id": "1370", "pgp": 0, "GoBack": 1, "SID": 12173, "NameZh": "Jing 5th Rd.", "RouteId": 857, "SeqNo": 6, "Terminal": 0, "DistrictId": 1, "Latitude": 22.721636, "Longitude": 120.301853, "IVRNo": 1370, "EXTVoiceNo": 1370, "traveltime": 0, "holidayTraveltime": 0}, {"Id": "1371", "pgp": 0, "GoBack": 1, "SID": 9706, "NameZh": "Jing 6th neihuan N. Rd. Intersection", "RouteId": 857, "SeqNo": 7, "Terminal": 0, "DistrictId": 1, "Latitude": 22.72349, "Longitude": 120.299548, "IVRNo": 1371, "EXTVoiceNo": 1371, "traveltime": 0, "holidayTraveltime": 0}, {"Id": "1373", "pgp": 0, "GoBack": 1, "SID": 16155, "NameZh": "Jing 6th Rd.", "RouteId": 857, "SeqNo": 8, "Terminal": 0, "DistrictId": 1, "Latitude": 22.721677, "Longitude": 120.300343, "IVRNo": 1373, "EXTVoiceNo": 1373, "traveltime": 0, "holidayTraveltime": 0}, {"Id": "1364", "pgp": 0, "GoBack": 1, "SID": 18407, "NameZh": "Kaifaneihuan W. Rd. Intersection", "RouteId": 857, "SeqNo": 9, "Terminal": 0, "DistrictId": 1, "Latitude": 22.720063, "Longitude": 120.300246, "IVRNo": 1364, "EXTVoiceNo": 1364, "traveltime": 0, "holidayTraveltime": 0}, {"Id": "1363", "pgp": 0, "GoBack": 1, "SID": 17360, "NameZh": "Chuang-Yi S. Rd.", "RouteId": 857, "SeqNo": 10, "Terminal": 1, "DistrictId": 1, "Latitude": 22.713204, "Longitude": 120.302164, "IVRNo": 1363, "EXTVoiceNo": 1363, "traveltime": 0, "holidayTraveltime": 0}, {"Id": "1363", "pgp": 0, "GoBack": 2, "SID": 17387, "NameZh": "Chuang-Yi S. Rd.", "RouteId": 857, "SeqNo": 1, "Terminal": 0, "DistrictId": 1, "Latitude": 22.712925, "Longitude": 120.301382, "IVRNo": 1363, "EXTVoiceNo": 1363, "traveltime": 0, "holidayTraveltime": 0}, {"Id": "1362", "pgp": 0, "GoBack": 2, "SID": 17200, "NameZh": "Chuang-Yi N. Rd.", "RouteId": 857, "SeqNo": 2, "Terminal": 0, "DistrictId": 1, "Latitude": 22.714641, "Longitude": 120.300335, "IVRNo": 1362, "EXTVoiceNo": 1362, "traveltime": 0, "holidayTraveltime": 0}, {"Id": "1364", "pgp": 0, "GoBack": 2, "SID": 18264, "NameZh": "Kaifaneihuan W. Rd. Intersection", "RouteId": 857, "SeqNo": 3, "Terminal": 0, "DistrictId": 1, "Latitude": 22.720063, "Longitude": 120.300246, "IVRNo": 1364, "EXTVoiceNo": 1364, "traveltime": 0, "holidayTraveltime": 0}, {"Id": "1373", "pgp": 0, "GoBack": 2, "SID": 16917, "NameZh": "Jing 6th Rd.", "RouteId": 857, "SeqNo": 4, "Terminal": 0, "DistrictId": 1, "Latitude": 22.721877, "Longitude": 120.300354, "IVRNo": 1373, "EXTVoiceNo": 1373, "traveltime": 0, "holidayTraveltime": 0}, {"Id": "1371", "pgp": 0, "GoBack": 2, "SID": 9759, "NameZh": "Jing 6th neihuan N. Rd. Intersection", "RouteId": 857, "SeqNo": 5, "Terminal": 0, "DistrictId": 1, "Latitude": 22.723912, "Longitude": 120.299723, "IVRNo": 1371, "EXTVoiceNo": 1371, "traveltime": 0, "holidayTraveltime": 0}, {"Id": "1370", "pgp": 0, "GoBack": 2, "SID": 12212, "NameZh": "Jing 5th Rd.", "RouteId": 857, "SeqNo": 6, "Terminal": 0, "DistrictId": 1, "Latitude": 22.721636, "Longitude": 120.301853, "IVRNo": 1370, "EXTVoiceNo": 1370, "traveltime": 0, "holidayTraveltime": 0}, {"Id": "1357", "pgp": 0, "GoBack": 2, "SID": 14285, "NameZh": "Central ring", "RouteId": 857, "SeqNo": 7, "Terminal": 0, "DistrictId": 1, "Latitude": 22.721543, "Longitude": 120.304973, "IVRNo": 1357, "EXTVoiceNo": 1357, "traveltime": 0, "holidayTraveltime": 0}, {"Id": "1367", "pgp": 0, "GoBack": 2, "SID": 18366, "NameZh": "Jing 2nd Rd.", "RouteId": 857, "SeqNo": 8, "Terminal": 0, "DistrictId": 1, "Latitude": 22.721621, "Longitude": 120.307218, "IVRNo": 1367, "EXTVoiceNo": 1367, "traveltime": 0, "holidayTraveltime": 0}, {"Id": "1359", "pgp": 0, "GoBack": 2, "SID": 14596, "NameZh": "E. 6th St. Intersection", "RouteId": 857, "SeqNo": 9, "Terminal": 1, "DistrictId": 1, "Latitude": 22.725144, "Longitude": 120.308519, "IVRNo": 1359, "EXTVoiceNo": 1359, "traveltime": 0, "holidayTraveltime": 0}], "zh": [{"Id": "1359", "pgp": 0, "GoBack": 1, "SID": 14531, "NameZh": "\u6771\u516d\u8857\u53e3", "RouteId": 857, "SeqNo": 1, "Terminal": 0, "DistrictId": 1, "Latitude": 22.724707, "Longitude": 120.308679, "IVRNo": 1359, "EXTVoiceNo": 1359, "traveltime": 0, "holidayTraveltime": 0}, {"Id": "1365", "pgp": 0, "GoBack": 1, "SID": 18391, "NameZh": "\u958b\u767c\u7d93\u4e8c\u8def\u53e3", "RouteId": 857, "SeqNo": 2, "Terminal": 0, "DistrictId": 1, "Latitude": 22.722709, "Longitude": 120.307336, "IVRNo": 1365, "EXTVoiceNo": 1365, "traveltime": 0, "holidayTraveltime": 0}, {"Id": "1354", "pgp": 0, "GoBack": 1, "SID": 11946, "NameZh": "\u4e2d\u4e00\u8857", "RouteId": 857, "SeqNo": 3, "Terminal": 0, "DistrictId": 1, "Latitude": 22.72077, "Longitude": 120.307161, "IVRNo": 1354, "EXTVoiceNo": 1354, "traveltime": 0, "holidayTraveltime": 0}, {"Id": "1368", "pgp": 0, "GoBack": 1, "SID": 12509, "NameZh": "\u7d93\u4e09\u8def\u53e3", "RouteId": 857, "SeqNo": 4, "Terminal": 0, "DistrictId": 1, "Latitude": 22.721245, "Longitude": 120.306144, "IVRNo": 1368, "EXTVoiceNo": 1368, "traveltime": 0, "holidayTraveltime": 0}, {"Id": "1357", "pgp": 0, "GoBack": 1, "SID": 7928, "NameZh": "\u4e2d\u592e\u5713\u74b0", "RouteId": 857, "SeqNo": 5, "Terminal": 0, "DistrictId": 1, "Latitude": 22.721919, "Longitude": 120.304816, "IVRNo": 1357, "EXTVoiceNo": 1357, "traveltime": 0, "holidayTraveltime": 0}, {"Id": "1370", "pgp": 0, "GoBack": 1, "SID": 12173, "NameZh": "\u7d93\u4e94\u8def", "RouteId": 857, "SeqNo": 6, "Terminal": 0, "DistrictId": 1, "Latitude": 22.721636, "Longitude": 120.301853, "IVRNo": 1370, "EXTVoiceNo": 1370, "traveltime": 0, "holidayTraveltime": 0}, {"Id": "1371", "pgp": 0, "GoBack": 1, "SID": 9706, "NameZh": "\u7d93\u516d\u5167\u74b0\u5317\u8def\u53e3", "RouteId": 857, "SeqNo": 7, "Terminal": 0, "DistrictId": 1, "Latitude": 22.72349, "Longitude": 120.299548, "IVRNo": 1371, "EXTVoiceNo": 1371, "traveltime": 0, "holidayTraveltime": 0}, {"Id": "1373", "pgp": 0, "GoBack": 1, "SID": 16155, "NameZh": "\u7d93\u516d\u8def", "RouteId": 857, "SeqNo": 8, "Terminal": 0, "DistrictId": 1, "Latitude": 22.721677, "Longitude": 120.300343, "IVRNo": 1373, "EXTVoiceNo": 1373, "traveltime": 0, "holidayTraveltime": 0}, {"Id": "1364", "pgp": 0, "GoBack": 1, "SID": 18407, "NameZh": "\u958b\u767c\u5167\u74b0\u897f\u8def\u53e3", "RouteId": 857, "SeqNo": 9, "Terminal": 0, "DistrictId": 1, "Latitude": 22.720063, "Longitude": 120.300246, "IVRNo": 1364, "EXTVoiceNo": 1364, "traveltime": 0, "holidayTraveltime": 0}, {"Id": "1363", "pgp": 0, "GoBack": 1, "SID": 17360, "NameZh": "\u5275\u610f\u5357\u8def", "RouteId": 857, "SeqNo": 10, "Terminal": 1, "DistrictId": 1, "Latitude": 22.713204, "Longitude": 120.302164, "IVRNo": 1363, "EXTVoiceNo": 1363, "traveltime": 0, "holidayTraveltime": 0}, {"Id": "1363", "pgp": 0, "GoBack": 2, "SID": 17387, "NameZh": "\u5275\u610f\u5357\u8def", "RouteId": 857, "SeqNo": 1, "Terminal": 0, "DistrictId": 1, "Latitude": 22.712925, "Longitude": 120.301382, "IVRNo": 1363, "EXTVoiceNo": 1363, "traveltime": 0, "holidayTraveltime": 0}, {"Id": "1362", "pgp": 0, "GoBack": 2, "SID": 17200, "NameZh": "\u5275\u610f\u5317\u8def", "RouteId": 857, "SeqNo": 2, "Terminal": 0, "DistrictId": 1, "Latitude": 22.714641, "Longitude": 120.300335, "IVRNo": 1362, "EXTVoiceNo": 1362, "traveltime": 0, "holidayTraveltime": 0}, {"Id": "1364", "pgp": 0, "GoBack": 2, "SID": 18264, "NameZh": "\u958b\u767c\u5167\u74b0\u897f\u8def\u53e3", "RouteId": 857, "SeqNo": 3, "Terminal": 0, "DistrictId": 1, "Latitude": 22.720063, "Longitude": 120.300246, "IVRNo": 1364, "EXTVoiceNo": 1364, "traveltime": 0, "holidayTraveltime": 0}, {"Id": "1373", "pgp": 0, "GoBack": 2, "SID": 16917, "NameZh": "\u7d93\u516d\u8def", "RouteId": 857, "SeqNo": 4, "Terminal": 0, "DistrictId": 1, "Latitude": 22.721877, "Longitude": 120.300354, "IVRNo": 1373, "EXTVoiceNo": 1373, "traveltime": 0, "holidayTraveltime": 0}, {"Id": "1371", "pgp": 0, "GoBack": 2, "SID": 9759, "NameZh": "\u7d93\u516d\u5167\u74b0\u5317\u8def\u53e3", "RouteId": 857, "SeqNo": 5, "Terminal": 0, "DistrictId": 1, "Latitude": 22.723912, "Longitude": 120.299723, "IVRNo": 1371, "EXTVoiceNo": 1371, "traveltime": 0, "holidayTraveltime": 0}, {"Id": "1370", "pgp": 0, "GoBack": 2, "SID": 12212, "NameZh": "\u7d93\u4e94\u8def", "RouteId": 857, "SeqNo": 6, "Terminal": 0, "DistrictId": 1, "Latitude": 22.721636, "Longitude": 120.301853, "IVRNo": 1370, "EXTVoiceNo": 1370, "traveltime": 0, "holidayTraveltime": 0}, {"Id": "1357", "pgp": 0, "GoBack": 2, "SID": 14285, "NameZh": "\u4e2d\u592e\u5713\u74b0", "RouteId": 857, "SeqNo": 7, "Terminal": 0, "DistrictId": 1, "Latitude": 22.721543, "Longitude": 120.304973, "IVRNo": 1357, "EXTVoiceNo": 1357, "traveltime": 0, "holidayTraveltime": 0}, {"Id": "1367", "pgp": 0, "GoBack": 2, "SID": 18366, "NameZh": "\u7d93\u4e8c\u8def", "RouteId": 857, "SeqNo": 8, "Terminal": 0, "DistrictId": 1, "Latitude": 22.721621, "Longitude": 120.307218, "IVRNo": 1367, "EXTVoiceNo": 1367, "traveltime": 0, "holidayTraveltime": 0}, {"Id": "1359", "pgp": 0, "GoBack": 2, "SID": 14596, "NameZh": "\u6771\u516d\u8857\u53e3", "RouteId": 857, "SeqNo": 9, "Terminal": 1, "DistrictId": 1, "Latitude": 22.725144, "Longitude": 120.308519, "IVRNo": 1359, "EXTVoiceNo": 1359, "traveltime": 0, "holidayTraveltime": 0}]}