{"en": [{"Id": "7001", "pgp": 0, "GoBack": 1, "SID": 4555, "NameZh": "Jiachang Station", "RouteId": 301, "SeqNo": 1, "Terminal": 0, "DistrictId": 1, "Latitude": 22.719128, "Longitude": 120.298488, "IVRNo": 7000, "EXTVoiceNo": 7001, "traveltime": 0, "holidayTraveltime": 0}, {"Id": "1235", "pgp": 0, "GoBack": 1, "SID": 5118, "NameZh": "Dechang Rd. ( Waihuan W. Rd.)", "RouteId": 301, "SeqNo": 2, "Terminal": 0, "DistrictId": 1, "Latitude": 22.72348, "Longitude": 120.29863, "IVRNo": 1235, "EXTVoiceNo": 1235, "traveltime": 0, "holidayTraveltime": 0}, {"Id": "7503", "pgp": 0, "GoBack": 1, "SID": 5119, "NameZh": "Rainbow Town", "RouteId": 301, "SeqNo": 3, "Terminal": 0, "DistrictId": 1, "Latitude": 22.72472, "Longitude": 120.30077, "IVRNo": 7503, "EXTVoiceNo": 7503, "traveltime": 0, "holidayTraveltime": 0}, {"Id": "7595", "pgp": 0, "GoBack": 1, "SID": 5123, "NameZh": "Nanzih Export Processing Zone North Gate", "RouteId": 301, "SeqNo": 4, "Terminal": 0, "DistrictId": 1, "Latitude": 22.72531, "Longitude": 120.30402, "IVRNo": 7504, "EXTVoiceNo": 7595, "traveltime": 0, "holidayTraveltime": 0}, {"Id": "7505", "pgp": 0, "GoBack": 1, "SID": 5124, "NameZh": "Haijhuan Rd. Intersection", "RouteId": 301, "SeqNo": 5, "Terminal": 0, "DistrictId": 1, "Latitude": 22.72624, "Longitude": 120.30987, "IVRNo": 7505, "EXTVoiceNo": 7505, "traveltime": 0, "holidayTraveltime": 0}, {"Id": "7506", "pgp": 0, "GoBack": 1, "SID": 5126, "NameZh": "Dongcueibing Village", "RouteId": 301, "SeqNo": 6, "Terminal": 0, "DistrictId": 1, "Latitude": 22.72819, "Longitude": 120.3128, "IVRNo": 7506, "EXTVoiceNo": 7506, "traveltime": 0, "holidayTraveltime": 0}, {"Id": "7507", "pgp": 0, "GoBack": 1, "SID": 5131, "NameZh": "Department of Motor Vehicle (Metropolitan Park)", "RouteId": 301, "SeqNo": 7, "Terminal": 0, "DistrictId": 1, "Latitude": 22.73112, "Longitude": 120.31686, "IVRNo": 7507, "EXTVoiceNo": 7507, "traveltime": 0, "holidayTraveltime": 0}, {"Id": "8130", "pgp": 0, "GoBack": 1, "SID": 5460, "NameZh": "Gaonan Rd.", "RouteId": 301, "SeqNo": 8, "Terminal": 0, "DistrictId": 1, "Latitude": 22.73112, "Longitude": 120.32037, "IVRNo": 8130, "EXTVoiceNo": 8130, "traveltime": 0, "holidayTraveltime": 0}, {"Id": "1283", "pgp": 0, "GoBack": 1, "SID": 5132, "NameZh": "MRT Metropolitan Park Station", "RouteId": 301, "SeqNo": 9, "Terminal": 0, "DistrictId": 1, "Latitude": 22.729596, "Longitude": 120.320741, "IVRNo": 1283, "EXTVoiceNo": 1283, "traveltime": 0, "holidayTraveltime": 0}, {"Id": "7010", "pgp": 0, "GoBack": 1, "SID": 4681, "NameZh": "Houjin Junior High School (MRT Houjin Station)", "RouteId": 301, "SeqNo": 10, "Terminal": 0, "DistrictId": 1, "Latitude": 22.72215, "Longitude": 120.3155, "IVRNo": 7010, "EXTVoiceNo": 7010, "traveltime": 0, "holidayTraveltime": 0}, {"Id": "7009", "pgp": 0, "GoBack": 1, "SID": 4686, "NameZh": "Houjin Elementary School (MRT Houjin Station)", "RouteId": 301, "SeqNo": 11, "Terminal": 0, "DistrictId": 1, "Latitude": 22.721158, "Longitude": 120.313597, "IVRNo": 7083, "EXTVoiceNo": 7009, "traveltime": 0, "holidayTraveltime": 0}, {"Id": "4739", "pgp": 0, "GoBack": 1, "SID": 5136, "NameZh": "Houjin", "RouteId": 301, "SeqNo": 12, "Terminal": 0, "DistrictId": 1, "Latitude": 22.71862, "Longitude": 120.310414, "IVRNo": 4739, "EXTVoiceNo": 4739, "traveltime": 0, "holidayTraveltime": 0}, {"Id": "4750", "pgp": 0, "GoBack": 1, "SID": 3365, "NameZh": "Houjin Police Station", "RouteId": 301, "SeqNo": 13, "Terminal": 0, "DistrictId": 1, "Latitude": 22.715108, "Longitude": 120.309363, "IVRNo": 4738, "EXTVoiceNo": 4750, "traveltime": 0, "holidayTraveltime": 0}, {"Id": "4751", "pgp": 0, "GoBack": 1, "SID": 3366, "NameZh": "Houjin Dormitory", "RouteId": 301, "SeqNo": 14, "Terminal": 0, "DistrictId": 1, "Latitude": 22.711669, "Longitude": 120.308244, "IVRNo": 4737, "EXTVoiceNo": 4751, "traveltime": 0, "holidayTraveltime": 0}, {"Id": "4752", "pgp": 0, "GoBack": 1, "SID": 3369, "NameZh": "Guoguang Laboratory School", "RouteId": 301, "SeqNo": 15, "Terminal": 0, "DistrictId": 1, "Latitude": 22.708266, "Longitude": 120.306, "IVRNo": 4736, "EXTVoiceNo": 4752, "traveltime": 0, "holidayTraveltime": 0}, {"Id": "4753", "pgp": 0, "GoBack": 1, "SID": 3370, "NameZh": "MRT Oil Refinery Elementary School Station", "RouteId": 301, "SeqNo": 16, "Terminal": 0, "DistrictId": 1, "Latitude": 22.70797, "Longitude": 120.303164, "IVRNo": 4735, "EXTVoiceNo": 4753, "traveltime": 0, "holidayTraveltime": 0}, {"Id": "4734", "pgp": 0, "GoBack": 1, "SID": 3378, "NameZh": "Refinery (MRT World Game Station)", "RouteId": 301, "SeqNo": 17, "Terminal": 0, "DistrictId": 1, "Latitude": 22.703294, "Longitude": 120.302235, "IVRNo": 4734, "EXTVoiceNo": 4734, "traveltime": 0, "holidayTraveltime": 0}, {"Id": "4756", "pgp": 0, "GoBack": 1, "SID": 3385, "NameZh": "Sianghe Villa", "RouteId": 301, "SeqNo": 18, "Terminal": 0, "DistrictId": 1, "Latitude": 22.697383, "Longitude": 120.301719, "IVRNo": 4732, "EXTVoiceNo": 4756, "traveltime": 0, "holidayTraveltime": 0}, {"Id": "7516", "pgp": 0, "GoBack": 1, "SID": 5143, "NameZh": "Haigong E. Rd.", "RouteId": 301, "SeqNo": 19, "Terminal": 0, "DistrictId": 1, "Latitude": 22.693913, "Longitude": 120.299338, "IVRNo": 7516, "EXTVoiceNo": 7516, "traveltime": 0, "holidayTraveltime": 0}, {"Id": "7512", "pgp": 0, "GoBack": 1, "SID": 5137, "NameZh": "Ping-Shan Elementary School", "RouteId": 301, "SeqNo": 20, "Terminal": 0, "DistrictId": 1, "Latitude": 22.693561, "Longitude": 120.301972, "IVRNo": 7511, "EXTVoiceNo": 7512, "traveltime": 0, "holidayTraveltime": 0}, {"Id": "8767", "pgp": 0, "GoBack": 1, "SID": 5724, "NameZh": "Caigong 1st Rd. Intersection", "RouteId": 301, "SeqNo": 21, "Terminal": 0, "DistrictId": 1, "Latitude": 22.687202, "Longitude": 120.304628, "IVRNo": 8767, "EXTVoiceNo": 8767, "traveltime": 0, "holidayTraveltime": 0}, {"Id": "0287", "pgp": 0, "GoBack": 1, "SID": 5145, "NameZh": "TRA New Zuoying Station", "RouteId": 301, "SeqNo": 22, "Terminal": 0, "DistrictId": 1, "Latitude": 22.688722, "Longitude": 120.307583, "IVRNo": 7517, "EXTVoiceNo": 20287, "traveltime": 0, "holidayTraveltime": 0}, {"Id": "0279", "pgp": 0, "GoBack": 1, "SID": 5731, "NameZh": "Back Lane of Banping Mt.", "RouteId": 301, "SeqNo": 23, "Terminal": 0, "DistrictId": 1, "Latitude": 22.68929, "Longitude": 120.3062, "IVRNo": 8775, "EXTVoiceNo": 20279, "traveltime": 0, "holidayTraveltime": 0}, {"Id": "7512", "pgp": 0, "GoBack": 1, "SID": 5138, "NameZh": "Ping-Shan Elementary School", "RouteId": 301, "SeqNo": 24, "Terminal": 0, "DistrictId": 1, "Latitude": 22.693556, "Longitude": 120.302272, "IVRNo": 7511, "EXTVoiceNo": 7512, "traveltime": 0, "holidayTraveltime": 0}, {"Id": "1021", "pgp": 0, "GoBack": 1, "SID": 3393, "NameZh": "Banping Mountain (Zuoying Avenue)", "RouteId": 301, "SeqNo": 25, "Terminal": 0, "DistrictId": 1, "Latitude": 22.693308, "Longitude": 120.298777, "IVRNo": 1021, "EXTVoiceNo": 1021, "traveltime": 0, "holidayTraveltime": 0}, {"Id": "4787", "pgp": 0, "GoBack": 1, "SID": 3510, "NameZh": "Caigong Rd. Intersection (Zuoying Avenue)", "RouteId": 301, "SeqNo": 26, "Terminal": 0, "DistrictId": 1, "Latitude": 22.692027, "Longitude": 120.298013, "IVRNo": 4786, "EXTVoiceNo": 4787, "traveltime": 0, "holidayTraveltime": 0}, {"Id": "0614", "pgp": 0, "GoBack": 1, "SID": 5884, "NameZh": "Fonggu Temple (Jinsyue Rd. Intersection)", "RouteId": 301, "SeqNo": 27, "Terminal": 0, "DistrictId": 1, "Latitude": 22.690478, "Longitude": 120.296119, "IVRNo": 9001, "EXTVoiceNo": 20614, "traveltime": 0, "holidayTraveltime": 0}, {"Id": "4760", "pgp": 0, "GoBack": 1, "SID": 3395, "NameZh": "Zuoying Market", "RouteId": 301, "SeqNo": 28, "Terminal": 0, "DistrictId": 1, "Latitude": 22.687638, "Longitude": 120.293394, "IVRNo": 4728, "EXTVoiceNo": 4760, "traveltime": 0, "holidayTraveltime": 0}, {"Id": "4761", "pgp": 0, "GoBack": 1, "SID": 3418, "NameZh": "Zuoying Avenue", "RouteId": 301, "SeqNo": 29, "Terminal": 0, "DistrictId": 1, "Latitude": 22.686166, "Longitude": 120.290566, "IVRNo": 4727, "EXTVoiceNo": 4761, "traveltime": 0, "holidayTraveltime": 0}, {"Id": "4762", "pgp": 0, "GoBack": 1, "SID": 3421, "NameZh": "Dianzihding Rd. Intersection", "RouteId": 301, "SeqNo": 30, "Terminal": 0, "DistrictId": 1, "Latitude": 22.684473, "Longitude": 120.289222, "IVRNo": 4726, "EXTVoiceNo": 4762, "traveltime": 0, "holidayTraveltime": 0}, {"Id": "4763", "pgp": 0, "GoBack": 1, "SID": 3442, "NameZh": "Zuoying Farmers` Association", "RouteId": 301, "SeqNo": 31, "Terminal": 0, "DistrictId": 1, "Latitude": 22.682472, "Longitude": 120.288258, "IVRNo": 4725, "EXTVoiceNo": 4763, "traveltime": 0, "holidayTraveltime": 0}, {"Id": "7585", "pgp": 0, "GoBack": 1, "SID": 5149, "NameZh": "Shengli Rd.", "RouteId": 301, "SeqNo": 32, "Terminal": 0, "DistrictId": 1, "Latitude": 22.680797, "Longitude": 120.289533, "IVRNo": 7523, "EXTVoiceNo": 7585, "traveltime": 0, "holidayTraveltime": 0}, {"Id": "7584", "pgp": 0, "GoBack": 1, "SID": 5152, "NameZh": "Lotus Pond (Shengli Rd.)", "RouteId": 301, "SeqNo": 33, "Terminal": 0, "DistrictId": 1, "Latitude": 22.679363, "Longitude": 120.29225, "IVRNo": 7524, "EXTVoiceNo": 7584, "traveltime": 0, "holidayTraveltime": 0}, {"Id": "8204", "pgp": 0, "GoBack": 1, "SID": 5472, "NameZh": "Chengfong Rd.", "RouteId": 301, "SeqNo": 34, "Terminal": 0, "DistrictId": 1, "Latitude": 22.676427, "Longitude": 120.292394, "IVRNo": 8204, "EXTVoiceNo": 8204, "traveltime": 0, "holidayTraveltime": 0}, {"Id": "8205", "pgp": 0, "GoBack": 1, "SID": 5475, "NameZh": "Cueihua Public Housing", "RouteId": 301, "SeqNo": 35, "Terminal": 0, "DistrictId": 1, "Latitude": 22.674238, "Longitude": 120.289491, "IVRNo": 8205, "EXTVoiceNo": 8205, "traveltime": 0, "holidayTraveltime": 0}, {"Id": "8206", "pgp": 0, "GoBack": 1, "SID": 5476, "NameZh": "Cueifong Rd.", "RouteId": 301, "SeqNo": 36, "Terminal": 0, "DistrictId": 1, "Latitude": 22.671722, "Longitude": 120.2889, "IVRNo": 8206, "EXTVoiceNo": 8206, "traveltime": 0, "holidayTraveltime": 0}, {"Id": "7577", "pgp": 0, "GoBack": 1, "SID": 5178, "NameZh": "Cueihua Community", "RouteId": 301, "SeqNo": 37, "Terminal": 0, "DistrictId": 1, "Latitude": 22.672475, "Longitude": 120.29185, "IVRNo": 7577, "EXTVoiceNo": 7577, "traveltime": 0, "holidayTraveltime": 0}, {"Id": "7525", "pgp": 0, "GoBack": 1, "SID": 5154, "NameZh": "Zuoying Train Station", "RouteId": 301, "SeqNo": 38, "Terminal": 0, "DistrictId": 1, "Latitude": 22.675013, "Longitude": 120.294238, "IVRNo": 7525, "EXTVoiceNo": 7525, "traveltime": 0, "holidayTraveltime": 0}, {"Id": "7582", "pgp": 0, "GoBack": 1, "SID": 5158, "NameZh": "Garden Villa", "RouteId": 301, "SeqNo": 39, "Terminal": 0, "DistrictId": 1, "Latitude": 22.678275, "Longitude": 120.299575, "IVRNo": 7582, "EXTVoiceNo": 7582, "traveltime": 0, "holidayTraveltime": 0}, {"Id": "7527", "pgp": 0, "GoBack": 1, "SID": 5162, "NameZh": "Chongde Rd.", "RouteId": 301, "SeqNo": 40, "Terminal": 0, "DistrictId": 1, "Latitude": 22.676867, "Longitude": 120.301832, "IVRNo": 7527, "EXTVoiceNo": 7527, "traveltime": 0, "holidayTraveltime": 0}, {"Id": "7528", "pgp": 0, "GoBack": 1, "SID": 5167, "NameZh": "Boai Rd. Intersection (Chongde Rd.)", "RouteId": 301, "SeqNo": 41, "Terminal": 0, "DistrictId": 1, "Latitude": 22.675275, "Longitude": 120.304474, "IVRNo": 250, "EXTVoiceNo": 7528, "traveltime": 0, "holidayTraveltime": 0}, {"Id": "5015", "pgp": 0, "GoBack": 1, "SID": 3590, "NameZh": "Jhihjhen Rd. Intersection", "RouteId": 301, "SeqNo": 42, "Terminal": 0, "DistrictId": 1, "Latitude": 22.67214, "Longitude": 120.3041, "IVRNo": 5015, "EXTVoiceNo": 5015, "traveltime": 0, "holidayTraveltime": 0}, {"Id": "5016", "pgp": 0, "GoBack": 1, "SID": 3594, "NameZh": "Hanshen Arena", "RouteId": 301, "SeqNo": 43, "Terminal": 0, "DistrictId": 1, "Latitude": 22.66866, "Longitude": 120.30319, "IVRNo": 2221, "EXTVoiceNo": 5016, "traveltime": 0, "holidayTraveltime": 0}, {"Id": "5623", "pgp": 0, "GoBack": 1, "SID": 3597, "NameZh": "MRT Kaohsiung Arena Station", "RouteId": 301, "SeqNo": 44, "Terminal": 0, "DistrictId": 1, "Latitude": 22.664969, "Longitude": 120.303, "IVRNo": 2220, "EXTVoiceNo": 5623, "traveltime": 0, "holidayTraveltime": 0}, {"Id": "1128", "pgp": 0, "GoBack": 1, "SID": 3600, "NameZh": "Mingcheng Rd. Intersection (Boai 2nd Rd.)", "RouteId": 301, "SeqNo": 45, "Terminal": 0, "DistrictId": 1, "Latitude": 22.661902, "Longitude": 120.302991, "IVRNo": 1128, "EXTVoiceNo": 1128, "traveltime": 0, "holidayTraveltime": 0}, {"Id": "4062", "pgp": 0, "GoBack": 1, "SID": 3607, "NameZh": "MRT Aozihdi Station", "RouteId": 301, "SeqNo": 46, "Terminal": 0, "DistrictId": 1, "Latitude": 22.65681, "Longitude": 120.30304, "IVRNo": 4033, "EXTVoiceNo": 4062, "traveltime": 0, "holidayTraveltime": 0}, {"Id": "4019", "pgp": 0, "GoBack": 1, "SID": 3612, "NameZh": "Longde Rd. Intersection (Boai 1st Rd.)", "RouteId": 301, "SeqNo": 47, "Terminal": 0, "DistrictId": 1, "Latitude": 22.654063, "Longitude": 120.303486, "IVRNo": 4019, "EXTVoiceNo": 4019, "traveltime": 0, "holidayTraveltime": 0}, {"Id": "5022", "pgp": 0, "GoBack": 1, "SID": 3615, "NameZh": "Tongmeng Rd. Intersection", "RouteId": 301, "SeqNo": 48, "Terminal": 0, "DistrictId": 1, "Latitude": 22.650605, "Longitude": 120.303358, "IVRNo": 5022, "EXTVoiceNo": 5022, "traveltime": 0, "holidayTraveltime": 0}, {"Id": "5024", "pgp": 0, "GoBack": 1, "SID": 3616, "NameZh": "MRT Houyi Station", "RouteId": 301, "SeqNo": 49, "Terminal": 0, "DistrictId": 1, "Latitude": 22.648288, "Longitude": 120.303261, "IVRNo": 2838, "EXTVoiceNo": 5024, "traveltime": 0, "holidayTraveltime": 0}, {"Id": "7619", "pgp": 0, "GoBack": 1, "SID": 12636, "NameZh": "Chahaer 2nd St. (MRT Houyi Station)", "RouteId": 301, "SeqNo": 50, "Terminal": 0, "DistrictId": 1, "Latitude": 22.647773, "Longitude": 120.301662, "IVRNo": 7619, "EXTVoiceNo": 7619, "traveltime": 0, "holidayTraveltime": 0}, {"Id": "0164", "pgp": 0, "GoBack": 1, "SID": 1638, "NameZh": "Shih Cyuan Primary School(Chaha\u2019er 2nd St.)", "RouteId": 301, "SeqNo": 51, "Terminal": 0, "DistrictId": 1, "Latitude": 22.647977, "Longitude": 120.298969, "IVRNo": 164, "EXTVoiceNo": 164, "traveltime": 0, "holidayTraveltime": 0}, {"Id": "5635", "pgp": 0, "GoBack": 1, "SID": 3624, "NameZh": "Chahaer St. Intersection", "RouteId": 301, "SeqNo": 52, "Terminal": 0, "DistrictId": 1, "Latitude": 22.646901, "Longitude": 120.296559, "IVRNo": 5635, "EXTVoiceNo": 5635, "traveltime": 0, "holidayTraveltime": 0}, {"Id": "9993", "pgp": 0, "GoBack": 1, "SID": 15278, "NameZh": "Ksbus Zihli Station", "RouteId": 301, "SeqNo": 53, "Terminal": 0, "DistrictId": 1, "Latitude": 22.644787, "Longitude": 120.296466, "IVRNo": 19993, "EXTVoiceNo": 19993, "traveltime": 0, "holidayTraveltime": 0}, {"Id": "0239", "pgp": 0, "GoBack": 1, "SID": 1592, "NameZh": "Liaoning St. Intersection (Zihli Rd.)", "RouteId": 301, "SeqNo": 54, "Terminal": 0, "DistrictId": 1, "Latitude": 22.642015, "Longitude": 120.296186, "IVRNo": 239, "EXTVoiceNo": 239, "traveltime": 0, "holidayTraveltime": 0}, {"Id": "0240", "pgp": 0, "GoBack": 1, "SID": 1603, "NameZh": "Kaohsiung Senior High School", "RouteId": 301, "SeqNo": 55, "Terminal": 0, "DistrictId": 1, "Latitude": 22.637871, "Longitude": 120.297405, "IVRNo": 240, "EXTVoiceNo": 240, "traveltime": 0, "holidayTraveltime": 0}, {"Id": "0248", "pgp": 0, "GoBack": 1, "SID": 7270, "NameZh": "Kaohsiung Train Station (Tungai St. Intersection)", "RouteId": 301, "SeqNo": 56, "Terminal": 0, "DistrictId": 1, "Latitude": 22.637808, "Longitude": 120.300921, "IVRNo": 241, "EXTVoiceNo": 20248, "traveltime": 0, "holidayTraveltime": 0}, {"Id": "0248", "pgp": 0, "GoBack": 2, "SID": 4461, "NameZh": "Kaohsiung Train Station (Tungai St. Intersection)", "RouteId": 301, "SeqNo": 1, "Terminal": 0, "DistrictId": 1, "Latitude": 22.637869, "Longitude": 120.301091, "IVRNo": 241, "EXTVoiceNo": 20248, "traveltime": 0, "holidayTraveltime": 0}, {"Id": "0240", "pgp": 0, "GoBack": 2, "SID": 1604, "NameZh": "Kaohsiung Senior High School", "RouteId": 301, "SeqNo": 2, "Terminal": 0, "DistrictId": 1, "Latitude": 22.63793, "Longitude": 120.297409, "IVRNo": 240, "EXTVoiceNo": 240, "traveltime": 0, "holidayTraveltime": 0}, {"Id": "0239", "pgp": 0, "GoBack": 2, "SID": 1668, "NameZh": "Liaoning St. Intersection (Zihli Rd.)", "RouteId": 301, "SeqNo": 3, "Terminal": 0, "DistrictId": 1, "Latitude": 22.642015, "Longitude": 120.296239, "IVRNo": 239, "EXTVoiceNo": 239, "traveltime": 0, "holidayTraveltime": 0}, {"Id": "9993", "pgp": 0, "GoBack": 2, "SID": 15289, "NameZh": "Ksbus Zihli Station", "RouteId": 301, "SeqNo": 4, "Terminal": 0, "DistrictId": 1, "Latitude": 22.645115, "Longitude": 120.296501, "IVRNo": 19993, "EXTVoiceNo": 19993, "traveltime": 0, "holidayTraveltime": 0}, {"Id": "5635", "pgp": 0, "GoBack": 2, "SID": 7901, "NameZh": "Chahaer St. Intersection", "RouteId": 301, "SeqNo": 5, "Terminal": 0, "DistrictId": 1, "Latitude": 22.646734, "Longitude": 120.29666, "IVRNo": 5635, "EXTVoiceNo": 5635, "traveltime": 0, "holidayTraveltime": 0}, {"Id": "0164", "pgp": 0, "GoBack": 2, "SID": 2067, "NameZh": "Shih Cyuan Primary School(Chaha\u2019er 2nd St.)", "RouteId": 301, "SeqNo": 6, "Terminal": 0, "DistrictId": 1, "Latitude": 22.647952, "Longitude": 120.29821, "IVRNo": 164, "EXTVoiceNo": 164, "traveltime": 0, "holidayTraveltime": 0}, {"Id": "7619", "pgp": 0, "GoBack": 2, "SID": 7475, "NameZh": "Chahaer 2nd St. (MRT Houyi Station)", "RouteId": 301, "SeqNo": 7, "Terminal": 0, "DistrictId": 1, "Latitude": 22.647655, "Longitude": 120.301902, "IVRNo": 7619, "EXTVoiceNo": 7619, "traveltime": 0, "holidayTraveltime": 0}, {"Id": "5024", "pgp": 0, "GoBack": 2, "SID": 2048, "NameZh": "MRT Houyi Station", "RouteId": 301, "SeqNo": 8, "Terminal": 0, "DistrictId": 1, "Latitude": 22.647938, "Longitude": 120.303361, "IVRNo": 2838, "EXTVoiceNo": 5024, "traveltime": 0, "holidayTraveltime": 0}, {"Id": "5022", "pgp": 0, "GoBack": 2, "SID": 3641, "NameZh": "Tongmeng Rd. Intersection", "RouteId": 301, "SeqNo": 9, "Terminal": 0, "DistrictId": 1, "Latitude": 22.651571, "Longitude": 120.303662, "IVRNo": 5022, "EXTVoiceNo": 5022, "traveltime": 0, "holidayTraveltime": 0}, {"Id": "4019", "pgp": 0, "GoBack": 2, "SID": 3642, "NameZh": "Longde Rd. Intersection (Boai 1st Rd.)", "RouteId": 301, "SeqNo": 10, "Terminal": 0, "DistrictId": 1, "Latitude": 22.654119, "Longitude": 120.303594, "IVRNo": 4019, "EXTVoiceNo": 4019, "traveltime": 0, "holidayTraveltime": 0}, {"Id": "4062", "pgp": 0, "GoBack": 2, "SID": 3644, "NameZh": "MRT Aozihdi Station", "RouteId": 301, "SeqNo": 11, "Terminal": 0, "DistrictId": 1, "Latitude": 22.657141, "Longitude": 120.303177, "IVRNo": 4033, "EXTVoiceNo": 4062, "traveltime": 0, "holidayTraveltime": 0}, {"Id": "1128", "pgp": 0, "GoBack": 2, "SID": 3650, "NameZh": "Mingcheng Rd. Intersection (Boai 2nd Rd.)", "RouteId": 301, "SeqNo": 12, "Terminal": 0, "DistrictId": 1, "Latitude": 22.660683, "Longitude": 120.303075, "IVRNo": 1128, "EXTVoiceNo": 1128, "traveltime": 0, "holidayTraveltime": 0}, {"Id": "0358", "pgp": 0, "GoBack": 2, "SID": 5141, "NameZh": "Liwen Rd. Intersection", "RouteId": 301, "SeqNo": 13, "Terminal": 0, "DistrictId": 1, "Latitude": 22.66423, "Longitude": 120.30333, "IVRNo": 7515, "EXTVoiceNo": 20358, "traveltime": 0, "holidayTraveltime": 0}, {"Id": "5623", "pgp": 0, "GoBack": 2, "SID": 3651, "NameZh": "MRT Kaohsiung Arena Station", "RouteId": 301, "SeqNo": 14, "Terminal": 0, "DistrictId": 1, "Latitude": 22.666086, "Longitude": 120.30349, "IVRNo": 2220, "EXTVoiceNo": 5623, "traveltime": 0, "holidayTraveltime": 0}, {"Id": "5016", "pgp": 0, "GoBack": 2, "SID": 3656, "NameZh": "Hanshen Arena", "RouteId": 301, "SeqNo": 15, "Terminal": 0, "DistrictId": 1, "Latitude": 22.669811, "Longitude": 120.303363, "IVRNo": 2221, "EXTVoiceNo": 5016, "traveltime": 0, "holidayTraveltime": 0}, {"Id": "5015", "pgp": 0, "GoBack": 2, "SID": 3661, "NameZh": "Jhihjhen Rd. Intersection", "RouteId": 301, "SeqNo": 16, "Terminal": 0, "DistrictId": 1, "Latitude": 22.671665, "Longitude": 120.304166, "IVRNo": 5015, "EXTVoiceNo": 5015, "traveltime": 0, "holidayTraveltime": 0}, {"Id": "7528", "pgp": 0, "GoBack": 2, "SID": 5187, "NameZh": "Boai Rd. Intersection (Chongde Rd.)", "RouteId": 301, "SeqNo": 17, "Terminal": 0, "DistrictId": 1, "Latitude": 22.67536, "Longitude": 120.304441, "IVRNo": 250, "EXTVoiceNo": 7528, "traveltime": 0, "holidayTraveltime": 0}, {"Id": "7527", "pgp": 0, "GoBack": 2, "SID": 5188, "NameZh": "Chongde Rd.", "RouteId": 301, "SeqNo": 18, "Terminal": 0, "DistrictId": 1, "Latitude": 22.67693, "Longitude": 120.301773, "IVRNo": 7527, "EXTVoiceNo": 7527, "traveltime": 0, "holidayTraveltime": 0}, {"Id": "7582", "pgp": 0, "GoBack": 2, "SID": 5195, "NameZh": "Garden Villa", "RouteId": 301, "SeqNo": 19, "Terminal": 0, "DistrictId": 1, "Latitude": 22.678275, "Longitude": 120.299575, "IVRNo": 7582, "EXTVoiceNo": 7582, "traveltime": 0, "holidayTraveltime": 0}, {"Id": "7525", "pgp": 0, "GoBack": 2, "SID": 5181, "NameZh": "Zuoying Train Station", "RouteId": 301, "SeqNo": 20, "Terminal": 0, "DistrictId": 1, "Latitude": 22.675072, "Longitude": 120.293758, "IVRNo": 7525, "EXTVoiceNo": 7525, "traveltime": 0, "holidayTraveltime": 0}, {"Id": "7577", "pgp": 0, "GoBack": 2, "SID": 5183, "NameZh": "Cueihua Community", "RouteId": 301, "SeqNo": 21, "Terminal": 0, "DistrictId": 1, "Latitude": 22.672519, "Longitude": 120.291358, "IVRNo": 7577, "EXTVoiceNo": 7577, "traveltime": 0, "holidayTraveltime": 0}, {"Id": "8206", "pgp": 0, "GoBack": 2, "SID": 5496, "NameZh": "Cueifong Rd.", "RouteId": 301, "SeqNo": 22, "Terminal": 0, "DistrictId": 1, "Latitude": 22.672352, "Longitude": 120.288466, "IVRNo": 8206, "EXTVoiceNo": 8206, "traveltime": 0, "holidayTraveltime": 0}, {"Id": "8205", "pgp": 0, "GoBack": 2, "SID": 5500, "NameZh": "Cueihua Public Housing", "RouteId": 301, "SeqNo": 23, "Terminal": 0, "DistrictId": 1, "Latitude": 22.673961, "Longitude": 120.289213, "IVRNo": 8205, "EXTVoiceNo": 8205, "traveltime": 0, "holidayTraveltime": 0}, {"Id": "8204", "pgp": 0, "GoBack": 2, "SID": 5502, "NameZh": "Chengfong Rd.", "RouteId": 301, "SeqNo": 24, "Terminal": 0, "DistrictId": 1, "Latitude": 22.67608, "Longitude": 120.292375, "IVRNo": 8204, "EXTVoiceNo": 8204, "traveltime": 0, "holidayTraveltime": 0}, {"Id": "7584", "pgp": 0, "GoBack": 2, "SID": 5203, "NameZh": "Lotus Pond (Shengli Rd.)", "RouteId": 301, "SeqNo": 25, "Terminal": 0, "DistrictId": 1, "Latitude": 22.679886, "Longitude": 120.291975, "IVRNo": 7524, "EXTVoiceNo": 7584, "traveltime": 0, "holidayTraveltime": 0}, {"Id": "7585", "pgp": 0, "GoBack": 2, "SID": 5204, "NameZh": "Shengli Rd.", "RouteId": 301, "SeqNo": 26, "Terminal": 0, "DistrictId": 1, "Latitude": 22.680838, "Longitude": 120.289577, "IVRNo": 7523, "EXTVoiceNo": 7585, "traveltime": 0, "holidayTraveltime": 0}, {"Id": "4763", "pgp": 0, "GoBack": 2, "SID": 3257, "NameZh": "Zuoying Farmers` Association", "RouteId": 301, "SeqNo": 27, "Terminal": 0, "DistrictId": 1, "Latitude": 22.681991, "Longitude": 120.288144, "IVRNo": 4725, "EXTVoiceNo": 4763, "traveltime": 0, "holidayTraveltime": 0}, {"Id": "4762", "pgp": 0, "GoBack": 2, "SID": 3268, "NameZh": "Dianzihding Rd. Intersection", "RouteId": 301, "SeqNo": 28, "Terminal": 0, "DistrictId": 1, "Latitude": 22.685113, "Longitude": 120.289725, "IVRNo": 4726, "EXTVoiceNo": 4762, "traveltime": 0, "holidayTraveltime": 0}, {"Id": "4761", "pgp": 0, "GoBack": 2, "SID": 3283, "NameZh": "Zuoying Avenue", "RouteId": 301, "SeqNo": 29, "Terminal": 0, "DistrictId": 1, "Latitude": 22.686255, "Longitude": 120.291088, "IVRNo": 4727, "EXTVoiceNo": 4761, "traveltime": 0, "holidayTraveltime": 0}, {"Id": "4760", "pgp": 0, "GoBack": 2, "SID": 3293, "NameZh": "Zuoying Market", "RouteId": 301, "SeqNo": 30, "Terminal": 0, "DistrictId": 1, "Latitude": 22.687602, "Longitude": 120.293505, "IVRNo": 4728, "EXTVoiceNo": 4760, "traveltime": 0, "holidayTraveltime": 0}, {"Id": "0614", "pgp": 0, "GoBack": 2, "SID": 5892, "NameZh": "Fonggu Temple (Jinsyue Rd. Intersection)", "RouteId": 301, "SeqNo": 31, "Terminal": 0, "DistrictId": 1, "Latitude": 22.690508, "Longitude": 120.296372, "IVRNo": 9001, "EXTVoiceNo": 20614, "traveltime": 0, "holidayTraveltime": 0}, {"Id": "4787", "pgp": 0, "GoBack": 2, "SID": 3504, "NameZh": "Caigong Rd. Intersection (Zuoying Avenue)", "RouteId": 301, "SeqNo": 32, "Terminal": 0, "DistrictId": 1, "Latitude": 22.691844, "Longitude": 120.297992, "IVRNo": 4786, "EXTVoiceNo": 4787, "traveltime": 0, "holidayTraveltime": 0}, {"Id": "7516", "pgp": 0, "GoBack": 2, "SID": 5172, "NameZh": "Haigong E. Rd.", "RouteId": 301, "SeqNo": 33, "Terminal": 0, "DistrictId": 1, "Latitude": 22.693513, "Longitude": 120.29968, "IVRNo": 7516, "EXTVoiceNo": 7516, "traveltime": 0, "holidayTraveltime": 0}, {"Id": "7512", "pgp": 0, "GoBack": 2, "SID": 5137, "NameZh": "Ping-Shan Elementary School", "RouteId": 301, "SeqNo": 34, "Terminal": 0, "DistrictId": 1, "Latitude": 22.693561, "Longitude": 120.301972, "IVRNo": 7511, "EXTVoiceNo": 7512, "traveltime": 0, "holidayTraveltime": 0}, {"Id": "8767", "pgp": 0, "GoBack": 2, "SID": 5725, "NameZh": "Caigong 1st Rd. Intersection", "RouteId": 301, "SeqNo": 35, "Terminal": 0, "DistrictId": 1, "Latitude": 22.687202, "Longitude": 120.304628, "IVRNo": 8767, "EXTVoiceNo": 8767, "traveltime": 0, "holidayTraveltime": 0}, {"Id": "0287", "pgp": 0, "GoBack": 2, "SID": 5177, "NameZh": "TRA New Zuoying Station", "RouteId": 301, "SeqNo": 36, "Terminal": 0, "DistrictId": 1, "Latitude": 22.68866, "Longitude": 120.30758, "IVRNo": 7517, "EXTVoiceNo": 20287, "traveltime": 0, "holidayTraveltime": 0}, {"Id": "0279", "pgp": 0, "GoBack": 2, "SID": 5733, "NameZh": "Back Lane of Banping Mt.", "RouteId": 301, "SeqNo": 37, "Terminal": 0, "DistrictId": 1, "Latitude": 22.6893, "Longitude": 120.30623, "IVRNo": 8775, "EXTVoiceNo": 20279, "traveltime": 0, "holidayTraveltime": 0}, {"Id": "7512", "pgp": 0, "GoBack": 2, "SID": 5138, "NameZh": "Ping-Shan Elementary School", "RouteId": 301, "SeqNo": 38, "Terminal": 0, "DistrictId": 1, "Latitude": 22.693556, "Longitude": 120.302272, "IVRNo": 7511, "EXTVoiceNo": 7512, "traveltime": 0, "holidayTraveltime": 0}, {"Id": "1021", "pgp": 0, "GoBack": 2, "SID": 3304, "NameZh": "Banping Mountain (Zuoying Avenue)", "RouteId": 301, "SeqNo": 39, "Terminal": 0, "DistrictId": 1, "Latitude": 22.69395, "Longitude": 120.29945, "IVRNo": 1021, "EXTVoiceNo": 1021, "traveltime": 0, "holidayTraveltime": 0}, {"Id": "4756", "pgp": 0, "GoBack": 2, "SID": 3312, "NameZh": "Sianghe Villa", "RouteId": 301, "SeqNo": 40, "Terminal": 0, "DistrictId": 1, "Latitude": 22.697383, "Longitude": 120.301719, "IVRNo": 4732, "EXTVoiceNo": 4756, "traveltime": 0, "holidayTraveltime": 0}, {"Id": "4734", "pgp": 0, "GoBack": 2, "SID": 3316, "NameZh": "Refinery (MRT World Game Station)", "RouteId": 301, "SeqNo": 41, "Terminal": 0, "DistrictId": 1, "Latitude": 22.703269, "Longitude": 120.302483, "IVRNo": 4734, "EXTVoiceNo": 4734, "traveltime": 0, "holidayTraveltime": 0}, {"Id": "4753", "pgp": 0, "GoBack": 2, "SID": 3324, "NameZh": "MRT Oil Refinery Elementary School Station", "RouteId": 301, "SeqNo": 42, "Terminal": 0, "DistrictId": 1, "Latitude": 22.707844, "Longitude": 120.302949, "IVRNo": 4735, "EXTVoiceNo": 4753, "traveltime": 0, "holidayTraveltime": 0}, {"Id": "4752", "pgp": 0, "GoBack": 2, "SID": 3326, "NameZh": "Guoguang Laboratory School", "RouteId": 301, "SeqNo": 43, "Terminal": 0, "DistrictId": 1, "Latitude": 22.708222, "Longitude": 120.306194, "IVRNo": 4736, "EXTVoiceNo": 4752, "traveltime": 0, "holidayTraveltime": 0}, {"Id": "4751", "pgp": 0, "GoBack": 2, "SID": 3329, "NameZh": "Houjin Dormitory", "RouteId": 301, "SeqNo": 44, "Terminal": 0, "DistrictId": 1, "Latitude": 22.711638, "Longitude": 120.308222, "IVRNo": 4737, "EXTVoiceNo": 4751, "traveltime": 0, "holidayTraveltime": 0}, {"Id": "4750", "pgp": 0, "GoBack": 2, "SID": 3330, "NameZh": "Houjin Police Station", "RouteId": 301, "SeqNo": 45, "Terminal": 0, "DistrictId": 1, "Latitude": 22.716388, "Longitude": 120.309833, "IVRNo": 4738, "EXTVoiceNo": 4750, "traveltime": 0, "holidayTraveltime": 0}, {"Id": "4739", "pgp": 0, "GoBack": 2, "SID": 5208, "NameZh": "Houjin", "RouteId": 301, "SeqNo": 46, "Terminal": 0, "DistrictId": 1, "Latitude": 22.71858, "Longitude": 120.310561, "IVRNo": 4739, "EXTVoiceNo": 4739, "traveltime": 0, "holidayTraveltime": 0}, {"Id": "7009", "pgp": 0, "GoBack": 2, "SID": 4578, "NameZh": "Houjin Elementary School (MRT Houjin Station)", "RouteId": 301, "SeqNo": 47, "Terminal": 0, "DistrictId": 1, "Latitude": 22.721158, "Longitude": 120.313597, "IVRNo": 7083, "EXTVoiceNo": 7009, "traveltime": 0, "holidayTraveltime": 0}, {"Id": "7010", "pgp": 0, "GoBack": 2, "SID": 4584, "NameZh": "Houjin Junior High School (MRT Houjin Station)", "RouteId": 301, "SeqNo": 48, "Terminal": 0, "DistrictId": 1, "Latitude": 22.72196, "Longitude": 120.31577, "IVRNo": 7010, "EXTVoiceNo": 7010, "traveltime": 0, "holidayTraveltime": 0}, {"Id": "7508", "pgp": 0, "GoBack": 2, "SID": 5209, "NameZh": "Gaonan Viaduct (MRT Metropolitan Park Station)", "RouteId": 301, "SeqNo": 49, "Terminal": 0, "DistrictId": 1, "Latitude": 22.727901, "Longitude": 120.321587, "IVRNo": 7508, "EXTVoiceNo": 7508, "traveltime": 0, "holidayTraveltime": 0}, {"Id": "1283", "pgp": 0, "GoBack": 2, "SID": 5464, "NameZh": "MRT Metropolitan Park Station", "RouteId": 301, "SeqNo": 50, "Terminal": 0, "DistrictId": 1, "Latitude": 22.7303, "Longitude": 120.32088, "IVRNo": 1283, "EXTVoiceNo": 1283, "traveltime": 0, "holidayTraveltime": 0}, {"Id": "7507", "pgp": 0, "GoBack": 2, "SID": 5213, "NameZh": "Department of Motor Vehicle (Metropolitan Park)", "RouteId": 301, "SeqNo": 51, "Terminal": 0, "DistrictId": 1, "Latitude": 22.73118, "Longitude": 120.31651, "IVRNo": 7507, "EXTVoiceNo": 7507, "traveltime": 0, "holidayTraveltime": 0}, {"Id": "7506", "pgp": 0, "GoBack": 2, "SID": 5216, "NameZh": "Dongcueibing Village", "RouteId": 301, "SeqNo": 52, "Terminal": 0, "DistrictId": 1, "Latitude": 22.72798, "Longitude": 120.31226, "IVRNo": 7506, "EXTVoiceNo": 7506, "traveltime": 0, "holidayTraveltime": 0}, {"Id": "7505", "pgp": 0, "GoBack": 2, "SID": 5218, "NameZh": "Haijhuan Rd. Intersection", "RouteId": 301, "SeqNo": 53, "Terminal": 0, "DistrictId": 1, "Latitude": 22.72647, "Longitude": 120.3098, "IVRNo": 7505, "EXTVoiceNo": 7505, "traveltime": 0, "holidayTraveltime": 0}, {"Id": "7595", "pgp": 0, "GoBack": 2, "SID": 5221, "NameZh": "Nanzih Export Processing Zone North Gate", "RouteId": 301, "SeqNo": 54, "Terminal": 0, "DistrictId": 1, "Latitude": 22.72563, "Longitude": 120.30531, "IVRNo": 7504, "EXTVoiceNo": 7595, "traveltime": 0, "holidayTraveltime": 0}, {"Id": "7503", "pgp": 0, "GoBack": 2, "SID": 5223, "NameZh": "Rainbow Town", "RouteId": 301, "SeqNo": 55, "Terminal": 0, "DistrictId": 1, "Latitude": 22.7249, "Longitude": 120.30072, "IVRNo": 7503, "EXTVoiceNo": 7503, "traveltime": 0, "holidayTraveltime": 0}, {"Id": "1235", "pgp": 0, "GoBack": 2, "SID": 5226, "NameZh": "Dechang Rd. ( Waihuan W. Rd.)", "RouteId": 301, "SeqNo": 56, "Terminal": 0, "DistrictId": 1, "Latitude": 22.72405, "Longitude": 120.2992, "IVRNo": 1235, "EXTVoiceNo": 1235, "traveltime": 0, "holidayTraveltime": 0}, {"Id": "7001", "pgp": 0, "GoBack": 2, "SID": 4554, "NameZh": "Jiachang Station", "RouteId": 301, "SeqNo": 57, "Terminal": 1, "DistrictId": 1, "Latitude": 22.719128, "Longitude": 120.298488, "IVRNo": 7000, "EXTVoiceNo": 7001, "traveltime": 0, "holidayTraveltime": 0}], "zh": [{"Id": "7001", "pgp": 0, "GoBack": 1, "SID": 4555, "NameZh": "\u52a0\u660c\u7ad9", "RouteId": 301, "SeqNo": 1, "Terminal": 0, "DistrictId": 1, "Latitude": 22.719128, "Longitude": 120.298488, "IVRNo": 7000, "EXTVoiceNo": 7001, "traveltime": 0, "holidayTraveltime": 0}, {"Id": "1235", "pgp": 0, "GoBack": 1, "SID": 5118, "NameZh": "\u5fb7\u6c11\u8def(\u5916\u74b0\u897f\u8def\u53e3)", "RouteId": 301, "SeqNo": 2, "Terminal": 0, "DistrictId": 1, "Latitude": 22.72348, "Longitude": 120.29863, "IVRNo": 1235, "EXTVoiceNo": 1235, "traveltime": 0, "holidayTraveltime": 0}, {"Id": "7503", "pgp": 0, "GoBack": 1, "SID": 5119, "NameZh": "\u5f69\u8679\u57ce", "RouteId": 301, "SeqNo": 3, "Terminal": 0, "DistrictId": 1, "Latitude": 22.72472, "Longitude": 120.30077, "IVRNo": 7503, "EXTVoiceNo": 7503, "traveltime": 0, "holidayTraveltime": 0}, {"Id": "7595", "pgp": 0, "GoBack": 1, "SID": 5123, "NameZh": "\u52a0\u5de5\u5340\u5317\u9580", "RouteId": 301, "SeqNo": 4, "Terminal": 0, "DistrictId": 1, "Latitude": 22.72531, "Longitude": 120.30402, "IVRNo": 7504, "EXTVoiceNo": 7595, "traveltime": 0, "holidayTraveltime": 0}, {"Id": "7505", "pgp": 0, "GoBack": 1, "SID": 5124, "NameZh": "\u6d77\u5c08\u8def\u53e3", "RouteId": 301, "SeqNo": 5, "Terminal": 0, "DistrictId": 1, "Latitude": 22.72624, "Longitude": 120.30987, "IVRNo": 7505, "EXTVoiceNo": 7505, "traveltime": 0, "holidayTraveltime": 0}, {"Id": "7506", "pgp": 0, "GoBack": 1, "SID": 5126, "NameZh": "\u6771\u7fe0\u5c4f\u91cc", "RouteId": 301, "SeqNo": 6, "Terminal": 0, "DistrictId": 1, "Latitude": 22.72819, "Longitude": 120.3128, "IVRNo": 7506, "EXTVoiceNo": 7506, "traveltime": 0, "holidayTraveltime": 0}, {"Id": "7507", "pgp": 0, "GoBack": 1, "SID": 5131, "NameZh": "\u76e3\u7406\u8655(\u90fd\u6703\u516c\u5712)", "RouteId": 301, "SeqNo": 7, "Terminal": 0, "DistrictId": 1, "Latitude": 22.73112, "Longitude": 120.31686, "IVRNo": 7507, "EXTVoiceNo": 7507, "traveltime": 0, "holidayTraveltime": 0}, {"Id": "8130", "pgp": 0, "GoBack": 1, "SID": 5460, "NameZh": "\u9ad8\u6960\u8def", "RouteId": 301, "SeqNo": 8, "Terminal": 0, "DistrictId": 1, "Latitude": 22.73112, "Longitude": 120.32037, "IVRNo": 8130, "EXTVoiceNo": 8130, "traveltime": 0, "holidayTraveltime": 0}, {"Id": "1283", "pgp": 0, "GoBack": 1, "SID": 5132, "NameZh": "\u6377\u904b\u90fd\u6703\u516c\u5712\u7ad9", "RouteId": 301, "SeqNo": 9, "Terminal": 0, "DistrictId": 1, "Latitude": 22.729596, "Longitude": 120.320741, "IVRNo": 1283, "EXTVoiceNo": 1283, "traveltime": 0, "holidayTraveltime": 0}, {"Id": "7010", "pgp": 0, "GoBack": 1, "SID": 4681, "NameZh": "\u5f8c\u52c1\u570b\u4e2d(\u6377\u904b\u5f8c\u52c1\u7ad9)", "RouteId": 301, "SeqNo": 10, "Terminal": 0, "DistrictId": 1, "Latitude": 22.72215, "Longitude": 120.3155, "IVRNo": 7010, "EXTVoiceNo": 7010, "traveltime": 0, "holidayTraveltime": 0}, {"Id": "7009", "pgp": 0, "GoBack": 1, "SID": 4686, "NameZh": "\u5f8c\u52c1\u570b\u5c0f(\u6377\u904b\u5f8c\u52c1\u7ad9)", "RouteId": 301, "SeqNo": 11, "Terminal": 0, "DistrictId": 1, "Latitude": 22.721158, "Longitude": 120.313597, "IVRNo": 7083, "EXTVoiceNo": 7009, "traveltime": 0, "holidayTraveltime": 0}, {"Id": "4739", "pgp": 0, "GoBack": 1, "SID": 5136, "NameZh": "\u5f8c\u52c1", "RouteId": 301, "SeqNo": 12, "Terminal": 0, "DistrictId": 1, "Latitude": 22.71862, "Longitude": 120.310414, "IVRNo": 4739, "EXTVoiceNo": 4739, "traveltime": 0, "holidayTraveltime": 0}, {"Id": "4750", "pgp": 0, "GoBack": 1, "SID": 3365, "NameZh": "\u5f8c\u52c1\u6d3e\u51fa\u6240", "RouteId": 301, "SeqNo": 13, "Terminal": 0, "DistrictId": 1, "Latitude": 22.715108, "Longitude": 120.309363, "IVRNo": 4738, "EXTVoiceNo": 4750, "traveltime": 0, "holidayTraveltime": 0}, {"Id": "4751", "pgp": 0, "GoBack": 1, "SID": 3366, "NameZh": "\u5f8c\u52c1\u5bbf\u820d", "RouteId": 301, "SeqNo": 14, "Terminal": 0, "DistrictId": 1, "Latitude": 22.711669, "Longitude": 120.308244, "IVRNo": 4737, "EXTVoiceNo": 4751, "traveltime": 0, "holidayTraveltime": 0}, {"Id": "4752", "pgp": 0, "GoBack": 1, "SID": 3369, "NameZh": "\u570b\u5149\u4e2d\u5b78", "RouteId": 301, "SeqNo": 15, "Terminal": 0, "DistrictId": 1, "Latitude": 22.708266, "Longitude": 120.306, "IVRNo": 4736, "EXTVoiceNo": 4752, "traveltime": 0, "holidayTraveltime": 0}, {"Id": "4753", "pgp": 0, "GoBack": 1, "SID": 3370, "NameZh": "\u6377\u904b\u6cb9\u5ee0\u570b\u5c0f\u7ad9", "RouteId": 301, "SeqNo": 16, "Terminal": 0, "DistrictId": 1, "Latitude": 22.70797, "Longitude": 120.303164, "IVRNo": 4735, "EXTVoiceNo": 4753, "traveltime": 0, "holidayTraveltime": 0}, {"Id": "4734", "pgp": 0, "GoBack": 1, "SID": 3378, "NameZh": "\u7149\u6cb9\u5ee0(\u6377\u904b\u4e16\u904b\u7ad9)", "RouteId": 301, "SeqNo": 17, "Terminal": 0, "DistrictId": 1, "Latitude": 22.703294, "Longitude": 120.302235, "IVRNo": 4734, "EXTVoiceNo": 4734, "traveltime": 0, "holidayTraveltime": 0}, {"Id": "4756", "pgp": 0, "GoBack": 1, "SID": 3385, "NameZh": "\u7965\u548c\u5c71\u838a", "RouteId": 301, "SeqNo": 18, "Terminal": 0, "DistrictId": 1, "Latitude": 22.697383, "Longitude": 120.301719, "IVRNo": 4732, "EXTVoiceNo": 4756, "traveltime": 0, "holidayTraveltime": 0}, {"Id": "7516", "pgp": 0, "GoBack": 1, "SID": 5143, "NameZh": "\u6d77\u529f\u6771\u8def", "RouteId": 301, "SeqNo": 19, "Terminal": 0, "DistrictId": 1, "Latitude": 22.693913, "Longitude": 120.299338, "IVRNo": 7516, "EXTVoiceNo": 7516, "traveltime": 0, "holidayTraveltime": 0}, {"Id": "7512", "pgp": 0, "GoBack": 1, "SID": 5137, "NameZh": "\u5c4f\u5c71\u570b\u5c0f", "RouteId": 301, "SeqNo": 20, "Terminal": 0, "DistrictId": 1, "Latitude": 22.693561, "Longitude": 120.301972, "IVRNo": 7511, "EXTVoiceNo": 7512, "traveltime": 0, "holidayTraveltime": 0}, {"Id": "8767", "pgp": 0, "GoBack": 1, "SID": 5724, "NameZh": "\u83dc\u516c\u4e00\u8def\u53e3", "RouteId": 301, "SeqNo": 21, "Terminal": 0, "DistrictId": 1, "Latitude": 22.687202, "Longitude": 120.304628, "IVRNo": 8767, "EXTVoiceNo": 8767, "traveltime": 0, "holidayTraveltime": 0}, {"Id": "0287", "pgp": 0, "GoBack": 1, "SID": 5145, "NameZh": "\u53f0\u9435\u65b0\u5de6\u71df\u7ad9", "RouteId": 301, "SeqNo": 22, "Terminal": 0, "DistrictId": 1, "Latitude": 22.688722, "Longitude": 120.307583, "IVRNo": 7517, "EXTVoiceNo": 20287, "traveltime": 0, "holidayTraveltime": 0}, {"Id": "0279", "pgp": 0, "GoBack": 1, "SID": 5731, "NameZh": "\u534a\u5c4f\u5c71\u5f8c\u5df7", "RouteId": 301, "SeqNo": 23, "Terminal": 0, "DistrictId": 1, "Latitude": 22.68929, "Longitude": 120.3062, "IVRNo": 8775, "EXTVoiceNo": 20279, "traveltime": 0, "holidayTraveltime": 0}, {"Id": "7512", "pgp": 0, "GoBack": 1, "SID": 5138, "NameZh": "\u5c4f\u5c71\u570b\u5c0f", "RouteId": 301, "SeqNo": 24, "Terminal": 0, "DistrictId": 1, "Latitude": 22.693556, "Longitude": 120.302272, "IVRNo": 7511, "EXTVoiceNo": 7512, "traveltime": 0, "holidayTraveltime": 0}, {"Id": "1021", "pgp": 0, "GoBack": 1, "SID": 3393, "NameZh": "\u534a\u5c4f\u5c71(\u5de6\u71df\u5927\u8def)", "RouteId": 301, "SeqNo": 25, "Terminal": 0, "DistrictId": 1, "Latitude": 22.693308, "Longitude": 120.298777, "IVRNo": 1021, "EXTVoiceNo": 1021, "traveltime": 0, "holidayTraveltime": 0}, {"Id": "4787", "pgp": 0, "GoBack": 1, "SID": 3510, "NameZh": "\u83dc\u516c\u8def\u53e3(\u5de6\u71df\u5927\u8def)", "RouteId": 301, "SeqNo": 26, "Terminal": 0, "DistrictId": 1, "Latitude": 22.692027, "Longitude": 120.298013, "IVRNo": 4786, "EXTVoiceNo": 4787, "traveltime": 0, "holidayTraveltime": 0}, {"Id": "0614", "pgp": 0, "GoBack": 1, "SID": 5884, "NameZh": "\u8c50\u7a40\u5bae(\u9032\u5b78\u8def\u53e3)", "RouteId": 301, "SeqNo": 27, "Terminal": 0, "DistrictId": 1, "Latitude": 22.690478, "Longitude": 120.296119, "IVRNo": 9001, "EXTVoiceNo": 20614, "traveltime": 0, "holidayTraveltime": 0}, {"Id": "4760", "pgp": 0, "GoBack": 1, "SID": 3395, "NameZh": "\u5de6\u71df\u5e02\u5834", "RouteId": 301, "SeqNo": 28, "Terminal": 0, "DistrictId": 1, "Latitude": 22.687638, "Longitude": 120.293394, "IVRNo": 4728, "EXTVoiceNo": 4760, "traveltime": 0, "holidayTraveltime": 0}, {"Id": "4761", "pgp": 0, "GoBack": 1, "SID": 3418, "NameZh": "\u5de6\u71df\u5927\u8def", "RouteId": 301, "SeqNo": 29, "Terminal": 0, "DistrictId": 1, "Latitude": 22.686166, "Longitude": 120.290566, "IVRNo": 4727, "EXTVoiceNo": 4761, "traveltime": 0, "holidayTraveltime": 0}, {"Id": "4762", "pgp": 0, "GoBack": 1, "SID": 3421, "NameZh": "\u5e97\u4ed4\u9802\u8def\u53e3", "RouteId": 301, "SeqNo": 30, "Terminal": 0, "DistrictId": 1, "Latitude": 22.684473, "Longitude": 120.289222, "IVRNo": 4726, "EXTVoiceNo": 4762, "traveltime": 0, "holidayTraveltime": 0}, {"Id": "4763", "pgp": 0, "GoBack": 1, "SID": 3442, "NameZh": "\u5de6\u71df\u8fb2\u6703", "RouteId": 301, "SeqNo": 31, "Terminal": 0, "DistrictId": 1, "Latitude": 22.682472, "Longitude": 120.288258, "IVRNo": 4725, "EXTVoiceNo": 4763, "traveltime": 0, "holidayTraveltime": 0}, {"Id": "7585", "pgp": 0, "GoBack": 1, "SID": 5149, "NameZh": "\u52dd\u5229\u8def", "RouteId": 301, "SeqNo": 32, "Terminal": 0, "DistrictId": 1, "Latitude": 22.680797, "Longitude": 120.289533, "IVRNo": 7523, "EXTVoiceNo": 7585, "traveltime": 0, "holidayTraveltime": 0}, {"Id": "7584", "pgp": 0, "GoBack": 1, "SID": 5152, "NameZh": "\u84ee\u6c60\u6f6d(\u52dd\u5229\u8def)", "RouteId": 301, "SeqNo": 33, "Terminal": 0, "DistrictId": 1, "Latitude": 22.679363, "Longitude": 120.29225, "IVRNo": 7524, "EXTVoiceNo": 7584, "traveltime": 0, "holidayTraveltime": 0}, {"Id": "8204", "pgp": 0, "GoBack": 1, "SID": 5472, "NameZh": "\u57ce\u5cf0\u8def", "RouteId": 301, "SeqNo": 34, "Terminal": 0, "DistrictId": 1, "Latitude": 22.676427, "Longitude": 120.292394, "IVRNo": 8204, "EXTVoiceNo": 8204, "traveltime": 0, "holidayTraveltime": 0}, {"Id": "8205", "pgp": 0, "GoBack": 1, "SID": 5475, "NameZh": "\u7fe0\u83ef\u570b\u5b85", "RouteId": 301, "SeqNo": 35, "Terminal": 0, "DistrictId": 1, "Latitude": 22.674238, "Longitude": 120.289491, "IVRNo": 8205, "EXTVoiceNo": 8205, "traveltime": 0, "holidayTraveltime": 0}, {"Id": "8206", "pgp": 0, "GoBack": 1, "SID": 5476, "NameZh": "\u7fe0\u5cf0\u8def", "RouteId": 301, "SeqNo": 36, "Terminal": 0, "DistrictId": 1, "Latitude": 22.671722, "Longitude": 120.2889, "IVRNo": 8206, "EXTVoiceNo": 8206, "traveltime": 0, "holidayTraveltime": 0}, {"Id": "7577", "pgp": 0, "GoBack": 1, "SID": 5178, "NameZh": "\u7fe0\u83ef\u793e\u5340", "RouteId": 301, "SeqNo": 37, "Terminal": 0, "DistrictId": 1, "Latitude": 22.672475, "Longitude": 120.29185, "IVRNo": 7577, "EXTVoiceNo": 7577, "traveltime": 0, "holidayTraveltime": 0}, {"Id": "7525", "pgp": 0, "GoBack": 1, "SID": 5154, "NameZh": "\u5de6\u71df\u706b\u8eca\u7ad9", "RouteId": 301, "SeqNo": 38, "Terminal": 0, "DistrictId": 1, "Latitude": 22.675013, "Longitude": 120.294238, "IVRNo": 7525, "EXTVoiceNo": 7525, "traveltime": 0, "holidayTraveltime": 0}, {"Id": "7582", "pgp": 0, "GoBack": 1, "SID": 5158, "NameZh": "\u84ee\u6f6d\u6703\u9928", "RouteId": 301, "SeqNo": 39, "Terminal": 0, "DistrictId": 1, "Latitude": 22.678275, "Longitude": 120.299575, "IVRNo": 7582, "EXTVoiceNo": 7582, "traveltime": 0, "holidayTraveltime": 0}, {"Id": "7527", "pgp": 0, "GoBack": 1, "SID": 5162, "NameZh": "\u5d07\u5fb7\u8def", "RouteId": 301, "SeqNo": 40, "Terminal": 0, "DistrictId": 1, "Latitude": 22.676867, "Longitude": 120.301832, "IVRNo": 7527, "EXTVoiceNo": 7527, "traveltime": 0, "holidayTraveltime": 0}, {"Id": "7528", "pgp": 0, "GoBack": 1, "SID": 5167, "NameZh": "\u535a\u611b\u8def\u53e3(\u5d07\u5fb7\u8def)", "RouteId": 301, "SeqNo": 41, "Terminal": 0, "DistrictId": 1, "Latitude": 22.675275, "Longitude": 120.304474, "IVRNo": 250, "EXTVoiceNo": 7528, "traveltime": 0, "holidayTraveltime": 0}, {"Id": "5015", "pgp": 0, "GoBack": 1, "SID": 3590, "NameZh": "\u81f3\u771f\u8def\u53e3", "RouteId": 301, "SeqNo": 42, "Terminal": 0, "DistrictId": 1, "Latitude": 22.67214, "Longitude": 120.3041, "IVRNo": 5015, "EXTVoiceNo": 5015, "traveltime": 0, "holidayTraveltime": 0}, {"Id": "5016", "pgp": 0, "GoBack": 1, "SID": 3594, "NameZh": "\u6f22\u795e\u5de8\u86cb", "RouteId": 301, "SeqNo": 43, "Terminal": 0, "DistrictId": 1, "Latitude": 22.66866, "Longitude": 120.30319, "IVRNo": 2221, "EXTVoiceNo": 5016, "traveltime": 0, "holidayTraveltime": 0}, {"Id": "5623", "pgp": 0, "GoBack": 1, "SID": 3597, "NameZh": "\u6377\u904b\u5de8\u86cb\u7ad9", "RouteId": 301, "SeqNo": 44, "Terminal": 0, "DistrictId": 1, "Latitude": 22.664969, "Longitude": 120.303, "IVRNo": 2220, "EXTVoiceNo": 5623, "traveltime": 0, "holidayTraveltime": 0}, {"Id": "1128", "pgp": 0, "GoBack": 1, "SID": 3600, "NameZh": "\u660e\u8aa0\u8def\u53e3(\u535a\u611b\u4e8c\u8def)", "RouteId": 301, "SeqNo": 45, "Terminal": 0, "DistrictId": 1, "Latitude": 22.661902, "Longitude": 120.302991, "IVRNo": 1128, "EXTVoiceNo": 1128, "traveltime": 0, "holidayTraveltime": 0}, {"Id": "4062", "pgp": 0, "GoBack": 1, "SID": 3607, "NameZh": "\u6377\u904b\u51f9\u5b50\u5e95\u7ad9", "RouteId": 301, "SeqNo": 46, "Terminal": 0, "DistrictId": 1, "Latitude": 22.65681, "Longitude": 120.30304, "IVRNo": 4033, "EXTVoiceNo": 4062, "traveltime": 0, "holidayTraveltime": 0}, {"Id": "4019", "pgp": 0, "GoBack": 1, "SID": 3612, "NameZh": "\u9f8d\u5fb7\u8def\u53e3(\u535a\u611b\u4e00\u8def)", "RouteId": 301, "SeqNo": 47, "Terminal": 0, "DistrictId": 1, "Latitude": 22.654063, "Longitude": 120.303486, "IVRNo": 4019, "EXTVoiceNo": 4019, "traveltime": 0, "holidayTraveltime": 0}, {"Id": "5022", "pgp": 0, "GoBack": 1, "SID": 3615, "NameZh": "\u540c\u76df\u8def\u53e3", "RouteId": 301, "SeqNo": 48, "Terminal": 0, "DistrictId": 1, "Latitude": 22.650605, "Longitude": 120.303358, "IVRNo": 5022, "EXTVoiceNo": 5022, "traveltime": 0, "holidayTraveltime": 0}, {"Id": "5024", "pgp": 0, "GoBack": 1, "SID": 3616, "NameZh": "\u6377\u904b\u5f8c\u9a5b\u7ad9", "RouteId": 301, "SeqNo": 49, "Terminal": 0, "DistrictId": 1, "Latitude": 22.648288, "Longitude": 120.303261, "IVRNo": 2838, "EXTVoiceNo": 5024, "traveltime": 0, "holidayTraveltime": 0}, {"Id": "7619", "pgp": 0, "GoBack": 1, "SID": 12636, "NameZh": "\u5bdf\u54c8\u723e\u4e8c\u8857(\u6377\u904b\u5f8c\u9a5b\u7ad9)", "RouteId": 301, "SeqNo": 50, "Terminal": 0, "DistrictId": 1, "Latitude": 22.647773, "Longitude": 120.301662, "IVRNo": 7619, "EXTVoiceNo": 7619, "traveltime": 0, "holidayTraveltime": 0}, {"Id": "0164", "pgp": 0, "GoBack": 1, "SID": 1638, "NameZh": "\u5341\u5168\u570b\u5c0f(\u5bdf\u54c8\u723e\u4e8c\u8857)", "RouteId": 301, "SeqNo": 51, "Terminal": 0, "DistrictId": 1, "Latitude": 22.647977, "Longitude": 120.298969, "IVRNo": 164, "EXTVoiceNo": 164, "traveltime": 0, "holidayTraveltime": 0}, {"Id": "5635", "pgp": 0, "GoBack": 1, "SID": 3624, "NameZh": "\u5bdf\u54c8\u723e\u8857\u53e3", "RouteId": 301, "SeqNo": 52, "Terminal": 0, "DistrictId": 1, "Latitude": 22.646901, "Longitude": 120.296559, "IVRNo": 5635, "EXTVoiceNo": 5635, "traveltime": 0, "holidayTraveltime": 0}, {"Id": "9993", "pgp": 0, "GoBack": 1, "SID": 15278, "NameZh": "\u9ad8\u5ba2\u81ea\u7acb\u7ad9", "RouteId": 301, "SeqNo": 53, "Terminal": 0, "DistrictId": 1, "Latitude": 22.644787, "Longitude": 120.296466, "IVRNo": 19993, "EXTVoiceNo": 19993, "traveltime": 0, "holidayTraveltime": 0}, {"Id": "0239", "pgp": 0, "GoBack": 1, "SID": 1592, "NameZh": "\u907c\u5be7\u8857\u53e3(\u81ea\u7acb\u8def)", "RouteId": 301, "SeqNo": 54, "Terminal": 0, "DistrictId": 1, "Latitude": 22.642015, "Longitude": 120.296186, "IVRNo": 239, "EXTVoiceNo": 239, "traveltime": 0, "holidayTraveltime": 0}, {"Id": "0240", "pgp": 0, "GoBack": 1, "SID": 1603, "NameZh": "\u9ad8\u96c4\u4e2d\u5b78", "RouteId": 301, "SeqNo": 55, "Terminal": 0, "DistrictId": 1, "Latitude": 22.637871, "Longitude": 120.297405, "IVRNo": 240, "EXTVoiceNo": 240, "traveltime": 0, "holidayTraveltime": 0}, {"Id": "0248", "pgp": 0, "GoBack": 1, "SID": 7270, "NameZh": "\u9ad8\u96c4\u706b\u8eca\u7ad9(\u540c\u611b\u8857\u53e3)", "RouteId": 301, "SeqNo": 56, "Terminal": 0, "DistrictId": 1, "Latitude": 22.637808, "Longitude": 120.300921, "IVRNo": 241, "EXTVoiceNo": 20248, "traveltime": 0, "holidayTraveltime": 0}, {"Id": "0248", "pgp": 0, "GoBack": 2, "SID": 4461, "NameZh": "\u9ad8\u96c4\u706b\u8eca\u7ad9(\u540c\u611b\u8857\u53e3)", "RouteId": 301, "SeqNo": 1, "Terminal": 0, "DistrictId": 1, "Latitude": 22.637869, "Longitude": 120.301091, "IVRNo": 241, "EXTVoiceNo": 20248, "traveltime": 0, "holidayTraveltime": 0}, {"Id": "0240", "pgp": 0, "GoBack": 2, "SID": 1604, "NameZh": "\u9ad8\u96c4\u4e2d\u5b78", "RouteId": 301, "SeqNo": 2, "Terminal": 0, "DistrictId": 1, "Latitude": 22.63793, "Longitude": 120.297409, "IVRNo": 240, "EXTVoiceNo": 240, "traveltime": 0, "holidayTraveltime": 0}, {"Id": "0239", "pgp": 0, "GoBack": 2, "SID": 1668, "NameZh": "\u907c\u5be7\u8857\u53e3(\u81ea\u7acb\u8def)", "RouteId": 301, "SeqNo": 3, "Terminal": 0, "DistrictId": 1, "Latitude": 22.642015, "Longitude": 120.296239, "IVRNo": 239, "EXTVoiceNo": 239, "traveltime": 0, "holidayTraveltime": 0}, {"Id": "9993", "pgp": 0, "GoBack": 2, "SID": 15289, "NameZh": "\u9ad8\u5ba2\u81ea\u7acb\u7ad9", "RouteId": 301, "SeqNo": 4, "Terminal": 0, "DistrictId": 1, "Latitude": 22.645115, "Longitude": 120.296501, "IVRNo": 19993, "EXTVoiceNo": 19993, "traveltime": 0, "holidayTraveltime": 0}, {"Id": "5635", "pgp": 0, "GoBack": 2, "SID": 7901, "NameZh": "\u5bdf\u54c8\u723e\u8857\u53e3", "RouteId": 301, "SeqNo": 5, "Terminal": 0, "DistrictId": 1, "Latitude": 22.646734, "Longitude": 120.29666, "IVRNo": 5635, "EXTVoiceNo": 5635, "traveltime": 0, "holidayTraveltime": 0}, {"Id": "0164", "pgp": 0, "GoBack": 2, "SID": 2067, "NameZh": "\u5341\u5168\u570b\u5c0f(\u5bdf\u54c8\u723e\u4e8c\u8857)", "RouteId": 301, "SeqNo": 6, "Terminal": 0, "DistrictId": 1, "Latitude": 22.647952, "Longitude": 120.29821, "IVRNo": 164, "EXTVoiceNo": 164, "traveltime": 0, "holidayTraveltime": 0}, {"Id": "7619", "pgp": 0, "GoBack": 2, "SID": 7475, "NameZh": "\u5bdf\u54c8\u723e\u4e8c\u8857(\u6377\u904b\u5f8c\u9a5b\u7ad9)", "RouteId": 301, "SeqNo": 7, "Terminal": 0, "DistrictId": 1, "Latitude": 22.647655, "Longitude": 120.301902, "IVRNo": 7619, "EXTVoiceNo": 7619, "traveltime": 0, "holidayTraveltime": 0}, {"Id": "5024", "pgp": 0, "GoBack": 2, "SID": 2048, "NameZh": "\u6377\u904b\u5f8c\u9a5b\u7ad9", "RouteId": 301, "SeqNo": 8, "Terminal": 0, "DistrictId": 1, "Latitude": 22.647938, "Longitude": 120.303361, "IVRNo": 2838, "EXTVoiceNo": 5024, "traveltime": 0, "holidayTraveltime": 0}, {"Id": "5022", "pgp": 0, "GoBack": 2, "SID": 3641, "NameZh": "\u540c\u76df\u8def\u53e3", "RouteId": 301, "SeqNo": 9, "Terminal": 0, "DistrictId": 1, "Latitude": 22.651571, "Longitude": 120.303662, "IVRNo": 5022, "EXTVoiceNo": 5022, "traveltime": 0, "holidayTraveltime": 0}, {"Id": "4019", "pgp": 0, "GoBack": 2, "SID": 3642, "NameZh": "\u9f8d\u5fb7\u8def\u53e3(\u535a\u611b\u4e00\u8def)", "RouteId": 301, "SeqNo": 10, "Terminal": 0, "DistrictId": 1, "Latitude": 22.654119, "Longitude": 120.303594, "IVRNo": 4019, "EXTVoiceNo": 4019, "traveltime": 0, "holidayTraveltime": 0}, {"Id": "4062", "pgp": 0, "GoBack": 2, "SID": 3644, "NameZh": "\u6377\u904b\u51f9\u5b50\u5e95\u7ad9", "RouteId": 301, "SeqNo": 11, "Terminal": 0, "DistrictId": 1, "Latitude": 22.657141, "Longitude": 120.303177, "IVRNo": 4033, "EXTVoiceNo": 4062, "traveltime": 0, "holidayTraveltime": 0}, {"Id": "1128", "pgp": 0, "GoBack": 2, "SID": 3650, "NameZh": "\u660e\u8aa0\u8def\u53e3(\u535a\u611b\u4e8c\u8def)", "RouteId": 301, "SeqNo": 12, "Terminal": 0, "DistrictId": 1, "Latitude": 22.660683, "Longitude": 120.303075, "IVRNo": 1128, "EXTVoiceNo": 1128, "traveltime": 0, "holidayTraveltime": 0}, {"Id": "0358", "pgp": 0, "GoBack": 2, "SID": 5141, "NameZh": "\u7acb\u6587\u8def\u53e3", "RouteId": 301, "SeqNo": 13, "Terminal": 0, "DistrictId": 1, "Latitude": 22.66423, "Longitude": 120.30333, "IVRNo": 7515, "EXTVoiceNo": 20358, "traveltime": 0, "holidayTraveltime": 0}, {"Id": "5623", "pgp": 0, "GoBack": 2, "SID": 3651, "NameZh": "\u6377\u904b\u5de8\u86cb\u7ad9", "RouteId": 301, "SeqNo": 14, "Terminal": 0, "DistrictId": 1, "Latitude": 22.666086, "Longitude": 120.30349, "IVRNo": 2220, "EXTVoiceNo": 5623, "traveltime": 0, "holidayTraveltime": 0}, {"Id": "5016", "pgp": 0, "GoBack": 2, "SID": 3656, "NameZh": "\u6f22\u795e\u5de8\u86cb", "RouteId": 301, "SeqNo": 15, "Terminal": 0, "DistrictId": 1, "Latitude": 22.669811, "Longitude": 120.303363, "IVRNo": 2221, "EXTVoiceNo": 5016, "traveltime": 0, "holidayTraveltime": 0}, {"Id": "5015", "pgp": 0, "GoBack": 2, "SID": 3661, "NameZh": "\u81f3\u771f\u8def\u53e3", "RouteId": 301, "SeqNo": 16, "Terminal": 0, "DistrictId": 1, "Latitude": 22.671665, "Longitude": 120.304166, "IVRNo": 5015, "EXTVoiceNo": 5015, "traveltime": 0, "holidayTraveltime": 0}, {"Id": "7528", "pgp": 0, "GoBack": 2, "SID": 5187, "NameZh": "\u535a\u611b\u8def\u53e3(\u5d07\u5fb7\u8def)", "RouteId": 301, "SeqNo": 17, "Terminal": 0, "DistrictId": 1, "Latitude": 22.67536, "Longitude": 120.304441, "IVRNo": 250, "EXTVoiceNo": 7528, "traveltime": 0, "holidayTraveltime": 0}, {"Id": "7527", "pgp": 0, "GoBack": 2, "SID": 5188, "NameZh": "\u5d07\u5fb7\u8def", "RouteId": 301, "SeqNo": 18, "Terminal": 0, "DistrictId": 1, "Latitude": 22.67693, "Longitude": 120.301773, "IVRNo": 7527, "EXTVoiceNo": 7527, "traveltime": 0, "holidayTraveltime": 0}, {"Id": "7582", "pgp": 0, "GoBack": 2, "SID": 5195, "NameZh": "\u84ee\u6f6d\u6703\u9928", "RouteId": 301, "SeqNo": 19, "Terminal": 0, "DistrictId": 1, "Latitude": 22.678275, "Longitude": 120.299575, "IVRNo": 7582, "EXTVoiceNo": 7582, "traveltime": 0, "holidayTraveltime": 0}, {"Id": "7525", "pgp": 0, "GoBack": 2, "SID": 5181, "NameZh": "\u5de6\u71df\u706b\u8eca\u7ad9", "RouteId": 301, "SeqNo": 20, "Terminal": 0, "DistrictId": 1, "Latitude": 22.675072, "Longitude": 120.293758, "IVRNo": 7525, "EXTVoiceNo": 7525, "traveltime": 0, "holidayTraveltime": 0}, {"Id": "7577", "pgp": 0, "GoBack": 2, "SID": 5183, "NameZh": "\u7fe0\u83ef\u793e\u5340", "RouteId": 301, "SeqNo": 21, "Terminal": 0, "DistrictId": 1, "Latitude": 22.672519, "Longitude": 120.291358, "IVRNo": 7577, "EXTVoiceNo": 7577, "traveltime": 0, "holidayTraveltime": 0}, {"Id": "8206", "pgp": 0, "GoBack": 2, "SID": 5496, "NameZh": "\u7fe0\u5cf0\u8def", "RouteId": 301, "SeqNo": 22, "Terminal": 0, "DistrictId": 1, "Latitude": 22.672352, "Longitude": 120.288466, "IVRNo": 8206, "EXTVoiceNo": 8206, "traveltime": 0, "holidayTraveltime": 0}, {"Id": "8205", "pgp": 0, "GoBack": 2, "SID": 5500, "NameZh": "\u7fe0\u83ef\u570b\u5b85", "RouteId": 301, "SeqNo": 23, "Terminal": 0, "DistrictId": 1, "Latitude": 22.673961, "Longitude": 120.289213, "IVRNo": 8205, "EXTVoiceNo": 8205, "traveltime": 0, "holidayTraveltime": 0}, {"Id": "8204", "pgp": 0, "GoBack": 2, "SID": 5502, "NameZh": "\u57ce\u5cf0\u8def", "RouteId": 301, "SeqNo": 24, "Terminal": 0, "DistrictId": 1, "Latitude": 22.67608, "Longitude": 120.292375, "IVRNo": 8204, "EXTVoiceNo": 8204, "traveltime": 0, "holidayTraveltime": 0}, {"Id": "7584", "pgp": 0, "GoBack": 2, "SID": 5203, "NameZh": "\u84ee\u6c60\u6f6d(\u52dd\u5229\u8def)", "RouteId": 301, "SeqNo": 25, "Terminal": 0, "DistrictId": 1, "Latitude": 22.679886, "Longitude": 120.291975, "IVRNo": 7524, "EXTVoiceNo": 7584, "traveltime": 0, "holidayTraveltime": 0}, {"Id": "7585", "pgp": 0, "GoBack": 2, "SID": 5204, "NameZh": "\u52dd\u5229\u8def", "RouteId": 301, "SeqNo": 26, "Terminal": 0, "DistrictId": 1, "Latitude": 22.680838, "Longitude": 120.289577, "IVRNo": 7523, "EXTVoiceNo": 7585, "traveltime": 0, "holidayTraveltime": 0}, {"Id": "4763", "pgp": 0, "GoBack": 2, "SID": 3257, "NameZh": "\u5de6\u71df\u8fb2\u6703", "RouteId": 301, "SeqNo": 27, "Terminal": 0, "DistrictId": 1, "Latitude": 22.681991, "Longitude": 120.288144, "IVRNo": 4725, "EXTVoiceNo": 4763, "traveltime": 0, "holidayTraveltime": 0}, {"Id": "4762", "pgp": 0, "GoBack": 2, "SID": 3268, "NameZh": "\u5e97\u4ed4\u9802\u8def\u53e3", "RouteId": 301, "SeqNo": 28, "Terminal": 0, "DistrictId": 1, "Latitude": 22.685113, "Longitude": 120.289725, "IVRNo": 4726, "EXTVoiceNo": 4762, "traveltime": 0, "holidayTraveltime": 0}, {"Id": "4761", "pgp": 0, "GoBack": 2, "SID": 3283, "NameZh": "\u5de6\u71df\u5927\u8def", "RouteId": 301, "SeqNo": 29, "Terminal": 0, "DistrictId": 1, "Latitude": 22.686255, "Longitude": 120.291088, "IVRNo": 4727, "EXTVoiceNo": 4761, "traveltime": 0, "holidayTraveltime": 0}, {"Id": "4760", "pgp": 0, "GoBack": 2, "SID": 3293, "NameZh": "\u5de6\u71df\u5e02\u5834", "RouteId": 301, "SeqNo": 30, "Terminal": 0, "DistrictId": 1, "Latitude": 22.687602, "Longitude": 120.293505, "IVRNo": 4728, "EXTVoiceNo": 4760, "traveltime": 0, "holidayTraveltime": 0}, {"Id": "0614", "pgp": 0, "GoBack": 2, "SID": 5892, "NameZh": "\u8c50\u7a40\u5bae(\u9032\u5b78\u8def\u53e3)", "RouteId": 301, "SeqNo": 31, "Terminal": 0, "DistrictId": 1, "Latitude": 22.690508, "Longitude": 120.296372, "IVRNo": 9001, "EXTVoiceNo": 20614, "traveltime": 0, "holidayTraveltime": 0}, {"Id": "4787", "pgp": 0, "GoBack": 2, "SID": 3504, "NameZh": "\u83dc\u516c\u8def\u53e3(\u5de6\u71df\u5927\u8def)", "RouteId": 301, "SeqNo": 32, "Terminal": 0, "DistrictId": 1, "Latitude": 22.691844, "Longitude": 120.297992, "IVRNo": 4786, "EXTVoiceNo": 4787, "traveltime": 0, "holidayTraveltime": 0}, {"Id": "7516", "pgp": 0, "GoBack": 2, "SID": 5172, "NameZh": "\u6d77\u529f\u6771\u8def", "RouteId": 301, "SeqNo": 33, "Terminal": 0, "DistrictId": 1, "Latitude": 22.693513, "Longitude": 120.29968, "IVRNo": 7516, "EXTVoiceNo": 7516, "traveltime": 0, "holidayTraveltime": 0}, {"Id": "7512", "pgp": 0, "GoBack": 2, "SID": 5137, "NameZh": "\u5c4f\u5c71\u570b\u5c0f", "RouteId": 301, "SeqNo": 34, "Terminal": 0, "DistrictId": 1, "Latitude": 22.693561, "Longitude": 120.301972, "IVRNo": 7511, "EXTVoiceNo": 7512, "traveltime": 0, "holidayTraveltime": 0}, {"Id": "8767", "pgp": 0, "GoBack": 2, "SID": 5725, "NameZh": "\u83dc\u516c\u4e00\u8def\u53e3", "RouteId": 301, "SeqNo": 35, "Terminal": 0, "DistrictId": 1, "Latitude": 22.687202, "Longitude": 120.304628, "IVRNo": 8767, "EXTVoiceNo": 8767, "traveltime": 0, "holidayTraveltime": 0}, {"Id": "0287", "pgp": 0, "GoBack": 2, "SID": 5177, "NameZh": "\u53f0\u9435\u65b0\u5de6\u71df\u7ad9", "RouteId": 301, "SeqNo": 36, "Terminal": 0, "DistrictId": 1, "Latitude": 22.68866, "Longitude": 120.30758, "IVRNo": 7517, "EXTVoiceNo": 20287, "traveltime": 0, "holidayTraveltime": 0}, {"Id": "0279", "pgp": 0, "GoBack": 2, "SID": 5733, "NameZh": "\u534a\u5c4f\u5c71\u5f8c\u5df7", "RouteId": 301, "SeqNo": 37, "Terminal": 0, "DistrictId": 1, "Latitude": 22.6893, "Longitude": 120.30623, "IVRNo": 8775, "EXTVoiceNo": 20279, "traveltime": 0, "holidayTraveltime": 0}, {"Id": "7512", "pgp": 0, "GoBack": 2, "SID": 5138, "NameZh": "\u5c4f\u5c71\u570b\u5c0f", "RouteId": 301, "SeqNo": 38, "Terminal": 0, "DistrictId": 1, "Latitude": 22.693556, "Longitude": 120.302272, "IVRNo": 7511, "EXTVoiceNo": 7512, "traveltime": 0, "holidayTraveltime": 0}, {"Id": "1021", "pgp": 0, "GoBack": 2, "SID": 3304, "NameZh": "\u534a\u5c4f\u5c71(\u5de6\u71df\u5927\u8def)", "RouteId": 301, "SeqNo": 39, "Terminal": 0, "DistrictId": 1, "Latitude": 22.69395, "Longitude": 120.29945, "IVRNo": 1021, "EXTVoiceNo": 1021, "traveltime": 0, "holidayTraveltime": 0}, {"Id": "4756", "pgp": 0, "GoBack": 2, "SID": 3312, "NameZh": "\u7965\u548c\u5c71\u838a", "RouteId": 301, "SeqNo": 40, "Terminal": 0, "DistrictId": 1, "Latitude": 22.697383, "Longitude": 120.301719, "IVRNo": 4732, "EXTVoiceNo": 4756, "traveltime": 0, "holidayTraveltime": 0}, {"Id": "4734", "pgp": 0, "GoBack": 2, "SID": 3316, "NameZh": "\u7149\u6cb9\u5ee0(\u6377\u904b\u4e16\u904b\u7ad9)", "RouteId": 301, "SeqNo": 41, "Terminal": 0, "DistrictId": 1, "Latitude": 22.703269, "Longitude": 120.302483, "IVRNo": 4734, "EXTVoiceNo": 4734, "traveltime": 0, "holidayTraveltime": 0}, {"Id": "4753", "pgp": 0, "GoBack": 2, "SID": 3324, "NameZh": "\u6377\u904b\u6cb9\u5ee0\u570b\u5c0f\u7ad9", "RouteId": 301, "SeqNo": 42, "Terminal": 0, "DistrictId": 1, "Latitude": 22.707844, "Longitude": 120.302949, "IVRNo": 4735, "EXTVoiceNo": 4753, "traveltime": 0, "holidayTraveltime": 0}, {"Id": "4752", "pgp": 0, "GoBack": 2, "SID": 3326, "NameZh": "\u570b\u5149\u4e2d\u5b78", "RouteId": 301, "SeqNo": 43, "Terminal": 0, "DistrictId": 1, "Latitude": 22.708222, "Longitude": 120.306194, "IVRNo": 4736, "EXTVoiceNo": 4752, "traveltime": 0, "holidayTraveltime": 0}, {"Id": "4751", "pgp": 0, "GoBack": 2, "SID": 3329, "NameZh": "\u5f8c\u52c1\u5bbf\u820d", "RouteId": 301, "SeqNo": 44, "Terminal": 0, "DistrictId": 1, "Latitude": 22.711638, "Longitude": 120.308222, "IVRNo": 4737, "EXTVoiceNo": 4751, "traveltime": 0, "holidayTraveltime": 0}, {"Id": "4750", "pgp": 0, "GoBack": 2, "SID": 3330, "NameZh": "\u5f8c\u52c1\u6d3e\u51fa\u6240", "RouteId": 301, "SeqNo": 45, "Terminal": 0, "DistrictId": 1, "Latitude": 22.716388, "Longitude": 120.309833, "IVRNo": 4738, "EXTVoiceNo": 4750, "traveltime": 0, "holidayTraveltime": 0}, {"Id": "4739", "pgp": 0, "GoBack": 2, "SID": 5208, "NameZh": "\u5f8c\u52c1", "RouteId": 301, "SeqNo": 46, "Terminal": 0, "DistrictId": 1, "Latitude": 22.71858, "Longitude": 120.310561, "IVRNo": 4739, "EXTVoiceNo": 4739, "traveltime": 0, "holidayTraveltime": 0}, {"Id": "7009", "pgp": 0, "GoBack": 2, "SID": 4578, "NameZh": "\u5f8c\u52c1\u570b\u5c0f(\u6377\u904b\u5f8c\u52c1\u7ad9)", "RouteId": 301, "SeqNo": 47, "Terminal": 0, "DistrictId": 1, "Latitude": 22.721158, "Longitude": 120.313597, "IVRNo": 7083, "EXTVoiceNo": 7009, "traveltime": 0, "holidayTraveltime": 0}, {"Id": "7010", "pgp": 0, "GoBack": 2, "SID": 4584, "NameZh": "\u5f8c\u52c1\u570b\u4e2d(\u6377\u904b\u5f8c\u52c1\u7ad9)", "RouteId": 301, "SeqNo": 48, "Terminal": 0, "DistrictId": 1, "Latitude": 22.72196, "Longitude": 120.31577, "IVRNo": 7010, "EXTVoiceNo": 7010, "traveltime": 0, "holidayTraveltime": 0}, {"Id": "7508", "pgp": 0, "GoBack": 2, "SID": 5209, "NameZh": "\u9ad8\u6960\u9678\u6a4b(\u6377\u904b\u90fd\u6703\u516c\u5712\u7ad9)", "RouteId": 301, "SeqNo": 49, "Terminal": 0, "DistrictId": 1, "Latitude": 22.727901, "Longitude": 120.321587, "IVRNo": 7508, "EXTVoiceNo": 7508, "traveltime": 0, "holidayTraveltime": 0}, {"Id": "1283", "pgp": 0, "GoBack": 2, "SID": 5464, "NameZh": "\u6377\u904b\u90fd\u6703\u516c\u5712\u7ad9", "RouteId": 301, "SeqNo": 50, "Terminal": 0, "DistrictId": 1, "Latitude": 22.7303, "Longitude": 120.32088, "IVRNo": 1283, "EXTVoiceNo": 1283, "traveltime": 0, "holidayTraveltime": 0}, {"Id": "7507", "pgp": 0, "GoBack": 2, "SID": 5213, "NameZh": "\u76e3\u7406\u8655(\u90fd\u6703\u516c\u5712)", "RouteId": 301, "SeqNo": 51, "Terminal": 0, "DistrictId": 1, "Latitude": 22.73118, "Longitude": 120.31651, "IVRNo": 7507, "EXTVoiceNo": 7507, "traveltime": 0, "holidayTraveltime": 0}, {"Id": "7506", "pgp": 0, "GoBack": 2, "SID": 5216, "NameZh": "\u6771\u7fe0\u5c4f\u91cc", "RouteId": 301, "SeqNo": 52, "Terminal": 0, "DistrictId": 1, "Latitude": 22.72798, "Longitude": 120.31226, "IVRNo": 7506, "EXTVoiceNo": 7506, "traveltime": 0, "holidayTraveltime": 0}, {"Id": "7505", "pgp": 0, "GoBack": 2, "SID": 5218, "NameZh": "\u6d77\u5c08\u8def\u53e3", "RouteId": 301, "SeqNo": 53, "Terminal": 0, "DistrictId": 1, "Latitude": 22.72647, "Longitude": 120.3098, "IVRNo": 7505, "EXTVoiceNo": 7505, "traveltime": 0, "holidayTraveltime": 0}, {"Id": "7595", "pgp": 0, "GoBack": 2, "SID": 5221, "NameZh": "\u52a0\u5de5\u5340\u5317\u9580", "RouteId": 301, "SeqNo": 54, "Terminal": 0, "DistrictId": 1, "Latitude": 22.72563, "Longitude": 120.30531, "IVRNo": 7504, "EXTVoiceNo": 7595, "traveltime": 0, "holidayTraveltime": 0}, {"Id": "7503", "pgp": 0, "GoBack": 2, "SID": 5223, "NameZh": "\u5f69\u8679\u57ce", "RouteId": 301, "SeqNo": 55, "Terminal": 0, "DistrictId": 1, "Latitude": 22.7249, "Longitude": 120.30072, "IVRNo": 7503, "EXTVoiceNo": 7503, "traveltime": 0, "holidayTraveltime": 0}, {"Id": "1235", "pgp": 0, "GoBack": 2, "SID": 5226, "NameZh": "\u5fb7\u6c11\u8def(\u5916\u74b0\u897f\u8def\u53e3)", "RouteId": 301, "SeqNo": 56, "Terminal": 0, "DistrictId": 1, "Latitude": 22.72405, "Longitude": 120.2992, "IVRNo": 1235, "EXTVoiceNo": 1235, "traveltime": 0, "holidayTraveltime": 0}, {"Id": "7001", "pgp": 0, "GoBack": 2, "SID": 4554, "NameZh": "\u52a0\u660c\u7ad9", "RouteId": 301, "SeqNo": 57, "Terminal": 1, "DistrictId": 1, "Latitude": 22.719128, "Longitude": 120.298488, "IVRNo": 7000, "EXTVoiceNo": 7001, "traveltime": 0, "holidayTraveltime": 0}]}