{"en": [{"Id": "2001", "pgp": 0, "GoBack": 1, "SID": 960, "NameZh": "Siaogang Station", "RouteId": 362, "SeqNo": 1, "Terminal": 0, "DistrictId": 1, "Latitude": 22.56537, "Longitude": 120.3412, "IVRNo": 2000, "EXTVoiceNo": 2001, "traveltime": 0, "holidayTraveltime": 0}, {"Id": "2002", "pgp": 0, "GoBack": 1, "SID": 972, "NameZh": "Siaogang Precinct", "RouteId": 362, "SeqNo": 2, "Terminal": 0, "DistrictId": 1, "Latitude": 22.565616, "Longitude": 120.344284, "IVRNo": 2002, "EXTVoiceNo": 2002, "traveltime": 0, "holidayTraveltime": 0}, {"Id": "2303", "pgp": 0, "GoBack": 1, "SID": 1721, "NameZh": "Erling (Daye N. Rd.)", "RouteId": 362, "SeqNo": 3, "Terminal": 0, "DistrictId": 1, "Latitude": 22.5649, "Longitude": 120.346404, "IVRNo": 2052, "EXTVoiceNo": 2303, "traveltime": 0, "holidayTraveltime": 0}, {"Id": "2570", "pgp": 0, "GoBack": 1, "SID": 1725, "NameZh": "Daye N. Rd.", "RouteId": 362, "SeqNo": 4, "Terminal": 0, "DistrictId": 1, "Latitude": 22.562976, "Longitude": 120.348092, "IVRNo": 2504, "EXTVoiceNo": 2570, "traveltime": 0, "holidayTraveltime": 0}, {"Id": "2504", "pgp": 0, "GoBack": 1, "SID": 1728, "NameZh": "Dianbei Rd. Intersection", "RouteId": 362, "SeqNo": 5, "Terminal": 0, "DistrictId": 1, "Latitude": 22.563612, "Longitude": 120.350301, "IVRNo": 2505, "EXTVoiceNo": 2504, "traveltime": 0, "holidayTraveltime": 0}, {"Id": "2339", "pgp": 0, "GoBack": 1, "SID": 1430, "NameZh": "Erling Elementary School (MRT Siaogang Station)", "RouteId": 362, "SeqNo": 6, "Terminal": 0, "DistrictId": 1, "Latitude": 22.565778, "Longitude": 120.35181, "IVRNo": 2339, "EXTVoiceNo": 2339, "traveltime": 0, "holidayTraveltime": 0}, {"Id": "6028", "pgp": 0, "GoBack": 1, "SID": 4483, "NameZh": "MRT Siaogang Station", "RouteId": 362, "SeqNo": 7, "Terminal": 0, "DistrictId": 1, "Latitude": 22.564926, "Longitude": 120.353538, "IVRNo": 2040, "EXTVoiceNo": 6028, "traveltime": 0, "holidayTraveltime": 0}, {"Id": "2306", "pgp": 0, "GoBack": 1, "SID": 1434, "NameZh": "Kaohsiung Municipal Chungshang Junior High School", "RouteId": 362, "SeqNo": 8, "Terminal": 0, "DistrictId": 1, "Latitude": 22.566834, "Longitude": 120.355383, "IVRNo": 2306, "EXTVoiceNo": 2306, "traveltime": 0, "holidayTraveltime": 0}, {"Id": "2307", "pgp": 0, "GoBack": 1, "SID": 1446, "NameZh": "Siaogang Senior High School", "RouteId": 362, "SeqNo": 9, "Terminal": 0, "DistrictId": 1, "Latitude": 22.566786, "Longitude": 120.35778, "IVRNo": 2307, "EXTVoiceNo": 2307, "traveltime": 0, "holidayTraveltime": 0}, {"Id": "2309", "pgp": 0, "GoBack": 1, "SID": 1451, "NameZh": "Sinfong St. Intersection", "RouteId": 362, "SeqNo": 10, "Terminal": 0, "DistrictId": 1, "Latitude": 22.567041, "Longitude": 120.360608, "IVRNo": 2309, "EXTVoiceNo": 2309, "traveltime": 0, "holidayTraveltime": 0}, {"Id": "2409", "pgp": 0, "GoBack": 1, "SID": 1612, "NameZh": "Kaohsiung Municipal Siaogang Hospital (Hanmin Rd. Intersection)", "RouteId": 362, "SeqNo": 11, "Terminal": 0, "DistrictId": 1, "Latitude": 22.568212, "Longitude": 120.362546, "IVRNo": 2430, "EXTVoiceNo": 2409, "traveltime": 0, "holidayTraveltime": 0}, {"Id": "2410", "pgp": 0, "GoBack": 1, "SID": 11461, "NameZh": "Shanming Rd. (Hongping Rd. Intersection)", "RouteId": 362, "SeqNo": 12, "Terminal": 0, "DistrictId": 1, "Latitude": 22.569357, "Longitude": 120.362025, "IVRNo": 2410, "EXTVoiceNo": 2410, "traveltime": 0, "holidayTraveltime": 0}, {"Id": "2014", "pgp": 0, "GoBack": 1, "SID": 995, "NameZh": "Songbo St. Intersection", "RouteId": 362, "SeqNo": 13, "Terminal": 0, "DistrictId": 1, "Latitude": 22.57039, "Longitude": 120.362392, "IVRNo": 2014, "EXTVoiceNo": 2014, "traveltime": 0, "holidayTraveltime": 0}, {"Id": "2013", "pgp": 0, "GoBack": 1, "SID": 1184, "NameZh": "Hongwun Rd. Intersection", "RouteId": 362, "SeqNo": 14, "Terminal": 0, "DistrictId": 1, "Latitude": 22.571457, "Longitude": 120.363918, "IVRNo": 2013, "EXTVoiceNo": 2013, "traveltime": 0, "holidayTraveltime": 0}, {"Id": "2012", "pgp": 0, "GoBack": 1, "SID": 1189, "NameZh": "Feiji Rd. Intersection", "RouteId": 362, "SeqNo": 15, "Terminal": 0, "DistrictId": 1, "Latitude": 22.572266, "Longitude": 120.365118, "IVRNo": 2012, "EXTVoiceNo": 2012, "traveltime": 0, "holidayTraveltime": 0}, {"Id": "2081", "pgp": 0, "GoBack": 1, "SID": 1190, "NameZh": "Hongping Rd. Intersection", "RouteId": 362, "SeqNo": 16, "Terminal": 0, "DistrictId": 1, "Latitude": 22.572787, "Longitude": 120.366615, "IVRNo": 2050, "EXTVoiceNo": 2081, "traveltime": 0, "holidayTraveltime": 0}, {"Id": "2694", "pgp": 0, "GoBack": 1, "SID": 1195, "NameZh": "Gaosong (Gaosong Rd.)", "RouteId": 362, "SeqNo": 17, "Terminal": 0, "DistrictId": 1, "Latitude": 22.572844, "Longitude": 120.368142, "IVRNo": 2694, "EXTVoiceNo": 2694, "traveltime": 0, "holidayTraveltime": 0}, {"Id": "2082", "pgp": 0, "GoBack": 1, "SID": 1196, "NameZh": "Gaosong Rd.", "RouteId": 362, "SeqNo": 18, "Terminal": 0, "DistrictId": 1, "Latitude": 22.572794, "Longitude": 120.369773, "IVRNo": 32355, "EXTVoiceNo": 2082, "traveltime": 0, "holidayTraveltime": 0}, {"Id": "2316", "pgp": 0, "GoBack": 1, "SID": 11462, "NameZh": "Taiping Elementary School", "RouteId": 362, "SeqNo": 19, "Terminal": 0, "DistrictId": 1, "Latitude": 22.57268, "Longitude": 120.371702, "IVRNo": 2087, "EXTVoiceNo": 2316, "traveltime": 0, "holidayTraveltime": 0}, {"Id": "8899", "pgp": 0, "GoBack": 1, "SID": 5627, "NameZh": "Songjheng Rd. Intersection", "RouteId": 362, "SeqNo": 20, "Terminal": 0, "DistrictId": 1, "Latitude": 22.570654, "Longitude": 120.375813, "IVRNo": 8613, "EXTVoiceNo": 8899, "traveltime": 0, "holidayTraveltime": 0}, {"Id": "2317", "pgp": 0, "GoBack": 1, "SID": 1463, "NameZh": "Gaosong Viaduct", "RouteId": 362, "SeqNo": 21, "Terminal": 0, "DistrictId": 1, "Latitude": 22.569369, "Longitude": 120.378361, "IVRNo": 2317, "EXTVoiceNo": 2317, "traveltime": 0, "holidayTraveltime": 0}, {"Id": "2318", "pgp": 0, "GoBack": 1, "SID": 1468, "NameZh": "Dapingding Area", "RouteId": 362, "SeqNo": 22, "Terminal": 0, "DistrictId": 1, "Latitude": 22.564319, "Longitude": 120.386961, "IVRNo": 2318, "EXTVoiceNo": 2318, "traveltime": 0, "holidayTraveltime": 0}, {"Id": "0050", "pgp": 0, "GoBack": 1, "SID": 9674, "NameZh": "Yonghe St. Intersection", "RouteId": 362, "SeqNo": 23, "Terminal": 0, "DistrictId": 1, "Latitude": 22.562236, "Longitude": 120.390267, "IVRNo": 9713, "EXTVoiceNo": 50, "traveltime": 0, "holidayTraveltime": 0}, {"Id": "2322", "pgp": 0, "GoBack": 1, "SID": 5959, "NameZh": "Pingding Elementary School (Daping Rd.)", "RouteId": 362, "SeqNo": 24, "Terminal": 0, "DistrictId": 1, "Latitude": 22.561431, "Longitude": 120.391975, "IVRNo": 2322, "EXTVoiceNo": 2322, "traveltime": 0, "holidayTraveltime": 0}, {"Id": "8910", "pgp": 0, "GoBack": 1, "SID": 5961, "NameZh": "Sincuo Rd. Cemetery", "RouteId": 362, "SeqNo": 25, "Terminal": 0, "DistrictId": 1, "Latitude": 22.561492, "Longitude": 120.402313, "IVRNo": 9333, "EXTVoiceNo": 8910, "traveltime": 0, "holidayTraveltime": 0}, {"Id": "8911", "pgp": 0, "GoBack": 1, "SID": 5962, "NameZh": "Sincuo Rd.", "RouteId": 362, "SeqNo": 26, "Terminal": 0, "DistrictId": 1, "Latitude": 22.561201, "Longitude": 120.407721, "IVRNo": 9334, "EXTVoiceNo": 8911, "traveltime": 0, "holidayTraveltime": 0}, {"Id": "0833", "pgp": 0, "GoBack": 1, "SID": 5963, "NameZh": "Sincuo Rd. Intersection", "RouteId": 362, "SeqNo": 27, "Terminal": 0, "DistrictId": 1, "Latitude": 22.561153, "Longitude": 120.41038, "IVRNo": 9335, "EXTVoiceNo": 20833, "traveltime": 0, "holidayTraveltime": 0}, {"Id": "8913", "pgp": 0, "GoBack": 1, "SID": 5964, "NameZh": "Barracks (Daliao)", "RouteId": 362, "SeqNo": 28, "Terminal": 0, "DistrictId": 1, "Latitude": 22.554223, "Longitude": 120.417566, "IVRNo": 455, "EXTVoiceNo": 8913, "traveltime": 0, "holidayTraveltime": 0}, {"Id": "8914", "pgp": 0, "GoBack": 1, "SID": 5965, "NameZh": "Hueijie", "RouteId": 362, "SeqNo": 29, "Terminal": 0, "DistrictId": 1, "Latitude": 22.554463, "Longitude": 120.423395, "IVRNo": 9337, "EXTVoiceNo": 8914, "traveltime": 0, "holidayTraveltime": 0}, {"Id": "8915", "pgp": 0, "GoBack": 1, "SID": 5966, "NameZh": "Chaoliao", "RouteId": 362, "SeqNo": 30, "Terminal": 0, "DistrictId": 1, "Latitude": 22.562611, "Longitude": 120.428665, "IVRNo": 9338, "EXTVoiceNo": 8915, "traveltime": 0, "holidayTraveltime": 0}, {"Id": "8916", "pgp": 0, "GoBack": 1, "SID": 5967, "NameZh": "Chao Liao Junior High School", "RouteId": 362, "SeqNo": 31, "Terminal": 0, "DistrictId": 1, "Latitude": 22.564347, "Longitude": 120.425017, "IVRNo": 9339, "EXTVoiceNo": 8916, "traveltime": 0, "holidayTraveltime": 0}, {"Id": "8917", "pgp": 0, "GoBack": 1, "SID": 5968, "NameZh": "Guosi Rd. Intersection", "RouteId": 362, "SeqNo": 32, "Terminal": 0, "DistrictId": 1, "Latitude": 22.575441, "Longitude": 120.416228, "IVRNo": 9340, "EXTVoiceNo": 8917, "traveltime": 0, "holidayTraveltime": 0}, {"Id": "8918", "pgp": 0, "GoBack": 1, "SID": 5969, "NameZh": "Jinhuang Company", "RouteId": 362, "SeqNo": 33, "Terminal": 0, "DistrictId": 1, "Latitude": 22.577585, "Longitude": 120.410153, "IVRNo": 9341, "EXTVoiceNo": 8918, "traveltime": 0, "holidayTraveltime": 0}, {"Id": "8919", "pgp": 0, "GoBack": 1, "SID": 5970, "NameZh": "Dacijiao (Daliao)", "RouteId": 362, "SeqNo": 34, "Terminal": 0, "DistrictId": 1, "Latitude": 22.582154, "Longitude": 120.407012, "IVRNo": 9342, "EXTVoiceNo": 8919, "traveltime": 0, "holidayTraveltime": 0}, {"Id": "8920", "pgp": 0, "GoBack": 1, "SID": 5971, "NameZh": "Dacijiao Rd. Intersection", "RouteId": 362, "SeqNo": 35, "Terminal": 0, "DistrictId": 1, "Latitude": 22.58455, "Longitude": 120.406049, "IVRNo": 9343, "EXTVoiceNo": 8920, "traveltime": 0, "holidayTraveltime": 0}, {"Id": "8921", "pgp": 0, "GoBack": 1, "SID": 5972, "NameZh": "Sanlong Rd. Intersection", "RouteId": 362, "SeqNo": 36, "Terminal": 0, "DistrictId": 1, "Latitude": 22.58736, "Longitude": 120.4049, "IVRNo": 9208, "EXTVoiceNo": 8921, "traveltime": 0, "holidayTraveltime": 0}, {"Id": "8755", "pgp": 0, "GoBack": 1, "SID": 6271, "NameZh": "An An Homes", "RouteId": 362, "SeqNo": 37, "Terminal": 0, "DistrictId": 1, "Latitude": 22.590219, "Longitude": 120.403719, "IVRNo": 64, "EXTVoiceNo": 8755, "traveltime": 0, "holidayTraveltime": 0}, {"Id": "8922", "pgp": 0, "GoBack": 1, "SID": 5973, "NameZh": "Kaohsiung Prison", "RouteId": 362, "SeqNo": 38, "Terminal": 0, "DistrictId": 1, "Latitude": 22.592164, "Longitude": 120.402926, "IVRNo": 9345, "EXTVoiceNo": 8922, "traveltime": 0, "holidayTraveltime": 0}, {"Id": "8923", "pgp": 0, "GoBack": 1, "SID": 5974, "NameZh": "Gao Ying Industrial Commercial Vocational High School", "RouteId": 362, "SeqNo": 39, "Terminal": 0, "DistrictId": 1, "Latitude": 22.594406, "Longitude": 120.402038, "IVRNo": 9346, "EXTVoiceNo": 8923, "traveltime": 0, "holidayTraveltime": 0}, {"Id": "8924", "pgp": 0, "GoBack": 1, "SID": 5975, "NameZh": "Daliao Rd. Intersection", "RouteId": 362, "SeqNo": 40, "Terminal": 0, "DistrictId": 1, "Latitude": 22.59779, "Longitude": 120.400746, "IVRNo": 9347, "EXTVoiceNo": 8924, "traveltime": 0, "holidayTraveltime": 0}, {"Id": "2389", "pgp": 0, "GoBack": 1, "SID": 14331, "NameZh": "Daliao Farmers` Association", "RouteId": 362, "SeqNo": 41, "Terminal": 0, "DistrictId": 1, "Latitude": 22.601593, "Longitude": 120.397897, "IVRNo": 32389, "EXTVoiceNo": 32389, "traveltime": 0, "holidayTraveltime": 0}, {"Id": "9997", "pgp": 0, "GoBack": 1, "SID": 8705, "NameZh": "Chung Shan Industrial & Commercial School", "RouteId": 362, "SeqNo": 42, "Terminal": 0, "DistrictId": 1, "Latitude": 22.602694, "Longitude": 120.397045, "IVRNo": 189, "EXTVoiceNo": 19997, "traveltime": 0, "holidayTraveltime": 0}, {"Id": "9348", "pgp": 0, "GoBack": 1, "SID": 18428, "NameZh": "Daliao District Office", "RouteId": 362, "SeqNo": 43, "Terminal": 0, "DistrictId": 1, "Latitude": 22.604553, "Longitude": 120.395724, "IVRNo": 188, "EXTVoiceNo": 9348, "traveltime": 0, "holidayTraveltime": 0}, {"Id": "1022", "pgp": 0, "GoBack": 1, "SID": 10627, "NameZh": "Jinsyue Rd.", "RouteId": 362, "SeqNo": 44, "Terminal": 0, "DistrictId": 1, "Latitude": 22.605885, "Longitude": 120.393908, "IVRNo": 794, "EXTVoiceNo": 21022, "traveltime": 0, "holidayTraveltime": 0}, {"Id": "1083", "pgp": 0, "GoBack": 1, "SID": 16927, "NameZh": "Fooyin University Campus", "RouteId": 362, "SeqNo": 45, "Terminal": 1, "DistrictId": 1, "Latitude": 22.603998, "Longitude": 120.391713, "IVRNo": 9253, "EXTVoiceNo": 21083, "traveltime": 0, "holidayTraveltime": 0}, {"Id": "1083", "pgp": 0, "GoBack": 2, "SID": 14700, "NameZh": "Fooyin University Campus", "RouteId": 362, "SeqNo": 1, "Terminal": 0, "DistrictId": 1, "Latitude": 22.603998, "Longitude": 120.391713, "IVRNo": 9253, "EXTVoiceNo": 21083, "traveltime": 0, "holidayTraveltime": 0}, {"Id": "3022", "pgp": 0, "GoBack": 2, "SID": 19241, "NameZh": "Fooyin University Library", "RouteId": 362, "SeqNo": 2, "Terminal": 0, "DistrictId": 1, "Latitude": 22.602534, "Longitude": 120.38916, "IVRNo": 33022, "EXTVoiceNo": 33022, "traveltime": 0, "holidayTraveltime": 0}, {"Id": "0145", "pgp": 0, "GoBack": 2, "SID": 19240, "NameZh": "Fooyin University Jhongjheng Hall", "RouteId": 362, "SeqNo": 3, "Terminal": 0, "DistrictId": 1, "Latitude": 22.601024, "Longitude": 120.389919, "IVRNo": 10282, "EXTVoiceNo": 20145, "traveltime": 0, "holidayTraveltime": 0}, {"Id": "1022", "pgp": 0, "GoBack": 2, "SID": 14577, "NameZh": "Jinsyue Rd.", "RouteId": 362, "SeqNo": 4, "Terminal": 0, "DistrictId": 1, "Latitude": 22.605428, "Longitude": 120.393792, "IVRNo": 794, "EXTVoiceNo": 21022, "traveltime": 0, "holidayTraveltime": 0}, {"Id": "9348", "pgp": 0, "GoBack": 2, "SID": 5978, "NameZh": "Daliao District Office", "RouteId": 362, "SeqNo": 5, "Terminal": 0, "DistrictId": 1, "Latitude": 22.604674, "Longitude": 120.395613, "IVRNo": 188, "EXTVoiceNo": 9348, "traveltime": 0, "holidayTraveltime": 0}, {"Id": "9997", "pgp": 0, "GoBack": 2, "SID": 8725, "NameZh": "Chung Shan Industrial & Commercial School", "RouteId": 362, "SeqNo": 6, "Terminal": 0, "DistrictId": 1, "Latitude": 22.60266, "Longitude": 120.39706, "IVRNo": 189, "EXTVoiceNo": 19997, "traveltime": 0, "holidayTraveltime": 0}, {"Id": "2389", "pgp": 0, "GoBack": 2, "SID": 5976, "NameZh": "Daliao Farmers` Association", "RouteId": 362, "SeqNo": 7, "Terminal": 0, "DistrictId": 1, "Latitude": 22.601528, "Longitude": 120.397943, "IVRNo": 32389, "EXTVoiceNo": 32389, "traveltime": 0, "holidayTraveltime": 0}, {"Id": "8924", "pgp": 0, "GoBack": 2, "SID": 5980, "NameZh": "Daliao Rd. Intersection", "RouteId": 362, "SeqNo": 8, "Terminal": 0, "DistrictId": 1, "Latitude": 22.597717, "Longitude": 120.40063, "IVRNo": 9347, "EXTVoiceNo": 8924, "traveltime": 0, "holidayTraveltime": 0}, {"Id": "8923", "pgp": 0, "GoBack": 2, "SID": 5981, "NameZh": "Gao Ying Industrial Commercial Vocational High School", "RouteId": 362, "SeqNo": 9, "Terminal": 0, "DistrictId": 1, "Latitude": 22.594356, "Longitude": 120.401922, "IVRNo": 9346, "EXTVoiceNo": 8923, "traveltime": 0, "holidayTraveltime": 0}, {"Id": "8922", "pgp": 0, "GoBack": 2, "SID": 5982, "NameZh": "Kaohsiung Prison", "RouteId": 362, "SeqNo": 10, "Terminal": 0, "DistrictId": 1, "Latitude": 22.592073, "Longitude": 120.402813, "IVRNo": 9345, "EXTVoiceNo": 8922, "traveltime": 0, "holidayTraveltime": 0}, {"Id": "8755", "pgp": 0, "GoBack": 2, "SID": 6272, "NameZh": "An An Homes", "RouteId": 362, "SeqNo": 11, "Terminal": 0, "DistrictId": 1, "Latitude": 22.590338, "Longitude": 120.403612, "IVRNo": 64, "EXTVoiceNo": 8755, "traveltime": 0, "holidayTraveltime": 0}, {"Id": "8921", "pgp": 0, "GoBack": 2, "SID": 5983, "NameZh": "Sanlong Rd. Intersection", "RouteId": 362, "SeqNo": 12, "Terminal": 0, "DistrictId": 1, "Latitude": 22.587222, "Longitude": 120.404761, "IVRNo": 9208, "EXTVoiceNo": 8921, "traveltime": 0, "holidayTraveltime": 0}, {"Id": "8920", "pgp": 0, "GoBack": 2, "SID": 5984, "NameZh": "Dacijiao Rd. Intersection", "RouteId": 362, "SeqNo": 13, "Terminal": 0, "DistrictId": 1, "Latitude": 22.584425, "Longitude": 120.405896, "IVRNo": 9343, "EXTVoiceNo": 8920, "traveltime": 0, "holidayTraveltime": 0}, {"Id": "8919", "pgp": 0, "GoBack": 2, "SID": 5985, "NameZh": "Dacijiao (Daliao)", "RouteId": 362, "SeqNo": 14, "Terminal": 0, "DistrictId": 1, "Latitude": 22.58209, "Longitude": 120.406849, "IVRNo": 9342, "EXTVoiceNo": 8919, "traveltime": 0, "holidayTraveltime": 0}, {"Id": "8918", "pgp": 0, "GoBack": 2, "SID": 11463, "NameZh": "Jinhuang Company", "RouteId": 362, "SeqNo": 15, "Terminal": 0, "DistrictId": 1, "Latitude": 22.577585, "Longitude": 120.410153, "IVRNo": 9341, "EXTVoiceNo": 8918, "traveltime": 0, "holidayTraveltime": 0}, {"Id": "8917", "pgp": 0, "GoBack": 2, "SID": 5986, "NameZh": "Guosi Rd. Intersection", "RouteId": 362, "SeqNo": 16, "Terminal": 0, "DistrictId": 1, "Latitude": 22.575375, "Longitude": 120.416178, "IVRNo": 9340, "EXTVoiceNo": 8917, "traveltime": 0, "holidayTraveltime": 0}, {"Id": "8916", "pgp": 0, "GoBack": 2, "SID": 5987, "NameZh": "Chao Liao Junior High School", "RouteId": 362, "SeqNo": 17, "Terminal": 0, "DistrictId": 1, "Latitude": 22.563642, "Longitude": 120.425516, "IVRNo": 9339, "EXTVoiceNo": 8916, "traveltime": 0, "holidayTraveltime": 0}, {"Id": "8915", "pgp": 0, "GoBack": 2, "SID": 5988, "NameZh": "Chaoliao", "RouteId": 362, "SeqNo": 18, "Terminal": 0, "DistrictId": 1, "Latitude": 22.562577, "Longitude": 120.42856, "IVRNo": 9338, "EXTVoiceNo": 8915, "traveltime": 0, "holidayTraveltime": 0}, {"Id": "8914", "pgp": 0, "GoBack": 2, "SID": 5989, "NameZh": "Hueijie", "RouteId": 362, "SeqNo": 19, "Terminal": 0, "DistrictId": 1, "Latitude": 22.555525, "Longitude": 120.423803, "IVRNo": 9337, "EXTVoiceNo": 8914, "traveltime": 0, "holidayTraveltime": 0}, {"Id": "8913", "pgp": 0, "GoBack": 2, "SID": 5990, "NameZh": "Barracks (Daliao)", "RouteId": 362, "SeqNo": 20, "Terminal": 0, "DistrictId": 1, "Latitude": 22.554313, "Longitude": 120.417548, "IVRNo": 455, "EXTVoiceNo": 8913, "traveltime": 0, "holidayTraveltime": 0}, {"Id": "0833", "pgp": 0, "GoBack": 2, "SID": 5991, "NameZh": "Sincuo Rd. Intersection", "RouteId": 362, "SeqNo": 21, "Terminal": 0, "DistrictId": 1, "Latitude": 22.561344, "Longitude": 120.410425, "IVRNo": 9335, "EXTVoiceNo": 20833, "traveltime": 0, "holidayTraveltime": 0}, {"Id": "8911", "pgp": 0, "GoBack": 2, "SID": 5992, "NameZh": "Sincuo Rd.", "RouteId": 362, "SeqNo": 22, "Terminal": 0, "DistrictId": 1, "Latitude": 22.561406, "Longitude": 120.407668, "IVRNo": 9334, "EXTVoiceNo": 8911, "traveltime": 0, "holidayTraveltime": 0}, {"Id": "8910", "pgp": 0, "GoBack": 2, "SID": 5993, "NameZh": "Sincuo Rd. Cemetery", "RouteId": 362, "SeqNo": 23, "Terminal": 0, "DistrictId": 1, "Latitude": 22.561678, "Longitude": 120.402323, "IVRNo": 9333, "EXTVoiceNo": 8910, "traveltime": 0, "holidayTraveltime": 0}, {"Id": "2322", "pgp": 0, "GoBack": 2, "SID": 5994, "NameZh": "Pingding Elementary School (Daping Rd.)", "RouteId": 362, "SeqNo": 24, "Terminal": 0, "DistrictId": 1, "Latitude": 22.561635, "Longitude": 120.392027, "IVRNo": 2322, "EXTVoiceNo": 2322, "traveltime": 0, "holidayTraveltime": 0}, {"Id": "0050", "pgp": 0, "GoBack": 2, "SID": 9692, "NameZh": "Yonghe St. Intersection", "RouteId": 362, "SeqNo": 25, "Terminal": 0, "DistrictId": 1, "Latitude": 22.562236, "Longitude": 120.390267, "IVRNo": 9713, "EXTVoiceNo": 50, "traveltime": 0, "holidayTraveltime": 0}, {"Id": "2318", "pgp": 0, "GoBack": 2, "SID": 1492, "NameZh": "Dapingding Area", "RouteId": 362, "SeqNo": 26, "Terminal": 0, "DistrictId": 1, "Latitude": 22.564398, "Longitude": 120.387366, "IVRNo": 2318, "EXTVoiceNo": 2318, "traveltime": 0, "holidayTraveltime": 0}, {"Id": "2317", "pgp": 0, "GoBack": 2, "SID": 1493, "NameZh": "Gaosong Viaduct", "RouteId": 362, "SeqNo": 27, "Terminal": 0, "DistrictId": 1, "Latitude": 22.56955, "Longitude": 120.378538, "IVRNo": 2317, "EXTVoiceNo": 2317, "traveltime": 0, "holidayTraveltime": 0}, {"Id": "8899", "pgp": 0, "GoBack": 2, "SID": 5629, "NameZh": "Songjheng Rd. Intersection", "RouteId": 362, "SeqNo": 28, "Terminal": 0, "DistrictId": 1, "Latitude": 22.570786, "Longitude": 120.375812, "IVRNo": 8613, "EXTVoiceNo": 8899, "traveltime": 0, "holidayTraveltime": 0}, {"Id": "2316", "pgp": 0, "GoBack": 2, "SID": 11491, "NameZh": "Taiping Elementary School", "RouteId": 362, "SeqNo": 29, "Terminal": 0, "DistrictId": 1, "Latitude": 22.572648, "Longitude": 120.372695, "IVRNo": 2087, "EXTVoiceNo": 2316, "traveltime": 0, "holidayTraveltime": 0}, {"Id": "2082", "pgp": 0, "GoBack": 2, "SID": 1203, "NameZh": "Gaosong Rd.", "RouteId": 362, "SeqNo": 30, "Terminal": 0, "DistrictId": 1, "Latitude": 22.572735, "Longitude": 120.369789, "IVRNo": 32355, "EXTVoiceNo": 2082, "traveltime": 0, "holidayTraveltime": 0}, {"Id": "2694", "pgp": 0, "GoBack": 2, "SID": 1948, "NameZh": "Gaosong (Gaosong Rd.)", "RouteId": 362, "SeqNo": 31, "Terminal": 0, "DistrictId": 1, "Latitude": 22.57286, "Longitude": 120.36805, "IVRNo": 2694, "EXTVoiceNo": 2694, "traveltime": 0, "holidayTraveltime": 0}, {"Id": "2081", "pgp": 0, "GoBack": 2, "SID": 1204, "NameZh": "Hongping Rd. Intersection", "RouteId": 362, "SeqNo": 32, "Terminal": 0, "DistrictId": 1, "Latitude": 22.572953, "Longitude": 120.366785, "IVRNo": 2050, "EXTVoiceNo": 2081, "traveltime": 0, "holidayTraveltime": 0}, {"Id": "2012", "pgp": 0, "GoBack": 2, "SID": 990, "NameZh": "Feiji Rd. Intersection", "RouteId": 362, "SeqNo": 33, "Terminal": 0, "DistrictId": 1, "Latitude": 22.572471, "Longitude": 120.365117, "IVRNo": 2012, "EXTVoiceNo": 2012, "traveltime": 0, "holidayTraveltime": 0}, {"Id": "2013", "pgp": 0, "GoBack": 2, "SID": 1181, "NameZh": "Hongwun Rd. Intersection", "RouteId": 362, "SeqNo": 34, "Terminal": 0, "DistrictId": 1, "Latitude": 22.57153, "Longitude": 120.363784, "IVRNo": 2013, "EXTVoiceNo": 2013, "traveltime": 0, "holidayTraveltime": 0}, {"Id": "2014", "pgp": 0, "GoBack": 2, "SID": 1180, "NameZh": "Songbo St. Intersection", "RouteId": 362, "SeqNo": 35, "Terminal": 0, "DistrictId": 1, "Latitude": 22.570337, "Longitude": 120.362058, "IVRNo": 2014, "EXTVoiceNo": 2014, "traveltime": 0, "holidayTraveltime": 0}, {"Id": "2410", "pgp": 0, "GoBack": 2, "SID": 11492, "NameZh": "Shanming Rd. (Hongping Rd. Intersection)", "RouteId": 362, "SeqNo": 36, "Terminal": 0, "DistrictId": 1, "Latitude": 22.569213, "Longitude": 120.361954, "IVRNo": 2410, "EXTVoiceNo": 2410, "traveltime": 0, "holidayTraveltime": 0}, {"Id": "2409", "pgp": 0, "GoBack": 2, "SID": 1696, "NameZh": "Kaohsiung Municipal Siaogang Hospital (Hanmin Rd. Intersection)", "RouteId": 362, "SeqNo": 37, "Terminal": 0, "DistrictId": 1, "Latitude": 22.56822, "Longitude": 120.362385, "IVRNo": 2430, "EXTVoiceNo": 2409, "traveltime": 0, "holidayTraveltime": 0}, {"Id": "2309", "pgp": 0, "GoBack": 2, "SID": 1513, "NameZh": "Sinfong St. Intersection", "RouteId": 362, "SeqNo": 38, "Terminal": 0, "DistrictId": 1, "Latitude": 22.567187, "Longitude": 120.36069, "IVRNo": 2309, "EXTVoiceNo": 2309, "traveltime": 0, "holidayTraveltime": 0}, {"Id": "2307", "pgp": 0, "GoBack": 2, "SID": 1521, "NameZh": "Siaogang Senior High School", "RouteId": 362, "SeqNo": 39, "Terminal": 0, "DistrictId": 1, "Latitude": 22.566912, "Longitude": 120.357604, "IVRNo": 2307, "EXTVoiceNo": 2307, "traveltime": 0, "holidayTraveltime": 0}, {"Id": "2306", "pgp": 0, "GoBack": 2, "SID": 1524, "NameZh": "Kaohsiung Municipal Chungshang Junior High School", "RouteId": 362, "SeqNo": 40, "Terminal": 0, "DistrictId": 1, "Latitude": 22.566937, "Longitude": 120.35515, "IVRNo": 2306, "EXTVoiceNo": 2306, "traveltime": 0, "holidayTraveltime": 0}, {"Id": "6028", "pgp": 0, "GoBack": 2, "SID": 4484, "NameZh": "MRT Siaogang Station", "RouteId": 362, "SeqNo": 41, "Terminal": 0, "DistrictId": 1, "Latitude": 22.564664, "Longitude": 120.354048, "IVRNo": 2040, "EXTVoiceNo": 6028, "traveltime": 0, "holidayTraveltime": 0}, {"Id": "2339", "pgp": 0, "GoBack": 2, "SID": 1534, "NameZh": "Erling Elementary School (MRT Siaogang Station)", "RouteId": 362, "SeqNo": 42, "Terminal": 0, "DistrictId": 1, "Latitude": 22.565733, "Longitude": 120.351671, "IVRNo": 2339, "EXTVoiceNo": 2339, "traveltime": 0, "holidayTraveltime": 0}, {"Id": "2504", "pgp": 0, "GoBack": 2, "SID": 1801, "NameZh": "Dianbei Rd. Intersection", "RouteId": 362, "SeqNo": 43, "Terminal": 0, "DistrictId": 1, "Latitude": 22.563616, "Longitude": 120.35018, "IVRNo": 2505, "EXTVoiceNo": 2504, "traveltime": 0, "holidayTraveltime": 0}, {"Id": "2570", "pgp": 0, "GoBack": 2, "SID": 1806, "NameZh": "Daye N. Rd.", "RouteId": 362, "SeqNo": 44, "Terminal": 0, "DistrictId": 1, "Latitude": 22.563372, "Longitude": 120.347985, "IVRNo": 2504, "EXTVoiceNo": 2570, "traveltime": 0, "holidayTraveltime": 0}, {"Id": "2303", "pgp": 0, "GoBack": 2, "SID": 1809, "NameZh": "Erling (Daye N. Rd.)", "RouteId": 362, "SeqNo": 45, "Terminal": 0, "DistrictId": 1, "Latitude": 22.564695, "Longitude": 120.346785, "IVRNo": 2052, "EXTVoiceNo": 2303, "traveltime": 0, "holidayTraveltime": 0}, {"Id": "2002", "pgp": 0, "GoBack": 2, "SID": 1008, "NameZh": "Siaogang Precinct", "RouteId": 362, "SeqNo": 46, "Terminal": 0, "DistrictId": 1, "Latitude": 22.565633, "Longitude": 120.344206, "IVRNo": 2002, "EXTVoiceNo": 2002, "traveltime": 0, "holidayTraveltime": 0}, {"Id": "2001", "pgp": 0, "GoBack": 2, "SID": 949, "NameZh": "Siaogang Station", "RouteId": 362, "SeqNo": 47, "Terminal": 1, "DistrictId": 1, "Latitude": 22.565349, "Longitude": 120.3411, "IVRNo": 2000, "EXTVoiceNo": 2001, "traveltime": 0, "holidayTraveltime": 0}], "zh": [{"Id": "2001", "pgp": 0, "GoBack": 1, "SID": 960, "NameZh": "\u5c0f\u6e2f\u7ad9", "RouteId": 362, "SeqNo": 1, "Terminal": 0, "DistrictId": 1, "Latitude": 22.56537, "Longitude": 120.3412, "IVRNo": 2000, "EXTVoiceNo": 2001, "traveltime": 0, "holidayTraveltime": 0}, {"Id": "2002", "pgp": 0, "GoBack": 1, "SID": 972, "NameZh": "\u5c0f\u6e2f\u5206\u5c40", "RouteId": 362, "SeqNo": 2, "Terminal": 0, "DistrictId": 1, "Latitude": 22.565616, "Longitude": 120.344284, "IVRNo": 2002, "EXTVoiceNo": 2002, "traveltime": 0, "holidayTraveltime": 0}, {"Id": "2303", "pgp": 0, "GoBack": 1, "SID": 1721, "NameZh": "\u4e8c\u82d3(\u5927\u696d\u5317\u8def)", "RouteId": 362, "SeqNo": 3, "Terminal": 0, "DistrictId": 1, "Latitude": 22.5649, "Longitude": 120.346404, "IVRNo": 2052, "EXTVoiceNo": 2303, "traveltime": 0, "holidayTraveltime": 0}, {"Id": "2570", "pgp": 0, "GoBack": 1, "SID": 1725, "NameZh": "\u5927\u696d\u5317\u8def", "RouteId": 362, "SeqNo": 4, "Terminal": 0, "DistrictId": 1, "Latitude": 22.562976, "Longitude": 120.348092, "IVRNo": 2504, "EXTVoiceNo": 2570, "traveltime": 0, "holidayTraveltime": 0}, {"Id": "2504", "pgp": 0, "GoBack": 1, "SID": 1728, "NameZh": "\u5e97\u5317\u8def\u53e3", "RouteId": 362, "SeqNo": 5, "Terminal": 0, "DistrictId": 1, "Latitude": 22.563612, "Longitude": 120.350301, "IVRNo": 2505, "EXTVoiceNo": 2504, "traveltime": 0, "holidayTraveltime": 0}, {"Id": "2339", "pgp": 0, "GoBack": 1, "SID": 1430, "NameZh": "\u4e8c\u82d3\u570b\u5c0f(\u6377\u904b\u5c0f\u6e2f\u7ad9)", "RouteId": 362, "SeqNo": 6, "Terminal": 0, "DistrictId": 1, "Latitude": 22.565778, "Longitude": 120.35181, "IVRNo": 2339, "EXTVoiceNo": 2339, "traveltime": 0, "holidayTraveltime": 0}, {"Id": "6028", "pgp": 0, "GoBack": 1, "SID": 4483, "NameZh": "\u6377\u904b\u5c0f\u6e2f\u7ad9", "RouteId": 362, "SeqNo": 7, "Terminal": 0, "DistrictId": 1, "Latitude": 22.564926, "Longitude": 120.353538, "IVRNo": 2040, "EXTVoiceNo": 6028, "traveltime": 0, "holidayTraveltime": 0}, {"Id": "2306", "pgp": 0, "GoBack": 1, "SID": 1434, "NameZh": "\u4e2d\u5c71\u570b\u4e2d", "RouteId": 362, "SeqNo": 8, "Terminal": 0, "DistrictId": 1, "Latitude": 22.566834, "Longitude": 120.355383, "IVRNo": 2306, "EXTVoiceNo": 2306, "traveltime": 0, "holidayTraveltime": 0}, {"Id": "2307", "pgp": 0, "GoBack": 1, "SID": 1446, "NameZh": "\u5c0f\u6e2f\u9ad8\u4e2d", "RouteId": 362, "SeqNo": 9, "Terminal": 0, "DistrictId": 1, "Latitude": 22.566786, "Longitude": 120.35778, "IVRNo": 2307, "EXTVoiceNo": 2307, "traveltime": 0, "holidayTraveltime": 0}, {"Id": "2309", "pgp": 0, "GoBack": 1, "SID": 1451, "NameZh": "\u65b0\u8c50\u8857\u53e3", "RouteId": 362, "SeqNo": 10, "Terminal": 0, "DistrictId": 1, "Latitude": 22.567041, "Longitude": 120.360608, "IVRNo": 2309, "EXTVoiceNo": 2309, "traveltime": 0, "holidayTraveltime": 0}, {"Id": "2409", "pgp": 0, "GoBack": 1, "SID": 1612, "NameZh": "\u5c0f\u6e2f\u91ab\u9662(\u6f22\u6c11\u8def\u53e3)", "RouteId": 362, "SeqNo": 11, "Terminal": 0, "DistrictId": 1, "Latitude": 22.568212, "Longitude": 120.362546, "IVRNo": 2430, "EXTVoiceNo": 2409, "traveltime": 0, "holidayTraveltime": 0}, {"Id": "2410", "pgp": 0, "GoBack": 1, "SID": 11461, "NameZh": "\u5c71\u660e\u8def(\u5b8f\u5e73\u8def\u53e3)", "RouteId": 362, "SeqNo": 12, "Terminal": 0, "DistrictId": 1, "Latitude": 22.569357, "Longitude": 120.362025, "IVRNo": 2410, "EXTVoiceNo": 2410, "traveltime": 0, "holidayTraveltime": 0}, {"Id": "2014", "pgp": 0, "GoBack": 1, "SID": 995, "NameZh": "\u677e\u67cf\u8857\u53e3", "RouteId": 362, "SeqNo": 13, "Terminal": 0, "DistrictId": 1, "Latitude": 22.57039, "Longitude": 120.362392, "IVRNo": 2014, "EXTVoiceNo": 2014, "traveltime": 0, "holidayTraveltime": 0}, {"Id": "2013", "pgp": 0, "GoBack": 1, "SID": 1184, "NameZh": "\u5b8f\u6587\u8def\u53e3", "RouteId": 362, "SeqNo": 14, "Terminal": 0, "DistrictId": 1, "Latitude": 22.571457, "Longitude": 120.363918, "IVRNo": 2013, "EXTVoiceNo": 2013, "traveltime": 0, "holidayTraveltime": 0}, {"Id": "2012", "pgp": 0, "GoBack": 1, "SID": 1189, "NameZh": "\u98db\u6a5f\u8def\u53e3", "RouteId": 362, "SeqNo": 15, "Terminal": 0, "DistrictId": 1, "Latitude": 22.572266, "Longitude": 120.365118, "IVRNo": 2012, "EXTVoiceNo": 2012, "traveltime": 0, "holidayTraveltime": 0}, {"Id": "2081", "pgp": 0, "GoBack": 1, "SID": 1190, "NameZh": "\u5b8f\u5e73\u8def\u53e3", "RouteId": 362, "SeqNo": 16, "Terminal": 0, "DistrictId": 1, "Latitude": 22.572787, "Longitude": 120.366615, "IVRNo": 2050, "EXTVoiceNo": 2081, "traveltime": 0, "holidayTraveltime": 0}, {"Id": "2694", "pgp": 0, "GoBack": 1, "SID": 1195, "NameZh": "\u9ad8\u677e(\u9ad8\u677e\u8def)", "RouteId": 362, "SeqNo": 17, "Terminal": 0, "DistrictId": 1, "Latitude": 22.572844, "Longitude": 120.368142, "IVRNo": 2694, "EXTVoiceNo": 2694, "traveltime": 0, "holidayTraveltime": 0}, {"Id": "2082", "pgp": 0, "GoBack": 1, "SID": 1196, "NameZh": "\u9ad8\u677e\u8def", "RouteId": 362, "SeqNo": 18, "Terminal": 0, "DistrictId": 1, "Latitude": 22.572794, "Longitude": 120.369773, "IVRNo": 32355, "EXTVoiceNo": 2082, "traveltime": 0, "holidayTraveltime": 0}, {"Id": "2316", "pgp": 0, "GoBack": 1, "SID": 11462, "NameZh": "\u592a\u5e73\u570b\u5c0f", "RouteId": 362, "SeqNo": 19, "Terminal": 0, "DistrictId": 1, "Latitude": 22.57268, "Longitude": 120.371702, "IVRNo": 2087, "EXTVoiceNo": 2316, "traveltime": 0, "holidayTraveltime": 0}, {"Id": "8899", "pgp": 0, "GoBack": 1, "SID": 5627, "NameZh": "\u677e\u6b63\u8def\u53e3", "RouteId": 362, "SeqNo": 20, "Terminal": 0, "DistrictId": 1, "Latitude": 22.570654, "Longitude": 120.375813, "IVRNo": 8613, "EXTVoiceNo": 8899, "traveltime": 0, "holidayTraveltime": 0}, {"Id": "2317", "pgp": 0, "GoBack": 1, "SID": 1463, "NameZh": "\u9ad8\u677e\u8def\u6a4b", "RouteId": 362, "SeqNo": 21, "Terminal": 0, "DistrictId": 1, "Latitude": 22.569369, "Longitude": 120.378361, "IVRNo": 2317, "EXTVoiceNo": 2317, "traveltime": 0, "holidayTraveltime": 0}, {"Id": "2318", "pgp": 0, "GoBack": 1, "SID": 1468, "NameZh": "\u5927\u576a\u9802", "RouteId": 362, "SeqNo": 22, "Terminal": 0, "DistrictId": 1, "Latitude": 22.564319, "Longitude": 120.386961, "IVRNo": 2318, "EXTVoiceNo": 2318, "traveltime": 0, "holidayTraveltime": 0}, {"Id": "0050", "pgp": 0, "GoBack": 1, "SID": 9674, "NameZh": "\u6c38\u548c\u8857\u53e3", "RouteId": 362, "SeqNo": 23, "Terminal": 0, "DistrictId": 1, "Latitude": 22.562236, "Longitude": 120.390267, "IVRNo": 9713, "EXTVoiceNo": 50, "traveltime": 0, "holidayTraveltime": 0}, {"Id": "2322", "pgp": 0, "GoBack": 1, "SID": 5959, "NameZh": "\u576a\u9802\u570b\u5c0f(\u5927\u5e73\u8def)", "RouteId": 362, "SeqNo": 24, "Terminal": 0, "DistrictId": 1, "Latitude": 22.561431, "Longitude": 120.391975, "IVRNo": 2322, "EXTVoiceNo": 2322, "traveltime": 0, "holidayTraveltime": 0}, {"Id": "8910", "pgp": 0, "GoBack": 1, "SID": 5961, "NameZh": "\u65b0\u539d\u8def\u516c\u5893", "RouteId": 362, "SeqNo": 25, "Terminal": 0, "DistrictId": 1, "Latitude": 22.561492, "Longitude": 120.402313, "IVRNo": 9333, "EXTVoiceNo": 8910, "traveltime": 0, "holidayTraveltime": 0}, {"Id": "8911", "pgp": 0, "GoBack": 1, "SID": 5962, "NameZh": "\u65b0\u539d\u8def", "RouteId": 362, "SeqNo": 26, "Terminal": 0, "DistrictId": 1, "Latitude": 22.561201, "Longitude": 120.407721, "IVRNo": 9334, "EXTVoiceNo": 8911, "traveltime": 0, "holidayTraveltime": 0}, {"Id": "0833", "pgp": 0, "GoBack": 1, "SID": 5963, "NameZh": "\u65b0\u539d\u8def\u53e3", "RouteId": 362, "SeqNo": 27, "Terminal": 0, "DistrictId": 1, "Latitude": 22.561153, "Longitude": 120.41038, "IVRNo": 9335, "EXTVoiceNo": 20833, "traveltime": 0, "holidayTraveltime": 0}, {"Id": "8913", "pgp": 0, "GoBack": 1, "SID": 5964, "NameZh": "\u71df\u623f(\u5927\u5bee)", "RouteId": 362, "SeqNo": 28, "Terminal": 0, "DistrictId": 1, "Latitude": 22.554223, "Longitude": 120.417566, "IVRNo": 455, "EXTVoiceNo": 8913, "traveltime": 0, "holidayTraveltime": 0}, {"Id": "8914", "pgp": 0, "GoBack": 1, "SID": 5965, "NameZh": "\u6703\u7d50", "RouteId": 362, "SeqNo": 29, "Terminal": 0, "DistrictId": 1, "Latitude": 22.554463, "Longitude": 120.423395, "IVRNo": 9337, "EXTVoiceNo": 8914, "traveltime": 0, "holidayTraveltime": 0}, {"Id": "8915", "pgp": 0, "GoBack": 1, "SID": 5966, "NameZh": "\u6f6e\u5bee", "RouteId": 362, "SeqNo": 30, "Terminal": 0, "DistrictId": 1, "Latitude": 22.562611, "Longitude": 120.428665, "IVRNo": 9338, "EXTVoiceNo": 8915, "traveltime": 0, "holidayTraveltime": 0}, {"Id": "8916", "pgp": 0, "GoBack": 1, "SID": 5967, "NameZh": "\u6f6e\u5bee\u570b\u4e2d", "RouteId": 362, "SeqNo": 31, "Terminal": 0, "DistrictId": 1, "Latitude": 22.564347, "Longitude": 120.425017, "IVRNo": 9339, "EXTVoiceNo": 8916, "traveltime": 0, "holidayTraveltime": 0}, {"Id": "8917", "pgp": 0, "GoBack": 1, "SID": 5968, "NameZh": "\u904e\u6eaa\u8def\u53e3", "RouteId": 362, "SeqNo": 32, "Terminal": 0, "DistrictId": 1, "Latitude": 22.575441, "Longitude": 120.416228, "IVRNo": 9340, "EXTVoiceNo": 8917, "traveltime": 0, "holidayTraveltime": 0}, {"Id": "8918", "pgp": 0, "GoBack": 1, "SID": 5969, "NameZh": "\u91d1\u7687\u516c\u53f8", "RouteId": 362, "SeqNo": 33, "Terminal": 0, "DistrictId": 1, "Latitude": 22.577585, "Longitude": 120.410153, "IVRNo": 9341, "EXTVoiceNo": 8918, "traveltime": 0, "holidayTraveltime": 0}, {"Id": "8919", "pgp": 0, "GoBack": 1, "SID": 5970, "NameZh": "\u5927\u5d0e\u8173(\u5927\u5bee)", "RouteId": 362, "SeqNo": 34, "Terminal": 0, "DistrictId": 1, "Latitude": 22.582154, "Longitude": 120.407012, "IVRNo": 9342, "EXTVoiceNo": 8919, "traveltime": 0, "holidayTraveltime": 0}, {"Id": "8920", "pgp": 0, "GoBack": 1, "SID": 5971, "NameZh": "\u5927\u5d0e\u8173\u8def\u53e3", "RouteId": 362, "SeqNo": 35, "Terminal": 0, "DistrictId": 1, "Latitude": 22.58455, "Longitude": 120.406049, "IVRNo": 9343, "EXTVoiceNo": 8920, "traveltime": 0, "holidayTraveltime": 0}, {"Id": "8921", "pgp": 0, "GoBack": 1, "SID": 5972, "NameZh": "\u4e09\u9686\u8def\u53e3", "RouteId": 362, "SeqNo": 36, "Terminal": 0, "DistrictId": 1, "Latitude": 22.58736, "Longitude": 120.4049, "IVRNo": 9208, "EXTVoiceNo": 8921, "traveltime": 0, "holidayTraveltime": 0}, {"Id": "8755", "pgp": 0, "GoBack": 1, "SID": 6271, "NameZh": "\u5b89\u5b89\u5bb6\u5712", "RouteId": 362, "SeqNo": 37, "Terminal": 0, "DistrictId": 1, "Latitude": 22.590219, "Longitude": 120.403719, "IVRNo": 64, "EXTVoiceNo": 8755, "traveltime": 0, "holidayTraveltime": 0}, {"Id": "8922", "pgp": 0, "GoBack": 1, "SID": 5973, "NameZh": "\u9ad8\u96c4\u76e3\u7344", "RouteId": 362, "SeqNo": 38, "Terminal": 0, "DistrictId": 1, "Latitude": 22.592164, "Longitude": 120.402926, "IVRNo": 9345, "EXTVoiceNo": 8922, "traveltime": 0, "holidayTraveltime": 0}, {"Id": "8923", "pgp": 0, "GoBack": 1, "SID": 5974, "NameZh": "\u9ad8\u82f1\u5de5\u5546", "RouteId": 362, "SeqNo": 39, "Terminal": 0, "DistrictId": 1, "Latitude": 22.594406, "Longitude": 120.402038, "IVRNo": 9346, "EXTVoiceNo": 8923, "traveltime": 0, "holidayTraveltime": 0}, {"Id": "8924", "pgp": 0, "GoBack": 1, "SID": 5975, "NameZh": "\u5927\u5bee\u8def\u53e3", "RouteId": 362, "SeqNo": 40, "Terminal": 0, "DistrictId": 1, "Latitude": 22.59779, "Longitude": 120.400746, "IVRNo": 9347, "EXTVoiceNo": 8924, "traveltime": 0, "holidayTraveltime": 0}, {"Id": "2389", "pgp": 0, "GoBack": 1, "SID": 14331, "NameZh": "\u5927\u5bee\u8fb2\u6703", "RouteId": 362, "SeqNo": 41, "Terminal": 0, "DistrictId": 1, "Latitude": 22.601593, "Longitude": 120.397897, "IVRNo": 32389, "EXTVoiceNo": 32389, "traveltime": 0, "holidayTraveltime": 0}, {"Id": "9997", "pgp": 0, "GoBack": 1, "SID": 8705, "NameZh": "\u4e2d\u5c71\u5de5\u5546", "RouteId": 362, "SeqNo": 42, "Terminal": 0, "DistrictId": 1, "Latitude": 22.602694, "Longitude": 120.397045, "IVRNo": 189, "EXTVoiceNo": 19997, "traveltime": 0, "holidayTraveltime": 0}, {"Id": "9348", "pgp": 0, "GoBack": 1, "SID": 18428, "NameZh": "\u5927\u5bee\u5340\u516c\u6240", "RouteId": 362, "SeqNo": 43, "Terminal": 0, "DistrictId": 1, "Latitude": 22.604553, "Longitude": 120.395724, "IVRNo": 188, "EXTVoiceNo": 9348, "traveltime": 0, "holidayTraveltime": 0}, {"Id": "1022", "pgp": 0, "GoBack": 1, "SID": 10627, "NameZh": "\u9032\u5b78\u8def", "RouteId": 362, "SeqNo": 44, "Terminal": 0, "DistrictId": 1, "Latitude": 22.605885, "Longitude": 120.393908, "IVRNo": 794, "EXTVoiceNo": 21022, "traveltime": 0, "holidayTraveltime": 0}, {"Id": "1083", "pgp": 0, "GoBack": 1, "SID": 16927, "NameZh": "\u8f14\u82f1\u79d1\u5927\u6821\u5340", "RouteId": 362, "SeqNo": 45, "Terminal": 1, "DistrictId": 1, "Latitude": 22.603998, "Longitude": 120.391713, "IVRNo": 9253, "EXTVoiceNo": 21083, "traveltime": 0, "holidayTraveltime": 0}, {"Id": "1083", "pgp": 0, "GoBack": 2, "SID": 14700, "NameZh": "\u8f14\u82f1\u79d1\u5927\u6821\u5340", "RouteId": 362, "SeqNo": 1, "Terminal": 0, "DistrictId": 1, "Latitude": 22.603998, "Longitude": 120.391713, "IVRNo": 9253, "EXTVoiceNo": 21083, "traveltime": 0, "holidayTraveltime": 0}, {"Id": "3022", "pgp": 0, "GoBack": 2, "SID": 19241, "NameZh": "\u8f14\u82f1\u79d1\u5927\u5716\u66f8\u9928", "RouteId": 362, "SeqNo": 2, "Terminal": 0, "DistrictId": 1, "Latitude": 22.602534, "Longitude": 120.38916, "IVRNo": 33022, "EXTVoiceNo": 33022, "traveltime": 0, "holidayTraveltime": 0}, {"Id": "0145", "pgp": 0, "GoBack": 2, "SID": 19240, "NameZh": "\u8f14\u82f1\u79d1\u5927\u4e2d\u6b63\u5802", "RouteId": 362, "SeqNo": 3, "Terminal": 0, "DistrictId": 1, "Latitude": 22.601024, "Longitude": 120.389919, "IVRNo": 10282, "EXTVoiceNo": 20145, "traveltime": 0, "holidayTraveltime": 0}, {"Id": "1022", "pgp": 0, "GoBack": 2, "SID": 14577, "NameZh": "\u9032\u5b78\u8def", "RouteId": 362, "SeqNo": 4, "Terminal": 0, "DistrictId": 1, "Latitude": 22.605428, "Longitude": 120.393792, "IVRNo": 794, "EXTVoiceNo": 21022, "traveltime": 0, "holidayTraveltime": 0}, {"Id": "9348", "pgp": 0, "GoBack": 2, "SID": 5978, "NameZh": "\u5927\u5bee\u5340\u516c\u6240", "RouteId": 362, "SeqNo": 5, "Terminal": 0, "DistrictId": 1, "Latitude": 22.604674, "Longitude": 120.395613, "IVRNo": 188, "EXTVoiceNo": 9348, "traveltime": 0, "holidayTraveltime": 0}, {"Id": "9997", "pgp": 0, "GoBack": 2, "SID": 8725, "NameZh": "\u4e2d\u5c71\u5de5\u5546", "RouteId": 362, "SeqNo": 6, "Terminal": 0, "DistrictId": 1, "Latitude": 22.60266, "Longitude": 120.39706, "IVRNo": 189, "EXTVoiceNo": 19997, "traveltime": 0, "holidayTraveltime": 0}, {"Id": "2389", "pgp": 0, "GoBack": 2, "SID": 5976, "NameZh": "\u5927\u5bee\u8fb2\u6703", "RouteId": 362, "SeqNo": 7, "Terminal": 0, "DistrictId": 1, "Latitude": 22.601528, "Longitude": 120.397943, "IVRNo": 32389, "EXTVoiceNo": 32389, "traveltime": 0, "holidayTraveltime": 0}, {"Id": "8924", "pgp": 0, "GoBack": 2, "SID": 5980, "NameZh": "\u5927\u5bee\u8def\u53e3", "RouteId": 362, "SeqNo": 8, "Terminal": 0, "DistrictId": 1, "Latitude": 22.597717, "Longitude": 120.40063, "IVRNo": 9347, "EXTVoiceNo": 8924, "traveltime": 0, "holidayTraveltime": 0}, {"Id": "8923", "pgp": 0, "GoBack": 2, "SID": 5981, "NameZh": "\u9ad8\u82f1\u5de5\u5546", "RouteId": 362, "SeqNo": 9, "Terminal": 0, "DistrictId": 1, "Latitude": 22.594356, "Longitude": 120.401922, "IVRNo": 9346, "EXTVoiceNo": 8923, "traveltime": 0, "holidayTraveltime": 0}, {"Id": "8922", "pgp": 0, "GoBack": 2, "SID": 5982, "NameZh": "\u9ad8\u96c4\u76e3\u7344", "RouteId": 362, "SeqNo": 10, "Terminal": 0, "DistrictId": 1, "Latitude": 22.592073, "Longitude": 120.402813, "IVRNo": 9345, "EXTVoiceNo": 8922, "traveltime": 0, "holidayTraveltime": 0}, {"Id": "8755", "pgp": 0, "GoBack": 2, "SID": 6272, "NameZh": "\u5b89\u5b89\u5bb6\u5712", "RouteId": 362, "SeqNo": 11, "Terminal": 0, "DistrictId": 1, "Latitude": 22.590338, "Longitude": 120.403612, "IVRNo": 64, "EXTVoiceNo": 8755, "traveltime": 0, "holidayTraveltime": 0}, {"Id": "8921", "pgp": 0, "GoBack": 2, "SID": 5983, "NameZh": "\u4e09\u9686\u8def\u53e3", "RouteId": 362, "SeqNo": 12, "Terminal": 0, "DistrictId": 1, "Latitude": 22.587222, "Longitude": 120.404761, "IVRNo": 9208, "EXTVoiceNo": 8921, "traveltime": 0, "holidayTraveltime": 0}, {"Id": "8920", "pgp": 0, "GoBack": 2, "SID": 5984, "NameZh": "\u5927\u5d0e\u8173\u8def\u53e3", "RouteId": 362, "SeqNo": 13, "Terminal": 0, "DistrictId": 1, "Latitude": 22.584425, "Longitude": 120.405896, "IVRNo": 9343, "EXTVoiceNo": 8920, "traveltime": 0, "holidayTraveltime": 0}, {"Id": "8919", "pgp": 0, "GoBack": 2, "SID": 5985, "NameZh": "\u5927\u5d0e\u8173(\u5927\u5bee)", "RouteId": 362, "SeqNo": 14, "Terminal": 0, "DistrictId": 1, "Latitude": 22.58209, "Longitude": 120.406849, "IVRNo": 9342, "EXTVoiceNo": 8919, "traveltime": 0, "holidayTraveltime": 0}, {"Id": "8918", "pgp": 0, "GoBack": 2, "SID": 11463, "NameZh": "\u91d1\u7687\u516c\u53f8", "RouteId": 362, "SeqNo": 15, "Terminal": 0, "DistrictId": 1, "Latitude": 22.577585, "Longitude": 120.410153, "IVRNo": 9341, "EXTVoiceNo": 8918, "traveltime": 0, "holidayTraveltime": 0}, {"Id": "8917", "pgp": 0, "GoBack": 2, "SID": 5986, "NameZh": "\u904e\u6eaa\u8def\u53e3", "RouteId": 362, "SeqNo": 16, "Terminal": 0, "DistrictId": 1, "Latitude": 22.575375, "Longitude": 120.416178, "IVRNo": 9340, "EXTVoiceNo": 8917, "traveltime": 0, "holidayTraveltime": 0}, {"Id": "8916", "pgp": 0, "GoBack": 2, "SID": 5987, "NameZh": "\u6f6e\u5bee\u570b\u4e2d", "RouteId": 362, "SeqNo": 17, "Terminal": 0, "DistrictId": 1, "Latitude": 22.563642, "Longitude": 120.425516, "IVRNo": 9339, "EXTVoiceNo": 8916, "traveltime": 0, "holidayTraveltime": 0}, {"Id": "8915", "pgp": 0, "GoBack": 2, "SID": 5988, "NameZh": "\u6f6e\u5bee", "RouteId": 362, "SeqNo": 18, "Terminal": 0, "DistrictId": 1, "Latitude": 22.562577, "Longitude": 120.42856, "IVRNo": 9338, "EXTVoiceNo": 8915, "traveltime": 0, "holidayTraveltime": 0}, {"Id": "8914", "pgp": 0, "GoBack": 2, "SID": 5989, "NameZh": "\u6703\u7d50", "RouteId": 362, "SeqNo": 19, "Terminal": 0, "DistrictId": 1, "Latitude": 22.555525, "Longitude": 120.423803, "IVRNo": 9337, "EXTVoiceNo": 8914, "traveltime": 0, "holidayTraveltime": 0}, {"Id": "8913", "pgp": 0, "GoBack": 2, "SID": 5990, "NameZh": "\u71df\u623f(\u5927\u5bee)", "RouteId": 362, "SeqNo": 20, "Terminal": 0, "DistrictId": 1, "Latitude": 22.554313, "Longitude": 120.417548, "IVRNo": 455, "EXTVoiceNo": 8913, "traveltime": 0, "holidayTraveltime": 0}, {"Id": "0833", "pgp": 0, "GoBack": 2, "SID": 5991, "NameZh": "\u65b0\u539d\u8def\u53e3", "RouteId": 362, "SeqNo": 21, "Terminal": 0, "DistrictId": 1, "Latitude": 22.561344, "Longitude": 120.410425, "IVRNo": 9335, "EXTVoiceNo": 20833, "traveltime": 0, "holidayTraveltime": 0}, {"Id": "8911", "pgp": 0, "GoBack": 2, "SID": 5992, "NameZh": "\u65b0\u539d\u8def", "RouteId": 362, "SeqNo": 22, "Terminal": 0, "DistrictId": 1, "Latitude": 22.561406, "Longitude": 120.407668, "IVRNo": 9334, "EXTVoiceNo": 8911, "traveltime": 0, "holidayTraveltime": 0}, {"Id": "8910", "pgp": 0, "GoBack": 2, "SID": 5993, "NameZh": "\u65b0\u539d\u8def\u516c\u5893", "RouteId": 362, "SeqNo": 23, "Terminal": 0, "DistrictId": 1, "Latitude": 22.561678, "Longitude": 120.402323, "IVRNo": 9333, "EXTVoiceNo": 8910, "traveltime": 0, "holidayTraveltime": 0}, {"Id": "2322", "pgp": 0, "GoBack": 2, "SID": 5994, "NameZh": "\u576a\u9802\u570b\u5c0f(\u5927\u5e73\u8def)", "RouteId": 362, "SeqNo": 24, "Terminal": 0, "DistrictId": 1, "Latitude": 22.561635, "Longitude": 120.392027, "IVRNo": 2322, "EXTVoiceNo": 2322, "traveltime": 0, "holidayTraveltime": 0}, {"Id": "0050", "pgp": 0, "GoBack": 2, "SID": 9692, "NameZh": "\u6c38\u548c\u8857\u53e3", "RouteId": 362, "SeqNo": 25, "Terminal": 0, "DistrictId": 1, "Latitude": 22.562236, "Longitude": 120.390267, "IVRNo": 9713, "EXTVoiceNo": 50, "traveltime": 0, "holidayTraveltime": 0}, {"Id": "2318", "pgp": 0, "GoBack": 2, "SID": 1492, "NameZh": "\u5927\u576a\u9802", "RouteId": 362, "SeqNo": 26, "Terminal": 0, "DistrictId": 1, "Latitude": 22.564398, "Longitude": 120.387366, "IVRNo": 2318, "EXTVoiceNo": 2318, "traveltime": 0, "holidayTraveltime": 0}, {"Id": "2317", "pgp": 0, "GoBack": 2, "SID": 1493, "NameZh": "\u9ad8\u677e\u8def\u6a4b", "RouteId": 362, "SeqNo": 27, "Terminal": 0, "DistrictId": 1, "Latitude": 22.56955, "Longitude": 120.378538, "IVRNo": 2317, "EXTVoiceNo": 2317, "traveltime": 0, "holidayTraveltime": 0}, {"Id": "8899", "pgp": 0, "GoBack": 2, "SID": 5629, "NameZh": "\u677e\u6b63\u8def\u53e3", "RouteId": 362, "SeqNo": 28, "Terminal": 0, "DistrictId": 1, "Latitude": 22.570786, "Longitude": 120.375812, "IVRNo": 8613, "EXTVoiceNo": 8899, "traveltime": 0, "holidayTraveltime": 0}, {"Id": "2316", "pgp": 0, "GoBack": 2, "SID": 11491, "NameZh": "\u592a\u5e73\u570b\u5c0f", "RouteId": 362, "SeqNo": 29, "Terminal": 0, "DistrictId": 1, "Latitude": 22.572648, "Longitude": 120.372695, "IVRNo": 2087, "EXTVoiceNo": 2316, "traveltime": 0, "holidayTraveltime": 0}, {"Id": "2082", "pgp": 0, "GoBack": 2, "SID": 1203, "NameZh": "\u9ad8\u677e\u8def", "RouteId": 362, "SeqNo": 30, "Terminal": 0, "DistrictId": 1, "Latitude": 22.572735, "Longitude": 120.369789, "IVRNo": 32355, "EXTVoiceNo": 2082, "traveltime": 0, "holidayTraveltime": 0}, {"Id": "2694", "pgp": 0, "GoBack": 2, "SID": 1948, "NameZh": "\u9ad8\u677e(\u9ad8\u677e\u8def)", "RouteId": 362, "SeqNo": 31, "Terminal": 0, "DistrictId": 1, "Latitude": 22.57286, "Longitude": 120.36805, "IVRNo": 2694, "EXTVoiceNo": 2694, "traveltime": 0, "holidayTraveltime": 0}, {"Id": "2081", "pgp": 0, "GoBack": 2, "SID": 1204, "NameZh": "\u5b8f\u5e73\u8def\u53e3", "RouteId": 362, "SeqNo": 32, "Terminal": 0, "DistrictId": 1, "Latitude": 22.572953, "Longitude": 120.366785, "IVRNo": 2050, "EXTVoiceNo": 2081, "traveltime": 0, "holidayTraveltime": 0}, {"Id": "2012", "pgp": 0, "GoBack": 2, "SID": 990, "NameZh": "\u98db\u6a5f\u8def\u53e3", "RouteId": 362, "SeqNo": 33, "Terminal": 0, "DistrictId": 1, "Latitude": 22.572471, "Longitude": 120.365117, "IVRNo": 2012, "EXTVoiceNo": 2012, "traveltime": 0, "holidayTraveltime": 0}, {"Id": "2013", "pgp": 0, "GoBack": 2, "SID": 1181, "NameZh": "\u5b8f\u6587\u8def\u53e3", "RouteId": 362, "SeqNo": 34, "Terminal": 0, "DistrictId": 1, "Latitude": 22.57153, "Longitude": 120.363784, "IVRNo": 2013, "EXTVoiceNo": 2013, "traveltime": 0, "holidayTraveltime": 0}, {"Id": "2014", "pgp": 0, "GoBack": 2, "SID": 1180, "NameZh": "\u677e\u67cf\u8857\u53e3", "RouteId": 362, "SeqNo": 35, "Terminal": 0, "DistrictId": 1, "Latitude": 22.570337, "Longitude": 120.362058, "IVRNo": 2014, "EXTVoiceNo": 2014, "traveltime": 0, "holidayTraveltime": 0}, {"Id": "2410", "pgp": 0, "GoBack": 2, "SID": 11492, "NameZh": "\u5c71\u660e\u8def(\u5b8f\u5e73\u8def\u53e3)", "RouteId": 362, "SeqNo": 36, "Terminal": 0, "DistrictId": 1, "Latitude": 22.569213, "Longitude": 120.361954, "IVRNo": 2410, "EXTVoiceNo": 2410, "traveltime": 0, "holidayTraveltime": 0}, {"Id": "2409", "pgp": 0, "GoBack": 2, "SID": 1696, "NameZh": "\u5c0f\u6e2f\u91ab\u9662(\u6f22\u6c11\u8def\u53e3)", "RouteId": 362, "SeqNo": 37, "Terminal": 0, "DistrictId": 1, "Latitude": 22.56822, "Longitude": 120.362385, "IVRNo": 2430, "EXTVoiceNo": 2409, "traveltime": 0, "holidayTraveltime": 0}, {"Id": "2309", "pgp": 0, "GoBack": 2, "SID": 1513, "NameZh": "\u65b0\u8c50\u8857\u53e3", "RouteId": 362, "SeqNo": 38, "Terminal": 0, "DistrictId": 1, "Latitude": 22.567187, "Longitude": 120.36069, "IVRNo": 2309, "EXTVoiceNo": 2309, "traveltime": 0, "holidayTraveltime": 0}, {"Id": "2307", "pgp": 0, "GoBack": 2, "SID": 1521, "NameZh": "\u5c0f\u6e2f\u9ad8\u4e2d", "RouteId": 362, "SeqNo": 39, "Terminal": 0, "DistrictId": 1, "Latitude": 22.566912, "Longitude": 120.357604, "IVRNo": 2307, "EXTVoiceNo": 2307, "traveltime": 0, "holidayTraveltime": 0}, {"Id": "2306", "pgp": 0, "GoBack": 2, "SID": 1524, "NameZh": "\u4e2d\u5c71\u570b\u4e2d", "RouteId": 362, "SeqNo": 40, "Terminal": 0, "DistrictId": 1, "Latitude": 22.566937, "Longitude": 120.35515, "IVRNo": 2306, "EXTVoiceNo": 2306, "traveltime": 0, "holidayTraveltime": 0}, {"Id": "6028", "pgp": 0, "GoBack": 2, "SID": 4484, "NameZh": "\u6377\u904b\u5c0f\u6e2f\u7ad9", "RouteId": 362, "SeqNo": 41, "Terminal": 0, "DistrictId": 1, "Latitude": 22.564664, "Longitude": 120.354048, "IVRNo": 2040, "EXTVoiceNo": 6028, "traveltime": 0, "holidayTraveltime": 0}, {"Id": "2339", "pgp": 0, "GoBack": 2, "SID": 1534, "NameZh": "\u4e8c\u82d3\u570b\u5c0f(\u6377\u904b\u5c0f\u6e2f\u7ad9)", "RouteId": 362, "SeqNo": 42, "Terminal": 0, "DistrictId": 1, "Latitude": 22.565733, "Longitude": 120.351671, "IVRNo": 2339, "EXTVoiceNo": 2339, "traveltime": 0, "holidayTraveltime": 0}, {"Id": "2504", "pgp": 0, "GoBack": 2, "SID": 1801, "NameZh": "\u5e97\u5317\u8def\u53e3", "RouteId": 362, "SeqNo": 43, "Terminal": 0, "DistrictId": 1, "Latitude": 22.563616, "Longitude": 120.35018, "IVRNo": 2505, "EXTVoiceNo": 2504, "traveltime": 0, "holidayTraveltime": 0}, {"Id": "2570", "pgp": 0, "GoBack": 2, "SID": 1806, "NameZh": "\u5927\u696d\u5317\u8def", "RouteId": 362, "SeqNo": 44, "Terminal": 0, "DistrictId": 1, "Latitude": 22.563372, "Longitude": 120.347985, "IVRNo": 2504, "EXTVoiceNo": 2570, "traveltime": 0, "holidayTraveltime": 0}, {"Id": "2303", "pgp": 0, "GoBack": 2, "SID": 1809, "NameZh": "\u4e8c\u82d3(\u5927\u696d\u5317\u8def)", "RouteId": 362, "SeqNo": 45, "Terminal": 0, "DistrictId": 1, "Latitude": 22.564695, "Longitude": 120.346785, "IVRNo": 2052, "EXTVoiceNo": 2303, "traveltime": 0, "holidayTraveltime": 0}, {"Id": "2002", "pgp": 0, "GoBack": 2, "SID": 1008, "NameZh": "\u5c0f\u6e2f\u5206\u5c40", "RouteId": 362, "SeqNo": 46, "Terminal": 0, "DistrictId": 1, "Latitude": 22.565633, "Longitude": 120.344206, "IVRNo": 2002, "EXTVoiceNo": 2002, "traveltime": 0, "holidayTraveltime": 0}, {"Id": "2001", "pgp": 0, "GoBack": 2, "SID": 949, "NameZh": "\u5c0f\u6e2f\u7ad9", "RouteId": 362, "SeqNo": 47, "Terminal": 1, "DistrictId": 1, "Latitude": 22.565349, "Longitude": 120.3411, "IVRNo": 2000, "EXTVoiceNo": 2001, "traveltime": 0, "holidayTraveltime": 0}]}