{"en": [{"Id": "7007", "pgp": 0, "GoBack": 1, "SID": 5716, "NameZh": "MRT Nanzih Export Processing Zone (Processing Zone)", "RouteId": 8561, "SeqNo": 1, "Terminal": 0, "DistrictId": 1, "Latitude": 22.71921, "Longitude": 120.30616, "IVRNo": 7007, "EXTVoiceNo": 7007, "traveltime": 0, "holidayTraveltime": 0}, {"Id": "0258", "pgp": 0, "GoBack": 1, "SID": 5717, "NameZh": "Export Processing Zone (Jhongyang Rd.)", "RouteId": 8561, "SeqNo": 2, "Terminal": 0, "DistrictId": 1, "Latitude": 22.72338, "Longitude": 120.30382, "IVRNo": 8760, "EXTVoiceNo": 20258, "traveltime": 0, "holidayTraveltime": 0}, {"Id": "7595", "pgp": 0, "GoBack": 1, "SID": 5122, "NameZh": "Nanzih Export Processing Zone North Gate", "RouteId": 8561, "SeqNo": 3, "Terminal": 0, "DistrictId": 1, "Latitude": 22.725365, "Longitude": 120.304033, "IVRNo": 7504, "EXTVoiceNo": 7595, "traveltime": 0, "holidayTraveltime": 0}, {"Id": "8800", "pgp": 0, "GoBack": 1, "SID": 5759, "NameZh": "Dewei St. Intersection", "RouteId": 8561, "SeqNo": 4, "Terminal": 0, "DistrictId": 1, "Latitude": 22.727304, "Longitude": 120.310483, "IVRNo": 8800, "EXTVoiceNo": 8800, "traveltime": 0, "holidayTraveltime": 0}, {"Id": "8801", "pgp": 0, "GoBack": 1, "SID": 5760, "NameZh": "Desiang Rd.", "RouteId": 8561, "SeqNo": 5, "Terminal": 0, "DistrictId": 1, "Latitude": 22.728597, "Longitude": 120.311877, "IVRNo": 8801, "EXTVoiceNo": 8801, "traveltime": 0, "holidayTraveltime": 0}, {"Id": "7513", "pgp": 0, "GoBack": 1, "SID": 5761, "NameZh": "Haijhuan Rd. Intersection (Desian Rd.)", "RouteId": 8561, "SeqNo": 6, "Terminal": 0, "DistrictId": 1, "Latitude": 22.72773, "Longitude": 120.3092, "IVRNo": 7513, "EXTVoiceNo": 7513, "traveltime": 0, "holidayTraveltime": 0}, {"Id": "8807", "pgp": 0, "GoBack": 1, "SID": 5762, "NameZh": "Desiang Rd. Intersection", "RouteId": 8561, "SeqNo": 7, "Terminal": 0, "DistrictId": 1, "Latitude": 22.72695, "Longitude": 120.3072, "IVRNo": 8803, "EXTVoiceNo": 8807, "traveltime": 0, "holidayTraveltime": 0}, {"Id": "8806", "pgp": 0, "GoBack": 1, "SID": 5763, "NameZh": "Desian Rd. Intersection", "RouteId": 8561, "SeqNo": 8, "Terminal": 0, "DistrictId": 1, "Latitude": 22.72641, "Longitude": 120.304834, "IVRNo": 8804, "EXTVoiceNo": 8806, "traveltime": 0, "holidayTraveltime": 0}, {"Id": "8740", "pgp": 0, "GoBack": 1, "SID": 5686, "NameZh": "Dehuei Rd. Intersection", "RouteId": 8561, "SeqNo": 9, "Terminal": 0, "DistrictId": 1, "Latitude": 22.72616, "Longitude": 120.30217, "IVRNo": 8740, "EXTVoiceNo": 8740, "traveltime": 0, "holidayTraveltime": 0}, {"Id": "1289", "pgp": 0, "GoBack": 1, "SID": 5687, "NameZh": "Cueibing Rd. Intersection (Hueimin Rd.)", "RouteId": 8561, "SeqNo": 10, "Terminal": 0, "DistrictId": 1, "Latitude": 22.724952, "Longitude": 120.298995, "IVRNo": 1289, "EXTVoiceNo": 1289, "traveltime": 0, "holidayTraveltime": 0}, {"Id": "8749", "pgp": 0, "GoBack": 1, "SID": 5688, "NameZh": "Yicyun Rd. (Demin Rd. Intersection)", "RouteId": 8561, "SeqNo": 11, "Terminal": 0, "DistrictId": 1, "Latitude": 22.7237, "Longitude": 120.29756, "IVRNo": 8742, "EXTVoiceNo": 8749, "traveltime": 0, "holidayTraveltime": 0}, {"Id": "7401", "pgp": 0, "GoBack": 1, "SID": 4965, "NameZh": "Asia Town Community", "RouteId": 8561, "SeqNo": 12, "Terminal": 0, "DistrictId": 1, "Latitude": 22.72251, "Longitude": 120.29541, "IVRNo": 7401, "EXTVoiceNo": 7401, "traveltime": 0, "holidayTraveltime": 0}, {"Id": "7502", "pgp": 0, "GoBack": 1, "SID": 6262, "NameZh": "Dechang Rd. (Youchang Forest Park)", "RouteId": 8561, "SeqNo": 13, "Terminal": 0, "DistrictId": 1, "Latitude": 22.72189, "Longitude": 120.29342, "IVRNo": 7502, "EXTVoiceNo": 7502, "traveltime": 0, "holidayTraveltime": 0}, {"Id": "7402", "pgp": 0, "GoBack": 1, "SID": 4966, "NameZh": "Houchang New Rd. Intersection", "RouteId": 8561, "SeqNo": 14, "Terminal": 0, "DistrictId": 1, "Latitude": 22.72179, "Longitude": 120.29165, "IVRNo": 7402, "EXTVoiceNo": 7402, "traveltime": 0, "holidayTraveltime": 0}, {"Id": "8747", "pgp": 0, "GoBack": 1, "SID": 5690, "NameZh": "Demin Evening Market", "RouteId": 8561, "SeqNo": 15, "Terminal": 0, "DistrictId": 1, "Latitude": 22.72053, "Longitude": 120.28838, "IVRNo": 8744, "EXTVoiceNo": 8747, "traveltime": 0, "holidayTraveltime": 0}, {"Id": "0322", "pgp": 0, "GoBack": 1, "SID": 5718, "NameZh": "Minchang St.", "RouteId": 8561, "SeqNo": 16, "Terminal": 0, "DistrictId": 1, "Latitude": 22.71791, "Longitude": 120.28863, "IVRNo": 8761, "EXTVoiceNo": 20322, "traveltime": 0, "holidayTraveltime": 0}, {"Id": "8118", "pgp": 0, "GoBack": 1, "SID": 5689, "NameZh": "Lanchang Rd. Intersection", "RouteId": 8561, "SeqNo": 17, "Terminal": 0, "DistrictId": 1, "Latitude": 22.71738, "Longitude": 120.291, "IVRNo": 8118, "EXTVoiceNo": 8118, "traveltime": 0, "holidayTraveltime": 0}, {"Id": "1177", "pgp": 0, "GoBack": 1, "SID": 4976, "NameZh": "Beiyouchang (Houchang New Rd.)", "RouteId": 8561, "SeqNo": 18, "Terminal": 0, "DistrictId": 1, "Latitude": 22.71981, "Longitude": 120.29158, "IVRNo": 1177, "EXTVoiceNo": 1177, "traveltime": 0, "holidayTraveltime": 0}, {"Id": "7407", "pgp": 0, "GoBack": 1, "SID": 4978, "NameZh": "Singfu New Village", "RouteId": 8561, "SeqNo": 19, "Terminal": 0, "DistrictId": 1, "Latitude": 22.72346, "Longitude": 120.29124, "IVRNo": 7407, "EXTVoiceNo": 7407, "traveltime": 0, "holidayTraveltime": 0}, {"Id": "7608", "pgp": 0, "GoBack": 1, "SID": 5239, "NameZh": "Lantian Rd. Intersection", "RouteId": 8561, "SeqNo": 20, "Terminal": 0, "DistrictId": 1, "Latitude": 22.726059, "Longitude": 120.291671, "IVRNo": 7608, "EXTVoiceNo": 7608, "traveltime": 0, "holidayTraveltime": 0}, {"Id": "7408", "pgp": 0, "GoBack": 1, "SID": 4979, "NameZh": "Kaohsiung Municipal Chungshang Senior High School", "RouteId": 8561, "SeqNo": 21, "Terminal": 0, "DistrictId": 1, "Latitude": 22.72817, "Longitude": 120.29196, "IVRNo": 7408, "EXTVoiceNo": 7408, "traveltime": 0, "holidayTraveltime": 0}, {"Id": "7612", "pgp": 0, "GoBack": 1, "SID": 5726, "NameZh": "Dasyue 32nd St. Intersection", "RouteId": 8561, "SeqNo": 22, "Terminal": 0, "DistrictId": 1, "Latitude": 22.731304, "Longitude": 120.292311, "IVRNo": 8770, "EXTVoiceNo": 7612, "traveltime": 0, "holidayTraveltime": 0}, {"Id": "7610", "pgp": 0, "GoBack": 1, "SID": 5242, "NameZh": "Dasyue S. Rd. (Lanchang Rd. Intersection)", "RouteId": 8561, "SeqNo": 23, "Terminal": 0, "DistrictId": 1, "Latitude": 22.73243, "Longitude": 120.29152, "IVRNo": 7610, "EXTVoiceNo": 7610, "traveltime": 0, "holidayTraveltime": 0}, {"Id": "8745", "pgp": 0, "GoBack": 1, "SID": 5691, "NameZh": "College of Management, National University of Kaohsiung", "RouteId": 8561, "SeqNo": 24, "Terminal": 0, "DistrictId": 1, "Latitude": 22.732405, "Longitude": 120.288234, "IVRNo": 8745, "EXTVoiceNo": 8745, "traveltime": 0, "holidayTraveltime": 0}, {"Id": "1090", "pgp": 0, "GoBack": 1, "SID": 9538, "NameZh": "National University of Kaohsiung (Dasyue S. Rd.)", "RouteId": 8561, "SeqNo": 25, "Terminal": 0, "DistrictId": 1, "Latitude": 22.732213, "Longitude": 120.28546, "IVRNo": 1090, "EXTVoiceNo": 1090, "traveltime": 0, "holidayTraveltime": 0}, {"Id": "7703", "pgp": 0, "GoBack": 1, "SID": 12241, "NameZh": "Dasyue 17th St. Intersection", "RouteId": 8561, "SeqNo": 26, "Terminal": 0, "DistrictId": 1, "Latitude": 22.73141, "Longitude": 120.28057, "IVRNo": 9811, "EXTVoiceNo": 7703, "traveltime": 0, "holidayTraveltime": 0}, {"Id": "0117", "pgp": 0, "GoBack": 1, "SID": 5764, "NameZh": "Dasyue W. Rd. Intersection (The First General Building)", "RouteId": 8561, "SeqNo": 27, "Terminal": 0, "DistrictId": 1, "Latitude": 22.72999, "Longitude": 120.278407, "IVRNo": 8805, "EXTVoiceNo": 20117, "traveltime": 0, "holidayTraveltime": 0}, {"Id": "9378", "pgp": 0, "GoBack": 1, "SID": 16251, "NameZh": "Yuanjhong Elementary School (Dasyue 26th St. Intersection)", "RouteId": 8561, "SeqNo": 28, "Terminal": 0, "DistrictId": 1, "Latitude": 22.72843, "Longitude": 120.279049, "IVRNo": 1130, "EXTVoiceNo": 9378, "traveltime": 0, "holidayTraveltime": 0}, {"Id": "8612", "pgp": 0, "GoBack": 1, "SID": 4633, "NameZh": "South of Lantian (National University of Kaohsiung)", "RouteId": 8561, "SeqNo": 29, "Terminal": 0, "DistrictId": 1, "Latitude": 22.727, "Longitude": 120.280277, "IVRNo": 8612, "EXTVoiceNo": 8612, "traveltime": 0, "holidayTraveltime": 0}, {"Id": "7416", "pgp": 0, "GoBack": 1, "SID": 5111, "NameZh": "Renshou Temple", "RouteId": 8561, "SeqNo": 30, "Terminal": 0, "DistrictId": 1, "Latitude": 22.728194, "Longitude": 120.283277, "IVRNo": 7416, "EXTVoiceNo": 7416, "traveltime": 0, "holidayTraveltime": 0}, {"Id": "0304", "pgp": 0, "GoBack": 1, "SID": 513, "NameZh": "Dasyue 11th St. Intersection", "RouteId": 8561, "SeqNo": 31, "Terminal": 0, "DistrictId": 1, "Latitude": 22.728088, "Longitude": 120.286952, "IVRNo": 825, "EXTVoiceNo": 304, "traveltime": 0, "holidayTraveltime": 0}, {"Id": "0305", "pgp": 0, "GoBack": 1, "SID": 544, "NameZh": "Dasyue E. Rd. Intersection", "RouteId": 8561, "SeqNo": 32, "Terminal": 1, "DistrictId": 1, "Latitude": 22.72743, "Longitude": 120.290309, "IVRNo": 894, "EXTVoiceNo": 305, "traveltime": 0, "holidayTraveltime": 0}, {"Id": "0305", "pgp": 0, "GoBack": 2, "SID": 17720, "NameZh": "Dasyue E. Rd. Intersection", "RouteId": 8561, "SeqNo": 1, "Terminal": 0, "DistrictId": 1, "Latitude": 22.727239, "Longitude": 120.291575, "IVRNo": 894, "EXTVoiceNo": 305, "traveltime": 0, "holidayTraveltime": 0}, {"Id": "7608", "pgp": 0, "GoBack": 2, "SID": 5240, "NameZh": "Lantian Rd. Intersection", "RouteId": 8561, "SeqNo": 2, "Terminal": 0, "DistrictId": 1, "Latitude": 22.72595, "Longitude": 120.29168, "IVRNo": 7608, "EXTVoiceNo": 7608, "traveltime": 0, "holidayTraveltime": 0}, {"Id": "7407", "pgp": 0, "GoBack": 2, "SID": 5113, "NameZh": "Singfu New Village", "RouteId": 8561, "SeqNo": 3, "Terminal": 0, "DistrictId": 1, "Latitude": 22.72375, "Longitude": 120.29118, "IVRNo": 7407, "EXTVoiceNo": 7407, "traveltime": 0, "holidayTraveltime": 0}, {"Id": "1177", "pgp": 0, "GoBack": 2, "SID": 5114, "NameZh": "Beiyouchang (Houchang New Rd.)", "RouteId": 8561, "SeqNo": 4, "Terminal": 0, "DistrictId": 1, "Latitude": 22.71971, "Longitude": 120.29143, "IVRNo": 1177, "EXTVoiceNo": 1177, "traveltime": 0, "holidayTraveltime": 0}, {"Id": "8118", "pgp": 0, "GoBack": 2, "SID": 5456, "NameZh": "Lanchang Rd. Intersection", "RouteId": 8561, "SeqNo": 5, "Terminal": 0, "DistrictId": 1, "Latitude": 22.71783, "Longitude": 120.29136, "IVRNo": 8118, "EXTVoiceNo": 8118, "traveltime": 0, "holidayTraveltime": 0}, {"Id": "0322", "pgp": 0, "GoBack": 2, "SID": 5719, "NameZh": "Minchang St.", "RouteId": 8561, "SeqNo": 6, "Terminal": 0, "DistrictId": 1, "Latitude": 22.71815, "Longitude": 120.28858, "IVRNo": 8761, "EXTVoiceNo": 20322, "traveltime": 0, "holidayTraveltime": 0}, {"Id": "8747", "pgp": 0, "GoBack": 2, "SID": 5693, "NameZh": "Demin Evening Market", "RouteId": 8561, "SeqNo": 7, "Terminal": 0, "DistrictId": 1, "Latitude": 22.72045, "Longitude": 120.28855, "IVRNo": 8744, "EXTVoiceNo": 8747, "traveltime": 0, "holidayTraveltime": 0}, {"Id": "7402", "pgp": 0, "GoBack": 2, "SID": 4987, "NameZh": "Houchang New Rd. Intersection", "RouteId": 8561, "SeqNo": 8, "Terminal": 0, "DistrictId": 1, "Latitude": 22.72159, "Longitude": 120.29168, "IVRNo": 7402, "EXTVoiceNo": 7402, "traveltime": 0, "holidayTraveltime": 0}, {"Id": "7502", "pgp": 0, "GoBack": 2, "SID": 6263, "NameZh": "Dechang Rd. (Youchang Forest Park)", "RouteId": 8561, "SeqNo": 9, "Terminal": 0, "DistrictId": 1, "Latitude": 22.7217, "Longitude": 120.29327, "IVRNo": 7502, "EXTVoiceNo": 7502, "traveltime": 0, "holidayTraveltime": 0}, {"Id": "7401", "pgp": 0, "GoBack": 2, "SID": 4990, "NameZh": "Asia Town Community", "RouteId": 8561, "SeqNo": 10, "Terminal": 0, "DistrictId": 1, "Latitude": 22.72234, "Longitude": 120.29548, "IVRNo": 7401, "EXTVoiceNo": 7401, "traveltime": 0, "holidayTraveltime": 0}, {"Id": "8749", "pgp": 0, "GoBack": 2, "SID": 5694, "NameZh": "Yicyun Rd. (Demin Rd. Intersection)", "RouteId": 8561, "SeqNo": 11, "Terminal": 0, "DistrictId": 1, "Latitude": 22.72382, "Longitude": 120.29755, "IVRNo": 8742, "EXTVoiceNo": 8749, "traveltime": 0, "holidayTraveltime": 0}, {"Id": "1289", "pgp": 0, "GoBack": 2, "SID": 5695, "NameZh": "Cueibing Rd. Intersection (Hueimin Rd.)", "RouteId": 8561, "SeqNo": 12, "Terminal": 0, "DistrictId": 1, "Latitude": 22.72491, "Longitude": 120.299231, "IVRNo": 1289, "EXTVoiceNo": 1289, "traveltime": 0, "holidayTraveltime": 0}, {"Id": "8740", "pgp": 0, "GoBack": 2, "SID": 5696, "NameZh": "Dehuei Rd. Intersection", "RouteId": 8561, "SeqNo": 13, "Terminal": 0, "DistrictId": 1, "Latitude": 22.7261, "Longitude": 120.30225, "IVRNo": 8740, "EXTVoiceNo": 8740, "traveltime": 0, "holidayTraveltime": 0}, {"Id": "8806", "pgp": 0, "GoBack": 2, "SID": 5765, "NameZh": "Desian Rd. Intersection", "RouteId": 8561, "SeqNo": 14, "Terminal": 0, "DistrictId": 1, "Latitude": 22.726352, "Longitude": 120.304827, "IVRNo": 8804, "EXTVoiceNo": 8806, "traveltime": 0, "holidayTraveltime": 0}, {"Id": "8807", "pgp": 0, "GoBack": 2, "SID": 5766, "NameZh": "Desiang Rd. Intersection", "RouteId": 8561, "SeqNo": 15, "Terminal": 0, "DistrictId": 1, "Latitude": 22.72678, "Longitude": 120.30696, "IVRNo": 8803, "EXTVoiceNo": 8807, "traveltime": 0, "holidayTraveltime": 0}, {"Id": "7513", "pgp": 0, "GoBack": 2, "SID": 5767, "NameZh": "Haijhuan Rd. Intersection (Desian Rd.)", "RouteId": 8561, "SeqNo": 16, "Terminal": 0, "DistrictId": 1, "Latitude": 22.727661, "Longitude": 120.309214, "IVRNo": 7513, "EXTVoiceNo": 7513, "traveltime": 0, "holidayTraveltime": 0}, {"Id": "8801", "pgp": 0, "GoBack": 2, "SID": 5768, "NameZh": "Desiang Rd.", "RouteId": 8561, "SeqNo": 17, "Terminal": 0, "DistrictId": 1, "Latitude": 22.728525, "Longitude": 120.311877, "IVRNo": 8801, "EXTVoiceNo": 8801, "traveltime": 0, "holidayTraveltime": 0}, {"Id": "8800", "pgp": 0, "GoBack": 2, "SID": 5769, "NameZh": "Dewei St. Intersection", "RouteId": 8561, "SeqNo": 18, "Terminal": 0, "DistrictId": 1, "Latitude": 22.727414, "Longitude": 120.310518, "IVRNo": 8800, "EXTVoiceNo": 8800, "traveltime": 0, "holidayTraveltime": 0}, {"Id": "7595", "pgp": 0, "GoBack": 2, "SID": 5222, "NameZh": "Nanzih Export Processing Zone North Gate", "RouteId": 8561, "SeqNo": 19, "Terminal": 0, "DistrictId": 1, "Latitude": 22.725552, "Longitude": 120.305137, "IVRNo": 7504, "EXTVoiceNo": 7595, "traveltime": 0, "holidayTraveltime": 0}, {"Id": "0258", "pgp": 0, "GoBack": 2, "SID": 5720, "NameZh": "Export Processing Zone (Jhongyang Rd.)", "RouteId": 8561, "SeqNo": 20, "Terminal": 0, "DistrictId": 1, "Latitude": 22.723305, "Longitude": 120.303739, "IVRNo": 8760, "EXTVoiceNo": 20258, "traveltime": 0, "holidayTraveltime": 0}, {"Id": "7007", "pgp": 0, "GoBack": 2, "SID": 5721, "NameZh": "MRT Nanzih Export Processing Zone (Processing Zone)", "RouteId": 8561, "SeqNo": 21, "Terminal": 1, "DistrictId": 1, "Latitude": 22.7192, "Longitude": 120.3062, "IVRNo": 7007, "EXTVoiceNo": 7007, "traveltime": 0, "holidayTraveltime": 0}], "zh": [{"Id": "7007", "pgp": 0, "GoBack": 1, "SID": 5716, "NameZh": "\u6377\u904b\u6960\u6893\u52a0\u5de5\u5340(\u52a0\u5de5\u5340\u5167)", "RouteId": 8561, "SeqNo": 1, "Terminal": 0, "DistrictId": 1, "Latitude": 22.71921, "Longitude": 120.30616, "IVRNo": 7007, "EXTVoiceNo": 7007, "traveltime": 0, "holidayTraveltime": 0}, {"Id": "0258", "pgp": 0, "GoBack": 1, "SID": 5717, "NameZh": "\u52a0\u5de5\u5340(\u4e2d\u592e\u8def)", "RouteId": 8561, "SeqNo": 2, "Terminal": 0, "DistrictId": 1, "Latitude": 22.72338, "Longitude": 120.30382, "IVRNo": 8760, "EXTVoiceNo": 20258, "traveltime": 0, "holidayTraveltime": 0}, {"Id": "7595", "pgp": 0, "GoBack": 1, "SID": 5122, "NameZh": "\u52a0\u5de5\u5340\u5317\u9580", "RouteId": 8561, "SeqNo": 3, "Terminal": 0, "DistrictId": 1, "Latitude": 22.725365, "Longitude": 120.304033, "IVRNo": 7504, "EXTVoiceNo": 7595, "traveltime": 0, "holidayTraveltime": 0}, {"Id": "8800", "pgp": 0, "GoBack": 1, "SID": 5759, "NameZh": "\u5fb7\u7dad\u8857\u53e3", "RouteId": 8561, "SeqNo": 4, "Terminal": 0, "DistrictId": 1, "Latitude": 22.727304, "Longitude": 120.310483, "IVRNo": 8800, "EXTVoiceNo": 8800, "traveltime": 0, "holidayTraveltime": 0}, {"Id": "8801", "pgp": 0, "GoBack": 1, "SID": 5760, "NameZh": "\u5fb7\u7965\u8def", "RouteId": 8561, "SeqNo": 5, "Terminal": 0, "DistrictId": 1, "Latitude": 22.728597, "Longitude": 120.311877, "IVRNo": 8801, "EXTVoiceNo": 8801, "traveltime": 0, "holidayTraveltime": 0}, {"Id": "7513", "pgp": 0, "GoBack": 1, "SID": 5761, "NameZh": "\u6d77\u5c08\u8def\u53e3(\u5fb7\u8ce2\u8def)", "RouteId": 8561, "SeqNo": 6, "Terminal": 0, "DistrictId": 1, "Latitude": 22.72773, "Longitude": 120.3092, "IVRNo": 7513, "EXTVoiceNo": 7513, "traveltime": 0, "holidayTraveltime": 0}, {"Id": "8807", "pgp": 0, "GoBack": 1, "SID": 5762, "NameZh": "\u5fb7\u7965\u8def\u53e3", "RouteId": 8561, "SeqNo": 7, "Terminal": 0, "DistrictId": 1, "Latitude": 22.72695, "Longitude": 120.3072, "IVRNo": 8803, "EXTVoiceNo": 8807, "traveltime": 0, "holidayTraveltime": 0}, {"Id": "8806", "pgp": 0, "GoBack": 1, "SID": 5763, "NameZh": "\u5fb7\u8ce2\u8def\u53e3", "RouteId": 8561, "SeqNo": 8, "Terminal": 0, "DistrictId": 1, "Latitude": 22.72641, "Longitude": 120.304834, "IVRNo": 8804, "EXTVoiceNo": 8806, "traveltime": 0, "holidayTraveltime": 0}, {"Id": "8740", "pgp": 0, "GoBack": 1, "SID": 5686, "NameZh": "\u5fb7\u60e0\u8def\u53e3", "RouteId": 8561, "SeqNo": 9, "Terminal": 0, "DistrictId": 1, "Latitude": 22.72616, "Longitude": 120.30217, "IVRNo": 8740, "EXTVoiceNo": 8740, "traveltime": 0, "holidayTraveltime": 0}, {"Id": "1289", "pgp": 0, "GoBack": 1, "SID": 5687, "NameZh": "\u7fe0\u5c4f\u8def\u53e3(\u60e0\u6c11\u8def)", "RouteId": 8561, "SeqNo": 10, "Terminal": 0, "DistrictId": 1, "Latitude": 22.724952, "Longitude": 120.298995, "IVRNo": 1289, "EXTVoiceNo": 1289, "traveltime": 0, "holidayTraveltime": 0}, {"Id": "8749", "pgp": 0, "GoBack": 1, "SID": 5688, "NameZh": "\u76ca\u7fa4\u8def(\u5fb7\u6c11\u8def\u53e3)", "RouteId": 8561, "SeqNo": 11, "Terminal": 0, "DistrictId": 1, "Latitude": 22.7237, "Longitude": 120.29756, "IVRNo": 8742, "EXTVoiceNo": 8749, "traveltime": 0, "holidayTraveltime": 0}, {"Id": "7401", "pgp": 0, "GoBack": 1, "SID": 4965, "NameZh": "\u4e9e\u6d32\u57ce\u793e\u5340", "RouteId": 8561, "SeqNo": 12, "Terminal": 0, "DistrictId": 1, "Latitude": 22.72251, "Longitude": 120.29541, "IVRNo": 7401, "EXTVoiceNo": 7401, "traveltime": 0, "holidayTraveltime": 0}, {"Id": "7502", "pgp": 0, "GoBack": 1, "SID": 6262, "NameZh": "\u5fb7\u6c11\u8def(\u53f3\u660c\u68ee\u6797\u516c\u5712)", "RouteId": 8561, "SeqNo": 13, "Terminal": 0, "DistrictId": 1, "Latitude": 22.72189, "Longitude": 120.29342, "IVRNo": 7502, "EXTVoiceNo": 7502, "traveltime": 0, "holidayTraveltime": 0}, {"Id": "7402", "pgp": 0, "GoBack": 1, "SID": 4966, "NameZh": "\u5f8c\u660c\u65b0\u8def\u53e3", "RouteId": 8561, "SeqNo": 14, "Terminal": 0, "DistrictId": 1, "Latitude": 22.72179, "Longitude": 120.29165, "IVRNo": 7402, "EXTVoiceNo": 7402, "traveltime": 0, "holidayTraveltime": 0}, {"Id": "8747", "pgp": 0, "GoBack": 1, "SID": 5690, "NameZh": "\u5fb7\u6c11\u9ec3\u660f\u5e02\u5834", "RouteId": 8561, "SeqNo": 15, "Terminal": 0, "DistrictId": 1, "Latitude": 22.72053, "Longitude": 120.28838, "IVRNo": 8744, "EXTVoiceNo": 8747, "traveltime": 0, "holidayTraveltime": 0}, {"Id": "0322", "pgp": 0, "GoBack": 1, "SID": 5718, "NameZh": "\u6c11\u660c\u8857", "RouteId": 8561, "SeqNo": 16, "Terminal": 0, "DistrictId": 1, "Latitude": 22.71791, "Longitude": 120.28863, "IVRNo": 8761, "EXTVoiceNo": 20322, "traveltime": 0, "holidayTraveltime": 0}, {"Id": "8118", "pgp": 0, "GoBack": 1, "SID": 5689, "NameZh": "\u85cd\u660c\u8def\u53e3", "RouteId": 8561, "SeqNo": 17, "Terminal": 0, "DistrictId": 1, "Latitude": 22.71738, "Longitude": 120.291, "IVRNo": 8118, "EXTVoiceNo": 8118, "traveltime": 0, "holidayTraveltime": 0}, {"Id": "1177", "pgp": 0, "GoBack": 1, "SID": 4976, "NameZh": "\u5317\u53f3\u660c(\u5f8c\u660c\u65b0\u8def)", "RouteId": 8561, "SeqNo": 18, "Terminal": 0, "DistrictId": 1, "Latitude": 22.71981, "Longitude": 120.29158, "IVRNo": 1177, "EXTVoiceNo": 1177, "traveltime": 0, "holidayTraveltime": 0}, {"Id": "7407", "pgp": 0, "GoBack": 1, "SID": 4978, "NameZh": "\u5e78\u798f\u65b0\u57ce", "RouteId": 8561, "SeqNo": 19, "Terminal": 0, "DistrictId": 1, "Latitude": 22.72346, "Longitude": 120.29124, "IVRNo": 7407, "EXTVoiceNo": 7407, "traveltime": 0, "holidayTraveltime": 0}, {"Id": "7608", "pgp": 0, "GoBack": 1, "SID": 5239, "NameZh": "\u85cd\u7530\u8def\u53e3", "RouteId": 8561, "SeqNo": 20, "Terminal": 0, "DistrictId": 1, "Latitude": 22.726059, "Longitude": 120.291671, "IVRNo": 7608, "EXTVoiceNo": 7608, "traveltime": 0, "holidayTraveltime": 0}, {"Id": "7408", "pgp": 0, "GoBack": 1, "SID": 4979, "NameZh": "\u4e2d\u5c71\u9ad8\u4e2d", "RouteId": 8561, "SeqNo": 21, "Terminal": 0, "DistrictId": 1, "Latitude": 22.72817, "Longitude": 120.29196, "IVRNo": 7408, "EXTVoiceNo": 7408, "traveltime": 0, "holidayTraveltime": 0}, {"Id": "7612", "pgp": 0, "GoBack": 1, "SID": 5726, "NameZh": "\u5927\u5b7832\u8857\u53e3", "RouteId": 8561, "SeqNo": 22, "Terminal": 0, "DistrictId": 1, "Latitude": 22.731304, "Longitude": 120.292311, "IVRNo": 8770, "EXTVoiceNo": 7612, "traveltime": 0, "holidayTraveltime": 0}, {"Id": "7610", "pgp": 0, "GoBack": 1, "SID": 5242, "NameZh": "\u5927\u5b78\u5357\u8def(\u85cd\u660c\u8def\u53e3)", "RouteId": 8561, "SeqNo": 23, "Terminal": 0, "DistrictId": 1, "Latitude": 22.73243, "Longitude": 120.29152, "IVRNo": 7610, "EXTVoiceNo": 7610, "traveltime": 0, "holidayTraveltime": 0}, {"Id": "8745", "pgp": 0, "GoBack": 1, "SID": 5691, "NameZh": "\u9ad8\u5927\u7ba1\u7406\u5b78\u9662", "RouteId": 8561, "SeqNo": 24, "Terminal": 0, "DistrictId": 1, "Latitude": 22.732405, "Longitude": 120.288234, "IVRNo": 8745, "EXTVoiceNo": 8745, "traveltime": 0, "holidayTraveltime": 0}, {"Id": "1090", "pgp": 0, "GoBack": 1, "SID": 9538, "NameZh": "\u9ad8\u96c4\u5927\u5b78(\u5927\u5b78\u5357\u8def)", "RouteId": 8561, "SeqNo": 25, "Terminal": 0, "DistrictId": 1, "Latitude": 22.732213, "Longitude": 120.28546, "IVRNo": 1090, "EXTVoiceNo": 1090, "traveltime": 0, "holidayTraveltime": 0}, {"Id": "7703", "pgp": 0, "GoBack": 1, "SID": 12241, "NameZh": "\u5927\u5b78\u5341\u4e03\u8857\u53e3", "RouteId": 8561, "SeqNo": 26, "Terminal": 0, "DistrictId": 1, "Latitude": 22.73141, "Longitude": 120.28057, "IVRNo": 9811, "EXTVoiceNo": 7703, "traveltime": 0, "holidayTraveltime": 0}, {"Id": "0117", "pgp": 0, "GoBack": 1, "SID": 5764, "NameZh": "\u5927\u5b78\u897f\u8def\u53e3(\u7b2c\u4e00\u7d9c\u5408\u5927\u6a13)", "RouteId": 8561, "SeqNo": 27, "Terminal": 0, "DistrictId": 1, "Latitude": 22.72999, "Longitude": 120.278407, "IVRNo": 8805, "EXTVoiceNo": 20117, "traveltime": 0, "holidayTraveltime": 0}, {"Id": "9378", "pgp": 0, "GoBack": 1, "SID": 16251, "NameZh": "\u63f4\u4e2d\u570b\u5c0f(\u5927\u5b7826\u8857\u53e3)", "RouteId": 8561, "SeqNo": 28, "Terminal": 0, "DistrictId": 1, "Latitude": 22.72843, "Longitude": 120.279049, "IVRNo": 1130, "EXTVoiceNo": 9378, "traveltime": 0, "holidayTraveltime": 0}, {"Id": "8612", "pgp": 0, "GoBack": 1, "SID": 4633, "NameZh": "\u5357\u85cd\u7530(\u9ad8\u96c4\u5927\u5b78)", "RouteId": 8561, "SeqNo": 29, "Terminal": 0, "DistrictId": 1, "Latitude": 22.727, "Longitude": 120.280277, "IVRNo": 8612, "EXTVoiceNo": 8612, "traveltime": 0, "holidayTraveltime": 0}, {"Id": "7416", "pgp": 0, "GoBack": 1, "SID": 5111, "NameZh": "\u4ec1\u58fd\u5bae", "RouteId": 8561, "SeqNo": 30, "Terminal": 0, "DistrictId": 1, "Latitude": 22.728194, "Longitude": 120.283277, "IVRNo": 7416, "EXTVoiceNo": 7416, "traveltime": 0, "holidayTraveltime": 0}, {"Id": "0304", "pgp": 0, "GoBack": 1, "SID": 513, "NameZh": "\u5927\u5b78\u5341\u4e00\u8857\u53e3", "RouteId": 8561, "SeqNo": 31, "Terminal": 0, "DistrictId": 1, "Latitude": 22.728088, "Longitude": 120.286952, "IVRNo": 825, "EXTVoiceNo": 304, "traveltime": 0, "holidayTraveltime": 0}, {"Id": "0305", "pgp": 0, "GoBack": 1, "SID": 544, "NameZh": "\u5927\u5b78\u6771\u8def\u53e3", "RouteId": 8561, "SeqNo": 32, "Terminal": 1, "DistrictId": 1, "Latitude": 22.72743, "Longitude": 120.290309, "IVRNo": 894, "EXTVoiceNo": 305, "traveltime": 0, "holidayTraveltime": 0}, {"Id": "0305", "pgp": 0, "GoBack": 2, "SID": 17720, "NameZh": "\u5927\u5b78\u6771\u8def\u53e3", "RouteId": 8561, "SeqNo": 1, "Terminal": 0, "DistrictId": 1, "Latitude": 22.727239, "Longitude": 120.291575, "IVRNo": 894, "EXTVoiceNo": 305, "traveltime": 0, "holidayTraveltime": 0}, {"Id": "7608", "pgp": 0, "GoBack": 2, "SID": 5240, "NameZh": "\u85cd\u7530\u8def\u53e3", "RouteId": 8561, "SeqNo": 2, "Terminal": 0, "DistrictId": 1, "Latitude": 22.72595, "Longitude": 120.29168, "IVRNo": 7608, "EXTVoiceNo": 7608, "traveltime": 0, "holidayTraveltime": 0}, {"Id": "7407", "pgp": 0, "GoBack": 2, "SID": 5113, "NameZh": "\u5e78\u798f\u65b0\u57ce", "RouteId": 8561, "SeqNo": 3, "Terminal": 0, "DistrictId": 1, "Latitude": 22.72375, "Longitude": 120.29118, "IVRNo": 7407, "EXTVoiceNo": 7407, "traveltime": 0, "holidayTraveltime": 0}, {"Id": "1177", "pgp": 0, "GoBack": 2, "SID": 5114, "NameZh": "\u5317\u53f3\u660c(\u5f8c\u660c\u65b0\u8def)", "RouteId": 8561, "SeqNo": 4, "Terminal": 0, "DistrictId": 1, "Latitude": 22.71971, "Longitude": 120.29143, "IVRNo": 1177, "EXTVoiceNo": 1177, "traveltime": 0, "holidayTraveltime": 0}, {"Id": "8118", "pgp": 0, "GoBack": 2, "SID": 5456, "NameZh": "\u85cd\u660c\u8def\u53e3", "RouteId": 8561, "SeqNo": 5, "Terminal": 0, "DistrictId": 1, "Latitude": 22.71783, "Longitude": 120.29136, "IVRNo": 8118, "EXTVoiceNo": 8118, "traveltime": 0, "holidayTraveltime": 0}, {"Id": "0322", "pgp": 0, "GoBack": 2, "SID": 5719, "NameZh": "\u6c11\u660c\u8857", "RouteId": 8561, "SeqNo": 6, "Terminal": 0, "DistrictId": 1, "Latitude": 22.71815, "Longitude": 120.28858, "IVRNo": 8761, "EXTVoiceNo": 20322, "traveltime": 0, "holidayTraveltime": 0}, {"Id": "8747", "pgp": 0, "GoBack": 2, "SID": 5693, "NameZh": "\u5fb7\u6c11\u9ec3\u660f\u5e02\u5834", "RouteId": 8561, "SeqNo": 7, "Terminal": 0, "DistrictId": 1, "Latitude": 22.72045, "Longitude": 120.28855, "IVRNo": 8744, "EXTVoiceNo": 8747, "traveltime": 0, "holidayTraveltime": 0}, {"Id": "7402", "pgp": 0, "GoBack": 2, "SID": 4987, "NameZh": "\u5f8c\u660c\u65b0\u8def\u53e3", "RouteId": 8561, "SeqNo": 8, "Terminal": 0, "DistrictId": 1, "Latitude": 22.72159, "Longitude": 120.29168, "IVRNo": 7402, "EXTVoiceNo": 7402, "traveltime": 0, "holidayTraveltime": 0}, {"Id": "7502", "pgp": 0, "GoBack": 2, "SID": 6263, "NameZh": "\u5fb7\u6c11\u8def(\u53f3\u660c\u68ee\u6797\u516c\u5712)", "RouteId": 8561, "SeqNo": 9, "Terminal": 0, "DistrictId": 1, "Latitude": 22.7217, "Longitude": 120.29327, "IVRNo": 7502, "EXTVoiceNo": 7502, "traveltime": 0, "holidayTraveltime": 0}, {"Id": "7401", "pgp": 0, "GoBack": 2, "SID": 4990, "NameZh": "\u4e9e\u6d32\u57ce\u793e\u5340", "RouteId": 8561, "SeqNo": 10, "Terminal": 0, "DistrictId": 1, "Latitude": 22.72234, "Longitude": 120.29548, "IVRNo": 7401, "EXTVoiceNo": 7401, "traveltime": 0, "holidayTraveltime": 0}, {"Id": "8749", "pgp": 0, "GoBack": 2, "SID": 5694, "NameZh": "\u76ca\u7fa4\u8def(\u5fb7\u6c11\u8def\u53e3)", "RouteId": 8561, "SeqNo": 11, "Terminal": 0, "DistrictId": 1, "Latitude": 22.72382, "Longitude": 120.29755, "IVRNo": 8742, "EXTVoiceNo": 8749, "traveltime": 0, "holidayTraveltime": 0}, {"Id": "1289", "pgp": 0, "GoBack": 2, "SID": 5695, "NameZh": "\u7fe0\u5c4f\u8def\u53e3(\u60e0\u6c11\u8def)", "RouteId": 8561, "SeqNo": 12, "Terminal": 0, "DistrictId": 1, "Latitude": 22.72491, "Longitude": 120.299231, "IVRNo": 1289, "EXTVoiceNo": 1289, "traveltime": 0, "holidayTraveltime": 0}, {"Id": "8740", "pgp": 0, "GoBack": 2, "SID": 5696, "NameZh": "\u5fb7\u60e0\u8def\u53e3", "RouteId": 8561, "SeqNo": 13, "Terminal": 0, "DistrictId": 1, "Latitude": 22.7261, "Longitude": 120.30225, "IVRNo": 8740, "EXTVoiceNo": 8740, "traveltime": 0, "holidayTraveltime": 0}, {"Id": "8806", "pgp": 0, "GoBack": 2, "SID": 5765, "NameZh": "\u5fb7\u8ce2\u8def\u53e3", "RouteId": 8561, "SeqNo": 14, "Terminal": 0, "DistrictId": 1, "Latitude": 22.726352, "Longitude": 120.304827, "IVRNo": 8804, "EXTVoiceNo": 8806, "traveltime": 0, "holidayTraveltime": 0}, {"Id": "8807", "pgp": 0, "GoBack": 2, "SID": 5766, "NameZh": "\u5fb7\u7965\u8def\u53e3", "RouteId": 8561, "SeqNo": 15, "Terminal": 0, "DistrictId": 1, "Latitude": 22.72678, "Longitude": 120.30696, "IVRNo": 8803, "EXTVoiceNo": 8807, "traveltime": 0, "holidayTraveltime": 0}, {"Id": "7513", "pgp": 0, "GoBack": 2, "SID": 5767, "NameZh": "\u6d77\u5c08\u8def\u53e3(\u5fb7\u8ce2\u8def)", "RouteId": 8561, "SeqNo": 16, "Terminal": 0, "DistrictId": 1, "Latitude": 22.727661, "Longitude": 120.309214, "IVRNo": 7513, "EXTVoiceNo": 7513, "traveltime": 0, "holidayTraveltime": 0}, {"Id": "8801", "pgp": 0, "GoBack": 2, "SID": 5768, "NameZh": "\u5fb7\u7965\u8def", "RouteId": 8561, "SeqNo": 17, "Terminal": 0, "DistrictId": 1, "Latitude": 22.728525, "Longitude": 120.311877, "IVRNo": 8801, "EXTVoiceNo": 8801, "traveltime": 0, "holidayTraveltime": 0}, {"Id": "8800", "pgp": 0, "GoBack": 2, "SID": 5769, "NameZh": "\u5fb7\u7dad\u8857\u53e3", "RouteId": 8561, "SeqNo": 18, "Terminal": 0, "DistrictId": 1, "Latitude": 22.727414, "Longitude": 120.310518, "IVRNo": 8800, "EXTVoiceNo": 8800, "traveltime": 0, "holidayTraveltime": 0}, {"Id": "7595", "pgp": 0, "GoBack": 2, "SID": 5222, "NameZh": "\u52a0\u5de5\u5340\u5317\u9580", "RouteId": 8561, "SeqNo": 19, "Terminal": 0, "DistrictId": 1, "Latitude": 22.725552, "Longitude": 120.305137, "IVRNo": 7504, "EXTVoiceNo": 7595, "traveltime": 0, "holidayTraveltime": 0}, {"Id": "0258", "pgp": 0, "GoBack": 2, "SID": 5720, "NameZh": "\u52a0\u5de5\u5340(\u4e2d\u592e\u8def)", "RouteId": 8561, "SeqNo": 20, "Terminal": 0, "DistrictId": 1, "Latitude": 22.723305, "Longitude": 120.303739, "IVRNo": 8760, "EXTVoiceNo": 20258, "traveltime": 0, "holidayTraveltime": 0}, {"Id": "7007", "pgp": 0, "GoBack": 2, "SID": 5721, "NameZh": "\u6377\u904b\u6960\u6893\u52a0\u5de5\u5340(\u52a0\u5de5\u5340\u5167)", "RouteId": 8561, "SeqNo": 21, "Terminal": 1, "DistrictId": 1, "Latitude": 22.7192, "Longitude": 120.3062, "IVRNo": 7007, "EXTVoiceNo": 7007, "traveltime": 0, "holidayTraveltime": 0}]}