{"en": [{"Id": "5837", "pgp": 0, "GoBack": 1, "SID": 13149, "NameZh": "Kaohsiung Museum of Fine Arts", "RouteId": 8502, "SeqNo": 1, "Terminal": 0, "DistrictId": 1, "Latitude": 22.65694, "Longitude": 120.28834, "IVRNo": 5837, "EXTVoiceNo": 15837, "traveltime": 0, "holidayTraveltime": 0}, {"Id": "712 ", "pgp": 0, "GoBack": 1, "SID": 19215, "NameZh": "Art E. 4th Rd. Intersection (Mingcheng 4th Rd.)", "RouteId": 8502, "SeqNo": 2, "Terminal": 0, "DistrictId": 1, "Latitude": 22.66115, "Longitude": 120.28987, "IVRNo": 7712, "EXTVoiceNo": 7712, "traveltime": 0, "holidayTraveltime": 0}, {"Id": "1426", "pgp": 0, "GoBack": 1, "SID": 19217, "NameZh": "Jhonghua Rd. Intersection (Mingcheng 3rd Rd.)", "RouteId": 8502, "SeqNo": 3, "Terminal": 0, "DistrictId": 1, "Latitude": 22.66102, "Longitude": 120.293269, "IVRNo": 1426, "EXTVoiceNo": 1426, "traveltime": 0, "holidayTraveltime": 0}, {"Id": "0671", "pgp": 0, "GoBack": 1, "SID": 13151, "NameZh": "High Court", "RouteId": 8502, "SeqNo": 4, "Terminal": 0, "DistrictId": 1, "Latitude": 22.66108, "Longitude": 120.29895, "IVRNo": 7709, "EXTVoiceNo": 20671, "traveltime": 0, "holidayTraveltime": 0}, {"Id": "5063", "pgp": 0, "GoBack": 1, "SID": 19219, "NameZh": "Wunsin Rd. Intersection", "RouteId": 8502, "SeqNo": 5, "Terminal": 0, "DistrictId": 1, "Latitude": 22.664066, "Longitude": 120.300152, "IVRNo": 5063, "EXTVoiceNo": 5063, "traveltime": 0, "holidayTraveltime": 0}, {"Id": "032 ", "pgp": 0, "GoBack": 1, "SID": 19221, "NameZh": "MRT Kaohsiung Arena Station (Dujing Rd. Intersection)", "RouteId": 8502, "SeqNo": 6, "Terminal": 0, "DistrictId": 1, "Latitude": 22.664453, "Longitude": 120.302903, "IVRNo": 8607, "EXTVoiceNo": 32, "traveltime": 0, "holidayTraveltime": 0}, {"Id": "4062", "pgp": 0, "GoBack": 1, "SID": 2861, "NameZh": "MRT Aozihdi Station", "RouteId": 8502, "SeqNo": 7, "Terminal": 0, "DistrictId": 1, "Latitude": 22.656789, "Longitude": 120.302957, "IVRNo": 4033, "EXTVoiceNo": 4062, "traveltime": 0, "holidayTraveltime": 0}, {"Id": "4060", "pgp": 0, "GoBack": 1, "SID": 19223, "NameZh": "Dashun 1st Rd. (Costco)", "RouteId": 8502, "SeqNo": 8, "Terminal": 0, "DistrictId": 1, "Latitude": 22.656744, "Longitude": 120.306384, "IVRNo": 4032, "EXTVoiceNo": 4060, "traveltime": 0, "holidayTraveltime": 0}, {"Id": "5662", "pgp": 0, "GoBack": 1, "SID": 19225, "NameZh": "Longhua Junior High School (Jhongyan Rd. Intersection)", "RouteId": 8502, "SeqNo": 9, "Terminal": 0, "DistrictId": 1, "Latitude": 22.658667, "Longitude": 120.308963, "IVRNo": 5662, "EXTVoiceNo": 5662, "traveltime": 0, "holidayTraveltime": 0}, {"Id": "920 ", "pgp": 0, "GoBack": 1, "SID": 13155, "NameZh": "Riverbank Park (Mingcheng 2nd Rd.)", "RouteId": 8502, "SeqNo": 10, "Terminal": 0, "DistrictId": 1, "Latitude": 22.66067, "Longitude": 120.31075, "IVRNo": 5920, "EXTVoiceNo": 5920, "traveltime": 0, "holidayTraveltime": 0}, {"Id": "0113", "pgp": 0, "GoBack": 1, "SID": 19227, "NameZh": "Dollars Mall (Minzu Store)", "RouteId": 8502, "SeqNo": 11, "Terminal": 0, "DistrictId": 1, "Latitude": 22.659667, "Longitude": 120.314831, "IVRNo": 7705, "EXTVoiceNo": 20113, "traveltime": 0, "holidayTraveltime": 0}, {"Id": "5109", "pgp": 0, "GoBack": 1, "SID": 3833, "NameZh": "Dingsi Village", "RouteId": 8502, "SeqNo": 12, "Terminal": 0, "DistrictId": 1, "Latitude": 22.66078, "Longitude": 120.32203, "IVRNo": 5109, "EXTVoiceNo": 5109, "traveltime": 0, "holidayTraveltime": 0}, {"Id": "5001", "pgp": 0, "GoBack": 1, "SID": 13658, "NameZh": "Golden Lion Lake Station", "RouteId": 8502, "SeqNo": 13, "Terminal": 0, "DistrictId": 1, "Latitude": 22.66621, "Longitude": 120.32198, "IVRNo": 5000, "EXTVoiceNo": 5001, "traveltime": 0, "holidayTraveltime": 0}, {"Id": "5102", "pgp": 0, "GoBack": 1, "SID": 19229, "NameZh": "Dingli Rd.", "RouteId": 8502, "SeqNo": 14, "Terminal": 0, "DistrictId": 1, "Latitude": 22.668386, "Longitude": 120.323484, "IVRNo": 5102, "EXTVoiceNo": 5102, "traveltime": 0, "holidayTraveltime": 0}, {"Id": "2364", "pgp": 0, "GoBack": 1, "SID": 3857, "NameZh": "Reserve Command of MND", "RouteId": 8502, "SeqNo": 15, "Terminal": 0, "DistrictId": 1, "Latitude": 22.672267, "Longitude": 120.331433, "IVRNo": 2205, "EXTVoiceNo": 32364, "traveltime": 0, "holidayTraveltime": 0}, {"Id": "0023", "pgp": 0, "GoBack": 1, "SID": 15031, "NameZh": "Bade Rd. Intersection (Dawan)", "RouteId": 8502, "SeqNo": 16, "Terminal": 0, "DistrictId": 1, "Latitude": 22.676543, "Longitude": 120.340368, "IVRNo": 7737, "EXTVoiceNo": 20023, "traveltime": 0, "holidayTraveltime": 0}, {"Id": "9373", "pgp": 0, "GoBack": 1, "SID": 19231, "NameZh": "Dawan Junior High School", "RouteId": 8502, "SeqNo": 17, "Terminal": 0, "DistrictId": 1, "Latitude": 22.67672, "Longitude": 120.342561, "IVRNo": 9472, "EXTVoiceNo": 9373, "traveltime": 0, "holidayTraveltime": 0}, {"Id": "0629", "pgp": 0, "GoBack": 1, "SID": 10544, "NameZh": "Cihhuei Temple", "RouteId": 8502, "SeqNo": 18, "Terminal": 0, "DistrictId": 1, "Latitude": 22.67819, "Longitude": 120.347587, "IVRNo": 626, "EXTVoiceNo": 629, "traveltime": 0, "holidayTraveltime": 0}, {"Id": "2397", "pgp": 0, "GoBack": 1, "SID": 19097, "NameZh": "Renguang Rd. Station", "RouteId": 8502, "SeqNo": 19, "Terminal": 0, "DistrictId": 1, "Latitude": 22.683193, "Longitude": 120.350898, "IVRNo": 32397, "EXTVoiceNo": 32397, "traveltime": 0, "holidayTraveltime": 0}, {"Id": "1208", "pgp": 0, "GoBack": 1, "SID": 13141, "NameZh": "Renlin Rd. Intersection (Chengguan Rd. Section 2)", "RouteId": 8502, "SeqNo": 20, "Terminal": 0, "DistrictId": 1, "Latitude": 22.70217, "Longitude": 120.36, "IVRNo": 1664, "EXTVoiceNo": 21208, "traveltime": 0, "holidayTraveltime": 0}, {"Id": "7175", "pgp": 0, "GoBack": 1, "SID": 17970, "NameZh": "Guyan Temple", "RouteId": 8502, "SeqNo": 21, "Terminal": 0, "DistrictId": 1, "Latitude": 22.71167, "Longitude": 120.387246, "IVRNo": 9897, "EXTVoiceNo": 17175, "traveltime": 0, "holidayTraveltime": 0}, {"Id": "9991", "pgp": 0, "GoBack": 1, "SID": 15761, "NameZh": "Jinhong Mountain Pagoda", "RouteId": 8502, "SeqNo": 22, "Terminal": 0, "DistrictId": 1, "Latitude": 22.716899, "Longitude": 120.391031, "IVRNo": 2355, "EXTVoiceNo": 19991, "traveltime": 0, "holidayTraveltime": 0}, {"Id": "9992", "pgp": 0, "GoBack": 1, "SID": 13145, "NameZh": "E-Da Outlet Mall", "RouteId": 8502, "SeqNo": 23, "Terminal": 0, "DistrictId": 1, "Latitude": 22.72987, "Longitude": 120.40282, "IVRNo": 5425, "EXTVoiceNo": 19992, "traveltime": 0, "holidayTraveltime": 0}, {"Id": "6120", "pgp": 0, "GoBack": 1, "SID": 14825, "NameZh": "E-Da World Station", "RouteId": 8502, "SeqNo": 24, "Terminal": 0, "DistrictId": 1, "Latitude": 22.729888, "Longitude": 120.407238, "IVRNo": 1671, "EXTVoiceNo": 26120, "traveltime": 0, "holidayTraveltime": 0}, {"Id": "6120", "pgp": 0, "GoBack": 2, "SID": 14826, "NameZh": "E-Da World Station", "RouteId": 8502, "SeqNo": 1, "Terminal": 0, "DistrictId": 1, "Latitude": 22.72972, "Longitude": 120.40679, "IVRNo": 1671, "EXTVoiceNo": 26120, "traveltime": 0, "holidayTraveltime": 0}, {"Id": "9992", "pgp": 0, "GoBack": 2, "SID": 13146, "NameZh": "E-Da Outlet Mall", "RouteId": 8502, "SeqNo": 2, "Terminal": 0, "DistrictId": 1, "Latitude": 22.72987, "Longitude": 120.40282, "IVRNo": 5425, "EXTVoiceNo": 19992, "traveltime": 0, "holidayTraveltime": 0}, {"Id": "9991", "pgp": 0, "GoBack": 2, "SID": 15782, "NameZh": "Jinhong Mountain Pagoda", "RouteId": 8502, "SeqNo": 3, "Terminal": 0, "DistrictId": 1, "Latitude": 22.716674, "Longitude": 120.390634, "IVRNo": 2355, "EXTVoiceNo": 19991, "traveltime": 0, "holidayTraveltime": 0}, {"Id": "7175", "pgp": 0, "GoBack": 2, "SID": 18211, "NameZh": "Guyan Temple", "RouteId": 8502, "SeqNo": 4, "Terminal": 0, "DistrictId": 1, "Latitude": 22.71167, "Longitude": 120.387246, "IVRNo": 9897, "EXTVoiceNo": 17175, "traveltime": 0, "holidayTraveltime": 0}, {"Id": "1208", "pgp": 0, "GoBack": 2, "SID": 13142, "NameZh": "Renlin Rd. Intersection (Chengguan Rd. Section 2)", "RouteId": 8502, "SeqNo": 5, "Terminal": 0, "DistrictId": 1, "Latitude": 22.70252, "Longitude": 120.35947, "IVRNo": 1664, "EXTVoiceNo": 21208, "traveltime": 0, "holidayTraveltime": 0}, {"Id": "2397", "pgp": 0, "GoBack": 2, "SID": 19098, "NameZh": "Renguang Rd. Station", "RouteId": 8502, "SeqNo": 6, "Terminal": 0, "DistrictId": 1, "Latitude": 22.683203, "Longitude": 120.350734, "IVRNo": 32397, "EXTVoiceNo": 32397, "traveltime": 0, "holidayTraveltime": 0}, {"Id": "0629", "pgp": 0, "GoBack": 2, "SID": 8452, "NameZh": "Cihhuei Temple", "RouteId": 8502, "SeqNo": 7, "Terminal": 0, "DistrictId": 1, "Latitude": 22.67819, "Longitude": 120.347587, "IVRNo": 626, "EXTVoiceNo": 629, "traveltime": 0, "holidayTraveltime": 0}, {"Id": "9373", "pgp": 0, "GoBack": 2, "SID": 19232, "NameZh": "Dawan Junior High School", "RouteId": 8502, "SeqNo": 8, "Terminal": 0, "DistrictId": 1, "Latitude": 22.676827, "Longitude": 120.342435, "IVRNo": 9472, "EXTVoiceNo": 9373, "traveltime": 0, "holidayTraveltime": 0}, {"Id": "0023", "pgp": 0, "GoBack": 2, "SID": 6401, "NameZh": "Bade Rd. Intersection (Dawan)", "RouteId": 8502, "SeqNo": 9, "Terminal": 0, "DistrictId": 1, "Latitude": 22.676543, "Longitude": 120.340368, "IVRNo": 7737, "EXTVoiceNo": 20023, "traveltime": 0, "holidayTraveltime": 0}, {"Id": "2364", "pgp": 0, "GoBack": 2, "SID": 3745, "NameZh": "Reserve Command of MND", "RouteId": 8502, "SeqNo": 10, "Terminal": 0, "DistrictId": 1, "Latitude": 22.672267, "Longitude": 120.331433, "IVRNo": 2205, "EXTVoiceNo": 32364, "traveltime": 0, "holidayTraveltime": 0}, {"Id": "5102", "pgp": 0, "GoBack": 2, "SID": 19230, "NameZh": "Dingli Rd.", "RouteId": 8502, "SeqNo": 11, "Terminal": 0, "DistrictId": 1, "Latitude": 22.668513, "Longitude": 120.323235, "IVRNo": 5102, "EXTVoiceNo": 5102, "traveltime": 0, "holidayTraveltime": 0}, {"Id": "5001", "pgp": 0, "GoBack": 2, "SID": 3530, "NameZh": "Golden Lion Lake Station", "RouteId": 8502, "SeqNo": 12, "Terminal": 0, "DistrictId": 1, "Latitude": 22.665757, "Longitude": 120.321787, "IVRNo": 5000, "EXTVoiceNo": 5001, "traveltime": 0, "holidayTraveltime": 0}, {"Id": "5109", "pgp": 0, "GoBack": 2, "SID": 3832, "NameZh": "Dingsi Village", "RouteId": 8502, "SeqNo": 13, "Terminal": 0, "DistrictId": 1, "Latitude": 22.660679, "Longitude": 120.322123, "IVRNo": 5109, "EXTVoiceNo": 5109, "traveltime": 0, "holidayTraveltime": 0}, {"Id": "0113", "pgp": 0, "GoBack": 2, "SID": 19228, "NameZh": "Dollars Mall (Minzu Store)", "RouteId": 8502, "SeqNo": 14, "Terminal": 0, "DistrictId": 1, "Latitude": 22.659857, "Longitude": 120.314911, "IVRNo": 7705, "EXTVoiceNo": 20113, "traveltime": 0, "holidayTraveltime": 0}, {"Id": "920 ", "pgp": 0, "GoBack": 2, "SID": 13156, "NameZh": "Riverbank Park (Mingcheng 2nd Rd.)", "RouteId": 8502, "SeqNo": 15, "Terminal": 0, "DistrictId": 1, "Latitude": 22.6609, "Longitude": 120.31048, "IVRNo": 5920, "EXTVoiceNo": 5920, "traveltime": 0, "holidayTraveltime": 0}, {"Id": "5662", "pgp": 0, "GoBack": 2, "SID": 19226, "NameZh": "Longhua Junior High School (Jhongyan Rd. Intersection)", "RouteId": 8502, "SeqNo": 16, "Terminal": 0, "DistrictId": 1, "Latitude": 22.658815, "Longitude": 120.308683, "IVRNo": 5662, "EXTVoiceNo": 5662, "traveltime": 0, "holidayTraveltime": 0}, {"Id": "4060", "pgp": 0, "GoBack": 2, "SID": 19224, "NameZh": "Dashun 1st Rd. (Costco)", "RouteId": 8502, "SeqNo": 17, "Terminal": 0, "DistrictId": 1, "Latitude": 22.657006, "Longitude": 120.306412, "IVRNo": 4032, "EXTVoiceNo": 4060, "traveltime": 0, "holidayTraveltime": 0}, {"Id": "4062", "pgp": 0, "GoBack": 2, "SID": 3608, "NameZh": "MRT Aozihdi Station", "RouteId": 8502, "SeqNo": 18, "Terminal": 0, "DistrictId": 1, "Latitude": 22.657249, "Longitude": 120.303285, "IVRNo": 4033, "EXTVoiceNo": 4062, "traveltime": 0, "holidayTraveltime": 0}, {"Id": "032 ", "pgp": 0, "GoBack": 2, "SID": 19222, "NameZh": "MRT Kaohsiung Arena Station (Dujing Rd. Intersection)", "RouteId": 8502, "SeqNo": 19, "Terminal": 0, "DistrictId": 1, "Latitude": 22.664667, "Longitude": 120.302924, "IVRNo": 8607, "EXTVoiceNo": 32, "traveltime": 0, "holidayTraveltime": 0}, {"Id": "5063", "pgp": 0, "GoBack": 2, "SID": 19220, "NameZh": "Wunsin Rd. Intersection", "RouteId": 8502, "SeqNo": 20, "Terminal": 0, "DistrictId": 1, "Latitude": 22.664266, "Longitude": 120.300063, "IVRNo": 5063, "EXTVoiceNo": 5063, "traveltime": 0, "holidayTraveltime": 0}, {"Id": "0671", "pgp": 0, "GoBack": 2, "SID": 13152, "NameZh": "High Court", "RouteId": 8502, "SeqNo": 21, "Terminal": 0, "DistrictId": 1, "Latitude": 22.66129, "Longitude": 120.29904, "IVRNo": 7709, "EXTVoiceNo": 20671, "traveltime": 0, "holidayTraveltime": 0}, {"Id": "1426", "pgp": 0, "GoBack": 2, "SID": 19218, "NameZh": "Jhonghua Rd. Intersection (Mingcheng 3rd Rd.)", "RouteId": 8502, "SeqNo": 22, "Terminal": 0, "DistrictId": 1, "Latitude": 22.661234, "Longitude": 120.293141, "IVRNo": 1426, "EXTVoiceNo": 1426, "traveltime": 0, "holidayTraveltime": 0}, {"Id": "712 ", "pgp": 0, "GoBack": 2, "SID": 19216, "NameZh": "Art E. 4th Rd. Intersection (Mingcheng 4th Rd.)", "RouteId": 8502, "SeqNo": 23, "Terminal": 0, "DistrictId": 1, "Latitude": 22.661371, "Longitude": 120.289686, "IVRNo": 7712, "EXTVoiceNo": 7712, "traveltime": 0, "holidayTraveltime": 0}, {"Id": "5837", "pgp": 0, "GoBack": 2, "SID": 13150, "NameZh": "Kaohsiung Museum of Fine Arts", "RouteId": 8502, "SeqNo": 24, "Terminal": 1, "DistrictId": 1, "Latitude": 22.65676, "Longitude": 120.28814, "IVRNo": 5837, "EXTVoiceNo": 15837, "traveltime": 0, "holidayTraveltime": 0}], "zh": [{"Id": "5837", "pgp": 0, "GoBack": 1, "SID": 13149, "NameZh": "\u9ad8\u96c4\u5e02\u7acb\u7f8e\u8853\u9928", "RouteId": 8502, "SeqNo": 1, "Terminal": 0, "DistrictId": 1, "Latitude": 22.65694, "Longitude": 120.28834, "IVRNo": 5837, "EXTVoiceNo": 15837, "traveltime": 0, "holidayTraveltime": 0}, {"Id": "712 ", "pgp": 0, "GoBack": 1, "SID": 19215, "NameZh": "\u7f8e\u8853\u6771\u56db\u8def\u53e3(\u660e\u8aa0\u56db\u8def)", "RouteId": 8502, "SeqNo": 2, "Terminal": 0, "DistrictId": 1, "Latitude": 22.66115, "Longitude": 120.28987, "IVRNo": 7712, "EXTVoiceNo": 7712, "traveltime": 0, "holidayTraveltime": 0}, {"Id": "1426", "pgp": 0, "GoBack": 1, "SID": 19217, "NameZh": "\u4e2d\u83ef\u8def\u53e3(\u660e\u8aa0\u4e09\u8def)", "RouteId": 8502, "SeqNo": 3, "Terminal": 0, "DistrictId": 1, "Latitude": 22.66102, "Longitude": 120.293269, "IVRNo": 1426, "EXTVoiceNo": 1426, "traveltime": 0, "holidayTraveltime": 0}, {"Id": "0671", "pgp": 0, "GoBack": 1, "SID": 13151, "NameZh": "\u9ad8\u7b49\u6cd5\u9662", "RouteId": 8502, "SeqNo": 4, "Terminal": 0, "DistrictId": 1, "Latitude": 22.66108, "Longitude": 120.29895, "IVRNo": 7709, "EXTVoiceNo": 20671, "traveltime": 0, "holidayTraveltime": 0}, {"Id": "5063", "pgp": 0, "GoBack": 1, "SID": 19219, "NameZh": "\u6587\u4fe1\u8def\u53e3", "RouteId": 8502, "SeqNo": 5, "Terminal": 0, "DistrictId": 1, "Latitude": 22.664066, "Longitude": 120.300152, "IVRNo": 5063, "EXTVoiceNo": 5063, "traveltime": 0, "holidayTraveltime": 0}, {"Id": "032 ", "pgp": 0, "GoBack": 1, "SID": 19221, "NameZh": "\u6377\u904b\u5de8\u86cb\u7ad9(\u7be4\u656c\u8def\u53e3)", "RouteId": 8502, "SeqNo": 6, "Terminal": 0, "DistrictId": 1, "Latitude": 22.664453, "Longitude": 120.302903, "IVRNo": 8607, "EXTVoiceNo": 32, "traveltime": 0, "holidayTraveltime": 0}, {"Id": "4062", "pgp": 0, "GoBack": 1, "SID": 2861, "NameZh": "\u6377\u904b\u51f9\u5b50\u5e95\u7ad9", "RouteId": 8502, "SeqNo": 7, "Terminal": 0, "DistrictId": 1, "Latitude": 22.656789, "Longitude": 120.302957, "IVRNo": 4033, "EXTVoiceNo": 4062, "traveltime": 0, "holidayTraveltime": 0}, {"Id": "4060", "pgp": 0, "GoBack": 1, "SID": 19223, "NameZh": "\u5927\u9806\u4e00\u8def(\u597d\u5e02\u591a)", "RouteId": 8502, "SeqNo": 8, "Terminal": 0, "DistrictId": 1, "Latitude": 22.656744, "Longitude": 120.306384, "IVRNo": 4032, "EXTVoiceNo": 4060, "traveltime": 0, "holidayTraveltime": 0}, {"Id": "5662", "pgp": 0, "GoBack": 1, "SID": 19225, "NameZh": "\u9f8d\u83ef\u570b\u4e2d(\u5fe0\u8a00\u8def\u53e3)", "RouteId": 8502, "SeqNo": 9, "Terminal": 0, "DistrictId": 1, "Latitude": 22.658667, "Longitude": 120.308963, "IVRNo": 5662, "EXTVoiceNo": 5662, "traveltime": 0, "holidayTraveltime": 0}, {"Id": "920 ", "pgp": 0, "GoBack": 1, "SID": 13155, "NameZh": "\u6cb3\u5824\u516c\u5712(\u660e\u8aa0\u4e8c\u8def)", "RouteId": 8502, "SeqNo": 10, "Terminal": 0, "DistrictId": 1, "Latitude": 22.66067, "Longitude": 120.31075, "IVRNo": 5920, "EXTVoiceNo": 5920, "traveltime": 0, "holidayTraveltime": 0}, {"Id": "0113", "pgp": 0, "GoBack": 1, "SID": 19227, "NameZh": "\u5927\u6a02\u6c11\u65cf\u5e97", "RouteId": 8502, "SeqNo": 11, "Terminal": 0, "DistrictId": 1, "Latitude": 22.659667, "Longitude": 120.314831, "IVRNo": 7705, "EXTVoiceNo": 20113, "traveltime": 0, "holidayTraveltime": 0}, {"Id": "5109", "pgp": 0, "GoBack": 1, "SID": 3833, "NameZh": "\u9f0e\u897f\u91cc", "RouteId": 8502, "SeqNo": 12, "Terminal": 0, "DistrictId": 1, "Latitude": 22.66078, "Longitude": 120.32203, "IVRNo": 5109, "EXTVoiceNo": 5109, "traveltime": 0, "holidayTraveltime": 0}, {"Id": "5001", "pgp": 0, "GoBack": 1, "SID": 13658, "NameZh": "\u91d1\u7345\u6e56\u7ad9", "RouteId": 8502, "SeqNo": 13, "Terminal": 0, "DistrictId": 1, "Latitude": 22.66621, "Longitude": 120.32198, "IVRNo": 5000, "EXTVoiceNo": 5001, "traveltime": 0, "holidayTraveltime": 0}, {"Id": "5102", "pgp": 0, "GoBack": 1, "SID": 19229, "NameZh": "\u9f0e\u529b\u8def", "RouteId": 8502, "SeqNo": 14, "Terminal": 0, "DistrictId": 1, "Latitude": 22.668386, "Longitude": 120.323484, "IVRNo": 5102, "EXTVoiceNo": 5102, "traveltime": 0, "holidayTraveltime": 0}, {"Id": "2364", "pgp": 0, "GoBack": 1, "SID": 3857, "NameZh": "\u5f8c\u5099\u6307\u63ee\u90e8", "RouteId": 8502, "SeqNo": 15, "Terminal": 0, "DistrictId": 1, "Latitude": 22.672267, "Longitude": 120.331433, "IVRNo": 2205, "EXTVoiceNo": 32364, "traveltime": 0, "holidayTraveltime": 0}, {"Id": "0023", "pgp": 0, "GoBack": 1, "SID": 15031, "NameZh": "\u516b\u5fb7\u8def\u53e3(\u5927\u7063)", "RouteId": 8502, "SeqNo": 16, "Terminal": 0, "DistrictId": 1, "Latitude": 22.676543, "Longitude": 120.340368, "IVRNo": 7737, "EXTVoiceNo": 20023, "traveltime": 0, "holidayTraveltime": 0}, {"Id": "9373", "pgp": 0, "GoBack": 1, "SID": 19231, "NameZh": "\u5927\u7063\u570b\u4e2d", "RouteId": 8502, "SeqNo": 17, "Terminal": 0, "DistrictId": 1, "Latitude": 22.67672, "Longitude": 120.342561, "IVRNo": 9472, "EXTVoiceNo": 9373, "traveltime": 0, "holidayTraveltime": 0}, {"Id": "0629", "pgp": 0, "GoBack": 1, "SID": 10544, "NameZh": "\u6148\u60e0\u5802", "RouteId": 8502, "SeqNo": 18, "Terminal": 0, "DistrictId": 1, "Latitude": 22.67819, "Longitude": 120.347587, "IVRNo": 626, "EXTVoiceNo": 629, "traveltime": 0, "holidayTraveltime": 0}, {"Id": "2397", "pgp": 0, "GoBack": 1, "SID": 19097, "NameZh": "\u4ec1\u5149\u8def\u7ad9", "RouteId": 8502, "SeqNo": 19, "Terminal": 0, "DistrictId": 1, "Latitude": 22.683193, "Longitude": 120.350898, "IVRNo": 32397, "EXTVoiceNo": 32397, "traveltime": 0, "holidayTraveltime": 0}, {"Id": "1208", "pgp": 0, "GoBack": 1, "SID": 13141, "NameZh": "\u4ec1\u6797\u8def\u53e3(\u6f84\u89c0\u8def\u4e8c\u6bb5)", "RouteId": 8502, "SeqNo": 20, "Terminal": 0, "DistrictId": 1, "Latitude": 22.70217, "Longitude": 120.36, "IVRNo": 1664, "EXTVoiceNo": 21208, "traveltime": 0, "holidayTraveltime": 0}, {"Id": "7175", "pgp": 0, "GoBack": 1, "SID": 17970, "NameZh": "\u53e4\u56b4\u5bfa", "RouteId": 8502, "SeqNo": 21, "Terminal": 0, "DistrictId": 1, "Latitude": 22.71167, "Longitude": 120.387246, "IVRNo": 9897, "EXTVoiceNo": 17175, "traveltime": 0, "holidayTraveltime": 0}, {"Id": "9991", "pgp": 0, "GoBack": 1, "SID": 15761, "NameZh": "\u91d1\u9d3b\u5c71\u91d1\u5bf6\u5854", "RouteId": 8502, "SeqNo": 22, "Terminal": 0, "DistrictId": 1, "Latitude": 22.716899, "Longitude": 120.391031, "IVRNo": 2355, "EXTVoiceNo": 19991, "traveltime": 0, "holidayTraveltime": 0}, {"Id": "9992", "pgp": 0, "GoBack": 1, "SID": 13145, "NameZh": "\u8cfc\u7269\u5ee3\u5834\u7ad9", "RouteId": 8502, "SeqNo": 23, "Terminal": 0, "DistrictId": 1, "Latitude": 22.72987, "Longitude": 120.40282, "IVRNo": 5425, "EXTVoiceNo": 19992, "traveltime": 0, "holidayTraveltime": 0}, {"Id": "6120", "pgp": 0, "GoBack": 1, "SID": 14825, "NameZh": "\u7fa9\u5927\u4e16\u754c\u7ad9", "RouteId": 8502, "SeqNo": 24, "Terminal": 0, "DistrictId": 1, "Latitude": 22.729888, "Longitude": 120.407238, "IVRNo": 1671, "EXTVoiceNo": 26120, "traveltime": 0, "holidayTraveltime": 0}, {"Id": "6120", "pgp": 0, "GoBack": 2, "SID": 14826, "NameZh": "\u7fa9\u5927\u4e16\u754c\u7ad9", "RouteId": 8502, "SeqNo": 1, "Terminal": 0, "DistrictId": 1, "Latitude": 22.72972, "Longitude": 120.40679, "IVRNo": 1671, "EXTVoiceNo": 26120, "traveltime": 0, "holidayTraveltime": 0}, {"Id": "9992", "pgp": 0, "GoBack": 2, "SID": 13146, "NameZh": "\u8cfc\u7269\u5ee3\u5834\u7ad9", "RouteId": 8502, "SeqNo": 2, "Terminal": 0, "DistrictId": 1, "Latitude": 22.72987, "Longitude": 120.40282, "IVRNo": 5425, "EXTVoiceNo": 19992, "traveltime": 0, "holidayTraveltime": 0}, {"Id": "9991", "pgp": 0, "GoBack": 2, "SID": 15782, "NameZh": "\u91d1\u9d3b\u5c71\u91d1\u5bf6\u5854", "RouteId": 8502, "SeqNo": 3, "Terminal": 0, "DistrictId": 1, "Latitude": 22.716674, "Longitude": 120.390634, "IVRNo": 2355, "EXTVoiceNo": 19991, "traveltime": 0, "holidayTraveltime": 0}, {"Id": "7175", "pgp": 0, "GoBack": 2, "SID": 18211, "NameZh": "\u53e4\u56b4\u5bfa", "RouteId": 8502, "SeqNo": 4, "Terminal": 0, "DistrictId": 1, "Latitude": 22.71167, "Longitude": 120.387246, "IVRNo": 9897, "EXTVoiceNo": 17175, "traveltime": 0, "holidayTraveltime": 0}, {"Id": "1208", "pgp": 0, "GoBack": 2, "SID": 13142, "NameZh": "\u4ec1\u6797\u8def\u53e3(\u6f84\u89c0\u8def\u4e8c\u6bb5)", "RouteId": 8502, "SeqNo": 5, "Terminal": 0, "DistrictId": 1, "Latitude": 22.70252, "Longitude": 120.35947, "IVRNo": 1664, "EXTVoiceNo": 21208, "traveltime": 0, "holidayTraveltime": 0}, {"Id": "2397", "pgp": 0, "GoBack": 2, "SID": 19098, "NameZh": "\u4ec1\u5149\u8def\u7ad9", "RouteId": 8502, "SeqNo": 6, "Terminal": 0, "DistrictId": 1, "Latitude": 22.683203, "Longitude": 120.350734, "IVRNo": 32397, "EXTVoiceNo": 32397, "traveltime": 0, "holidayTraveltime": 0}, {"Id": "0629", "pgp": 0, "GoBack": 2, "SID": 8452, "NameZh": "\u6148\u60e0\u5802", "RouteId": 8502, "SeqNo": 7, "Terminal": 0, "DistrictId": 1, "Latitude": 22.67819, "Longitude": 120.347587, "IVRNo": 626, "EXTVoiceNo": 629, "traveltime": 0, "holidayTraveltime": 0}, {"Id": "9373", "pgp": 0, "GoBack": 2, "SID": 19232, "NameZh": "\u5927\u7063\u570b\u4e2d", "RouteId": 8502, "SeqNo": 8, "Terminal": 0, "DistrictId": 1, "Latitude": 22.676827, "Longitude": 120.342435, "IVRNo": 9472, "EXTVoiceNo": 9373, "traveltime": 0, "holidayTraveltime": 0}, {"Id": "0023", "pgp": 0, "GoBack": 2, "SID": 6401, "NameZh": "\u516b\u5fb7\u8def\u53e3(\u5927\u7063)", "RouteId": 8502, "SeqNo": 9, "Terminal": 0, "DistrictId": 1, "Latitude": 22.676543, "Longitude": 120.340368, "IVRNo": 7737, "EXTVoiceNo": 20023, "traveltime": 0, "holidayTraveltime": 0}, {"Id": "2364", "pgp": 0, "GoBack": 2, "SID": 3745, "NameZh": "\u5f8c\u5099\u6307\u63ee\u90e8", "RouteId": 8502, "SeqNo": 10, "Terminal": 0, "DistrictId": 1, "Latitude": 22.672267, "Longitude": 120.331433, "IVRNo": 2205, "EXTVoiceNo": 32364, "traveltime": 0, "holidayTraveltime": 0}, {"Id": "5102", "pgp": 0, "GoBack": 2, "SID": 19230, "NameZh": "\u9f0e\u529b\u8def", "RouteId": 8502, "SeqNo": 11, "Terminal": 0, "DistrictId": 1, "Latitude": 22.668513, "Longitude": 120.323235, "IVRNo": 5102, "EXTVoiceNo": 5102, "traveltime": 0, "holidayTraveltime": 0}, {"Id": "5001", "pgp": 0, "GoBack": 2, "SID": 3530, "NameZh": "\u91d1\u7345\u6e56\u7ad9", "RouteId": 8502, "SeqNo": 12, "Terminal": 0, "DistrictId": 1, "Latitude": 22.665757, "Longitude": 120.321787, "IVRNo": 5000, "EXTVoiceNo": 5001, "traveltime": 0, "holidayTraveltime": 0}, {"Id": "5109", "pgp": 0, "GoBack": 2, "SID": 3832, "NameZh": "\u9f0e\u897f\u91cc", "RouteId": 8502, "SeqNo": 13, "Terminal": 0, "DistrictId": 1, "Latitude": 22.660679, "Longitude": 120.322123, "IVRNo": 5109, "EXTVoiceNo": 5109, "traveltime": 0, "holidayTraveltime": 0}, {"Id": "0113", "pgp": 0, "GoBack": 2, "SID": 19228, "NameZh": "\u5927\u6a02\u6c11\u65cf\u5e97", "RouteId": 8502, "SeqNo": 14, "Terminal": 0, "DistrictId": 1, "Latitude": 22.659857, "Longitude": 120.314911, "IVRNo": 7705, "EXTVoiceNo": 20113, "traveltime": 0, "holidayTraveltime": 0}, {"Id": "920 ", "pgp": 0, "GoBack": 2, "SID": 13156, "NameZh": "\u6cb3\u5824\u516c\u5712(\u660e\u8aa0\u4e8c\u8def)", "RouteId": 8502, "SeqNo": 15, "Terminal": 0, "DistrictId": 1, "Latitude": 22.6609, "Longitude": 120.31048, "IVRNo": 5920, "EXTVoiceNo": 5920, "traveltime": 0, "holidayTraveltime": 0}, {"Id": "5662", "pgp": 0, "GoBack": 2, "SID": 19226, "NameZh": "\u9f8d\u83ef\u570b\u4e2d(\u5fe0\u8a00\u8def\u53e3)", "RouteId": 8502, "SeqNo": 16, "Terminal": 0, "DistrictId": 1, "Latitude": 22.658815, "Longitude": 120.308683, "IVRNo": 5662, "EXTVoiceNo": 5662, "traveltime": 0, "holidayTraveltime": 0}, {"Id": "4060", "pgp": 0, "GoBack": 2, "SID": 19224, "NameZh": "\u5927\u9806\u4e00\u8def(\u597d\u5e02\u591a)", "RouteId": 8502, "SeqNo": 17, "Terminal": 0, "DistrictId": 1, "Latitude": 22.657006, "Longitude": 120.306412, "IVRNo": 4032, "EXTVoiceNo": 4060, "traveltime": 0, "holidayTraveltime": 0}, {"Id": "4062", "pgp": 0, "GoBack": 2, "SID": 3608, "NameZh": "\u6377\u904b\u51f9\u5b50\u5e95\u7ad9", "RouteId": 8502, "SeqNo": 18, "Terminal": 0, "DistrictId": 1, "Latitude": 22.657249, "Longitude": 120.303285, "IVRNo": 4033, "EXTVoiceNo": 4062, "traveltime": 0, "holidayTraveltime": 0}, {"Id": "032 ", "pgp": 0, "GoBack": 2, "SID": 19222, "NameZh": "\u6377\u904b\u5de8\u86cb\u7ad9(\u7be4\u656c\u8def\u53e3)", "RouteId": 8502, "SeqNo": 19, "Terminal": 0, "DistrictId": 1, "Latitude": 22.664667, "Longitude": 120.302924, "IVRNo": 8607, "EXTVoiceNo": 32, "traveltime": 0, "holidayTraveltime": 0}, {"Id": "5063", "pgp": 0, "GoBack": 2, "SID": 19220, "NameZh": "\u6587\u4fe1\u8def\u53e3", "RouteId": 8502, "SeqNo": 20, "Terminal": 0, "DistrictId": 1, "Latitude": 22.664266, "Longitude": 120.300063, "IVRNo": 5063, "EXTVoiceNo": 5063, "traveltime": 0, "holidayTraveltime": 0}, {"Id": "0671", "pgp": 0, "GoBack": 2, "SID": 13152, "NameZh": "\u9ad8\u7b49\u6cd5\u9662", "RouteId": 8502, "SeqNo": 21, "Terminal": 0, "DistrictId": 1, "Latitude": 22.66129, "Longitude": 120.29904, "IVRNo": 7709, "EXTVoiceNo": 20671, "traveltime": 0, "holidayTraveltime": 0}, {"Id": "1426", "pgp": 0, "GoBack": 2, "SID": 19218, "NameZh": "\u4e2d\u83ef\u8def\u53e3(\u660e\u8aa0\u4e09\u8def)", "RouteId": 8502, "SeqNo": 22, "Terminal": 0, "DistrictId": 1, "Latitude": 22.661234, "Longitude": 120.293141, "IVRNo": 1426, "EXTVoiceNo": 1426, "traveltime": 0, "holidayTraveltime": 0}, {"Id": "712 ", "pgp": 0, "GoBack": 2, "SID": 19216, "NameZh": "\u7f8e\u8853\u6771\u56db\u8def\u53e3(\u660e\u8aa0\u56db\u8def)", "RouteId": 8502, "SeqNo": 23, "Terminal": 0, "DistrictId": 1, "Latitude": 22.661371, "Longitude": 120.289686, "IVRNo": 7712, "EXTVoiceNo": 7712, "traveltime": 0, "holidayTraveltime": 0}, {"Id": "5837", "pgp": 0, "GoBack": 2, "SID": 13150, "NameZh": "\u9ad8\u96c4\u5e02\u7acb\u7f8e\u8853\u9928", "RouteId": 8502, "SeqNo": 24, "Terminal": 1, "DistrictId": 1, "Latitude": 22.65676, "Longitude": 120.28814, "IVRNo": 5837, "EXTVoiceNo": 15837, "traveltime": 0, "holidayTraveltime": 0}]}