{"en": [{"Id": "2303", "pgp": 0, "GoBack": 1, "SID": 18424, "NameZh": "Minsheng 2nd Village", "RouteId": 1121, "SeqNo": 1, "Terminal": 0, "DistrictId": 1, "Latitude": 23.279189, "Longitude": 120.719569, "IVRNo": 8642, "EXTVoiceNo": 32303, "traveltime": 0, "holidayTraveltime": 0}, {"Id": "2426", "pgp": 0, "GoBack": 1, "SID": 18288, "NameZh": "Namasia District Office, Health Center", "RouteId": 1121, "SeqNo": 2, "Terminal": 0, "DistrictId": 1, "Latitude": 23.217882, "Longitude": 120.693095, "IVRNo": 9998, "EXTVoiceNo": 32426, "traveltime": 0, "holidayTraveltime": 0}, {"Id": "2307", "pgp": 0, "GoBack": 1, "SID": 5335, "NameZh": "Si An Mountain", "RouteId": 1121, "SeqNo": 3, "Terminal": 0, "DistrictId": 1, "Latitude": 23.211235, "Longitude": 120.668534, "IVRNo": 8644, "EXTVoiceNo": 32307, "traveltime": 0, "holidayTraveltime": 0}, {"Id": "2302", "pgp": 0, "GoBack": 1, "SID": 18430, "NameZh": "Siaolin", "RouteId": 1121, "SeqNo": 4, "Terminal": 0, "DistrictId": 1, "Latitude": 23.162375, "Longitude": 120.639851, "IVRNo": 8648, "EXTVoiceNo": 32302, "traveltime": 0, "holidayTraveltime": 0}, {"Id": "6084", "pgp": 0, "GoBack": 1, "SID": 13767, "NameZh": "Wulipu (Siaolin Elementary School)", "RouteId": 1121, "SeqNo": 5, "Terminal": 0, "DistrictId": 1, "Latitude": 23.147877, "Longitude": 120.63074, "IVRNo": 10345, "EXTVoiceNo": 26084, "traveltime": 0, "holidayTraveltime": 0}, {"Id": "3439", "pgp": 0, "GoBack": 1, "SID": 13774, "NameZh": "Guanshan Village", "RouteId": 1121, "SeqNo": 6, "Terminal": 0, "DistrictId": 1, "Latitude": 23.112655, "Longitude": 120.606116, "IVRNo": 13439, "EXTVoiceNo": 13439, "traveltime": 0, "holidayTraveltime": 0}, {"Id": "6087", "pgp": 0, "GoBack": 1, "SID": 13780, "NameZh": "Jiasian District Office, Health Center", "RouteId": 1121, "SeqNo": 7, "Terminal": 0, "DistrictId": 1, "Latitude": 23.08391, "Longitude": 120.58816, "IVRNo": 13298, "EXTVoiceNo": 26087, "traveltime": 0, "holidayTraveltime": 0}, {"Id": "0345", "pgp": 0, "GoBack": 1, "SID": 13781, "NameZh": "Jiasian Station", "RouteId": 1121, "SeqNo": 8, "Terminal": 1, "DistrictId": 1, "Latitude": 23.082619, "Longitude": 120.5879, "IVRNo": 10704, "EXTVoiceNo": 20345, "traveltime": 0, "holidayTraveltime": 0}, {"Id": "0345", "pgp": 0, "GoBack": 2, "SID": 13963, "NameZh": "Jiasian Station", "RouteId": 1121, "SeqNo": 1, "Terminal": 0, "DistrictId": 1, "Latitude": 23.082619, "Longitude": 120.5879, "IVRNo": 10704, "EXTVoiceNo": 20345, "traveltime": 0, "holidayTraveltime": 0}, {"Id": "6087", "pgp": 0, "GoBack": 2, "SID": 13964, "NameZh": "Jiasian District Office, Health Center", "RouteId": 1121, "SeqNo": 2, "Terminal": 0, "DistrictId": 1, "Latitude": 23.083798, "Longitude": 120.588306, "IVRNo": 13298, "EXTVoiceNo": 26087, "traveltime": 0, "holidayTraveltime": 0}, {"Id": "3439", "pgp": 0, "GoBack": 2, "SID": 10098, "NameZh": "Guanshan Village", "RouteId": 1121, "SeqNo": 3, "Terminal": 0, "DistrictId": 1, "Latitude": 23.11258, "Longitude": 120.60593, "IVRNo": 13439, "EXTVoiceNo": 13439, "traveltime": 0, "holidayTraveltime": 0}, {"Id": "6084", "pgp": 0, "GoBack": 2, "SID": 13977, "NameZh": "Wulipu (Siaolin Elementary School)", "RouteId": 1121, "SeqNo": 4, "Terminal": 0, "DistrictId": 1, "Latitude": 23.14786, "Longitude": 120.63076, "IVRNo": 10345, "EXTVoiceNo": 26084, "traveltime": 0, "holidayTraveltime": 0}, {"Id": "2302", "pgp": 0, "GoBack": 2, "SID": 18433, "NameZh": "Siaolin", "RouteId": 1121, "SeqNo": 5, "Terminal": 0, "DistrictId": 1, "Latitude": 23.162375, "Longitude": 120.639851, "IVRNo": 8648, "EXTVoiceNo": 32302, "traveltime": 0, "holidayTraveltime": 0}, {"Id": "2307", "pgp": 0, "GoBack": 2, "SID": 15133, "NameZh": "Si An Mountain", "RouteId": 1121, "SeqNo": 6, "Terminal": 0, "DistrictId": 1, "Latitude": 23.211222, "Longitude": 120.668392, "IVRNo": 8644, "EXTVoiceNo": 32307, "traveltime": 0, "holidayTraveltime": 0}, {"Id": "2426", "pgp": 0, "GoBack": 2, "SID": 18367, "NameZh": "Namasia District Office, Health Center", "RouteId": 1121, "SeqNo": 7, "Terminal": 0, "DistrictId": 1, "Latitude": 23.21761, "Longitude": 120.693068, "IVRNo": 9998, "EXTVoiceNo": 32426, "traveltime": 0, "holidayTraveltime": 0}, {"Id": "2303", "pgp": 0, "GoBack": 2, "SID": 18439, "NameZh": "Minsheng 2nd Village", "RouteId": 1121, "SeqNo": 8, "Terminal": 1, "DistrictId": 1, "Latitude": 23.279219, "Longitude": 120.719607, "IVRNo": 8642, "EXTVoiceNo": 32303, "traveltime": 0, "holidayTraveltime": 0}], "zh": [{"Id": "2303", "pgp": 0, "GoBack": 1, "SID": 18424, "NameZh": "\u6c11\u751f\u4e8c\u91cc", "RouteId": 1121, "SeqNo": 1, "Terminal": 0, "DistrictId": 1, "Latitude": 23.279189, "Longitude": 120.719569, "IVRNo": 8642, "EXTVoiceNo": 32303, "traveltime": 0, "holidayTraveltime": 0}, {"Id": "2426", "pgp": 0, "GoBack": 1, "SID": 18288, "NameZh": "\u90a3\u746a\u590f\u5340\u516c\u6240.\u885b\u751f\u6240", "RouteId": 1121, "SeqNo": 2, "Terminal": 0, "DistrictId": 1, "Latitude": 23.217882, "Longitude": 120.693095, "IVRNo": 9998, "EXTVoiceNo": 32426, "traveltime": 0, "holidayTraveltime": 0}, {"Id": "2307", "pgp": 0, "GoBack": 1, "SID": 5335, "NameZh": "\u932b\u5b89\u5c71", "RouteId": 1121, "SeqNo": 3, "Terminal": 0, "DistrictId": 1, "Latitude": 23.211235, "Longitude": 120.668534, "IVRNo": 8644, "EXTVoiceNo": 32307, "traveltime": 0, "holidayTraveltime": 0}, {"Id": "2302", "pgp": 0, "GoBack": 1, "SID": 18430, "NameZh": "\u5c0f\u6797", "RouteId": 1121, "SeqNo": 4, "Terminal": 0, "DistrictId": 1, "Latitude": 23.162375, "Longitude": 120.639851, "IVRNo": 8648, "EXTVoiceNo": 32302, "traveltime": 0, "holidayTraveltime": 0}, {"Id": "6084", "pgp": 0, "GoBack": 1, "SID": 13767, "NameZh": "\u4e94\u91cc\u57d4(\u5c0f\u6797\u570b\u5c0f)", "RouteId": 1121, "SeqNo": 5, "Terminal": 0, "DistrictId": 1, "Latitude": 23.147877, "Longitude": 120.63074, "IVRNo": 10345, "EXTVoiceNo": 26084, "traveltime": 0, "holidayTraveltime": 0}, {"Id": "3439", "pgp": 0, "GoBack": 1, "SID": 13774, "NameZh": "\u95dc\u5c71\u91cc", "RouteId": 1121, "SeqNo": 6, "Terminal": 0, "DistrictId": 1, "Latitude": 23.112655, "Longitude": 120.606116, "IVRNo": 13439, "EXTVoiceNo": 13439, "traveltime": 0, "holidayTraveltime": 0}, {"Id": "6087", "pgp": 0, "GoBack": 1, "SID": 13780, "NameZh": "\u7532\u4ed9\u5340\u516c\u6240.\u885b\u751f\u6240", "RouteId": 1121, "SeqNo": 7, "Terminal": 0, "DistrictId": 1, "Latitude": 23.08391, "Longitude": 120.58816, "IVRNo": 13298, "EXTVoiceNo": 26087, "traveltime": 0, "holidayTraveltime": 0}, {"Id": "0345", "pgp": 0, "GoBack": 1, "SID": 13781, "NameZh": "\u7532\u4ed9\u7ad9", "RouteId": 1121, "SeqNo": 8, "Terminal": 1, "DistrictId": 1, "Latitude": 23.082619, "Longitude": 120.5879, "IVRNo": 10704, "EXTVoiceNo": 20345, "traveltime": 0, "holidayTraveltime": 0}, {"Id": "0345", "pgp": 0, "GoBack": 2, "SID": 13963, "NameZh": "\u7532\u4ed9\u7ad9", "RouteId": 1121, "SeqNo": 1, "Terminal": 0, "DistrictId": 1, "Latitude": 23.082619, "Longitude": 120.5879, "IVRNo": 10704, "EXTVoiceNo": 20345, "traveltime": 0, "holidayTraveltime": 0}, {"Id": "6087", "pgp": 0, "GoBack": 2, "SID": 13964, "NameZh": "\u7532\u4ed9\u5340\u516c\u6240.\u885b\u751f\u6240", "RouteId": 1121, "SeqNo": 2, "Terminal": 0, "DistrictId": 1, "Latitude": 23.083798, "Longitude": 120.588306, "IVRNo": 13298, "EXTVoiceNo": 26087, "traveltime": 0, "holidayTraveltime": 0}, {"Id": "3439", "pgp": 0, "GoBack": 2, "SID": 10098, "NameZh": "\u95dc\u5c71\u91cc", "RouteId": 1121, "SeqNo": 3, "Terminal": 0, "DistrictId": 1, "Latitude": 23.11258, "Longitude": 120.60593, "IVRNo": 13439, "EXTVoiceNo": 13439, "traveltime": 0, "holidayTraveltime": 0}, {"Id": "6084", "pgp": 0, "GoBack": 2, "SID": 13977, "NameZh": "\u4e94\u91cc\u57d4(\u5c0f\u6797\u570b\u5c0f)", "RouteId": 1121, "SeqNo": 4, "Terminal": 0, "DistrictId": 1, "Latitude": 23.14786, "Longitude": 120.63076, "IVRNo": 10345, "EXTVoiceNo": 26084, "traveltime": 0, "holidayTraveltime": 0}, {"Id": "2302", "pgp": 0, "GoBack": 2, "SID": 18433, "NameZh": "\u5c0f\u6797", "RouteId": 1121, "SeqNo": 5, "Terminal": 0, "DistrictId": 1, "Latitude": 23.162375, "Longitude": 120.639851, "IVRNo": 8648, "EXTVoiceNo": 32302, "traveltime": 0, "holidayTraveltime": 0}, {"Id": "2307", "pgp": 0, "GoBack": 2, "SID": 15133, "NameZh": "\u932b\u5b89\u5c71", "RouteId": 1121, "SeqNo": 6, "Terminal": 0, "DistrictId": 1, "Latitude": 23.211222, "Longitude": 120.668392, "IVRNo": 8644, "EXTVoiceNo": 32307, "traveltime": 0, "holidayTraveltime": 0}, {"Id": "2426", "pgp": 0, "GoBack": 2, "SID": 18367, "NameZh": "\u90a3\u746a\u590f\u5340\u516c\u6240.\u885b\u751f\u6240", "RouteId": 1121, "SeqNo": 7, "Terminal": 0, "DistrictId": 1, "Latitude": 23.21761, "Longitude": 120.693068, "IVRNo": 9998, "EXTVoiceNo": 32426, "traveltime": 0, "holidayTraveltime": 0}, {"Id": "2303", "pgp": 0, "GoBack": 2, "SID": 18439, "NameZh": "\u6c11\u751f\u4e8c\u91cc", "RouteId": 1121, "SeqNo": 8, "Terminal": 1, "DistrictId": 1, "Latitude": 23.279219, "Longitude": 120.719607, "IVRNo": 8642, "EXTVoiceNo": 32303, "traveltime": 0, "holidayTraveltime": 0}]}