{"en": [{"Id": "2001", "pgp": 0, "GoBack": 1, "SID": 966, "NameZh": "Siaogang Station", "RouteId": 1792, "SeqNo": 1, "Terminal": 0, "DistrictId": 1, "Latitude": 22.56537, "Longitude": 120.3412, "IVRNo": 2000, "EXTVoiceNo": 2001, "traveltime": 0, "holidayTraveltime": 0}, {"Id": "2002", "pgp": 0, "GoBack": 1, "SID": 967, "NameZh": "Siaogang Precinct", "RouteId": 1792, "SeqNo": 2, "Terminal": 0, "DistrictId": 1, "Latitude": 22.565553, "Longitude": 120.343961, "IVRNo": 2002, "EXTVoiceNo": 2002, "traveltime": 0, "holidayTraveltime": 0}, {"Id": "2303", "pgp": 0, "GoBack": 1, "SID": 1723, "NameZh": "Erling (Daye N. Rd.)", "RouteId": 1792, "SeqNo": 3, "Terminal": 0, "DistrictId": 1, "Latitude": 22.5646, "Longitude": 120.34676, "IVRNo": 2052, "EXTVoiceNo": 2303, "traveltime": 0, "holidayTraveltime": 0}, {"Id": "2570", "pgp": 0, "GoBack": 1, "SID": 1724, "NameZh": "Daye N. Rd.", "RouteId": 1792, "SeqNo": 4, "Terminal": 0, "DistrictId": 1, "Latitude": 22.563066, "Longitude": 120.347937, "IVRNo": 2504, "EXTVoiceNo": 2570, "traveltime": 0, "holidayTraveltime": 0}, {"Id": "2504", "pgp": 0, "GoBack": 1, "SID": 1727, "NameZh": "Dianbei Rd. Intersection", "RouteId": 1792, "SeqNo": 5, "Terminal": 0, "DistrictId": 1, "Latitude": 22.563464, "Longitude": 120.350261, "IVRNo": 2505, "EXTVoiceNo": 2504, "traveltime": 0, "holidayTraveltime": 0}, {"Id": "2339", "pgp": 0, "GoBack": 1, "SID": 1433, "NameZh": "Erling Elementary School (MRT Siaogang Station)", "RouteId": 1792, "SeqNo": 6, "Terminal": 0, "DistrictId": 1, "Latitude": 22.565594, "Longitude": 120.351747, "IVRNo": 2339, "EXTVoiceNo": 2339, "traveltime": 0, "holidayTraveltime": 0}, {"Id": "6028", "pgp": 0, "GoBack": 1, "SID": 4481, "NameZh": "MRT Siaogang Station", "RouteId": 1792, "SeqNo": 7, "Terminal": 0, "DistrictId": 1, "Latitude": 22.564926, "Longitude": 120.353538, "IVRNo": 2040, "EXTVoiceNo": 6028, "traveltime": 0, "holidayTraveltime": 0}, {"Id": "2306", "pgp": 0, "GoBack": 1, "SID": 1437, "NameZh": "Kaohsiung Municipal Chungshang Junior High School", "RouteId": 1792, "SeqNo": 8, "Terminal": 0, "DistrictId": 1, "Latitude": 22.566811, "Longitude": 120.355222, "IVRNo": 2306, "EXTVoiceNo": 2306, "traveltime": 0, "holidayTraveltime": 0}, {"Id": "2307", "pgp": 0, "GoBack": 1, "SID": 1443, "NameZh": "Siaogang Senior High School", "RouteId": 1792, "SeqNo": 9, "Terminal": 0, "DistrictId": 1, "Latitude": 22.566799, "Longitude": 120.357553, "IVRNo": 2307, "EXTVoiceNo": 2307, "traveltime": 0, "holidayTraveltime": 0}, {"Id": "2309", "pgp": 0, "GoBack": 1, "SID": 1454, "NameZh": "Sinfong St. Intersection", "RouteId": 1792, "SeqNo": 10, "Terminal": 0, "DistrictId": 1, "Latitude": 22.567056, "Longitude": 120.360623, "IVRNo": 2309, "EXTVoiceNo": 2309, "traveltime": 0, "holidayTraveltime": 0}, {"Id": "2409", "pgp": 0, "GoBack": 1, "SID": 1614, "NameZh": "Kaohsiung Municipal Siaogang Hospital", "RouteId": 1792, "SeqNo": 11, "Terminal": 0, "DistrictId": 1, "Latitude": 22.566379, "Longitude": 120.363227, "IVRNo": 2409, "EXTVoiceNo": 2409, "traveltime": 0, "holidayTraveltime": 0}, {"Id": "2410", "pgp": 0, "GoBack": 1, "SID": 1620, "NameZh": "Shanming Rd. (Beilin Rd.)", "RouteId": 1792, "SeqNo": 12, "Terminal": 0, "DistrictId": 1, "Latitude": 22.5643, "Longitude": 120.364722, "IVRNo": 2310, "EXTVoiceNo": 2410, "traveltime": 0, "holidayTraveltime": 0}, {"Id": "2411", "pgp": 0, "GoBack": 1, "SID": 1621, "NameZh": "Shanming Village", "RouteId": 1792, "SeqNo": 13, "Terminal": 0, "DistrictId": 1, "Latitude": 22.5621, "Longitude": 120.3665, "IVRNo": 2411, "EXTVoiceNo": 2411, "traveltime": 0, "holidayTraveltime": 0}, {"Id": "2349", "pgp": 0, "GoBack": 1, "SID": 1552, "NameZh": "Beilin Rd.", "RouteId": 1792, "SeqNo": 14, "Terminal": 0, "DistrictId": 1, "Latitude": 22.5602, "Longitude": 120.36801, "IVRNo": 2349, "EXTVoiceNo": 2349, "traveltime": 0, "holidayTraveltime": 0}, {"Id": "6038", "pgp": 0, "GoBack": 1, "SID": 17054, "NameZh": "Southern District Recycling Plant(Beilin Rd.)", "RouteId": 1792, "SeqNo": 15, "Terminal": 0, "DistrictId": 1, "Latitude": 22.550117, "Longitude": 120.375651, "IVRNo": 1297, "EXTVoiceNo": 6038, "traveltime": 0, "holidayTraveltime": 0}, {"Id": "2414", "pgp": 0, "GoBack": 1, "SID": 1595, "NameZh": "Donglin Rd.", "RouteId": 1792, "SeqNo": 16, "Terminal": 0, "DistrictId": 1, "Latitude": 22.542627, "Longitude": 120.373879, "IVRNo": 2390, "EXTVoiceNo": 2414, "traveltime": 0, "holidayTraveltime": 0}, {"Id": "2415", "pgp": 0, "GoBack": 1, "SID": 1623, "NameZh": "Yanhai Rd. Intersection", "RouteId": 1792, "SeqNo": 17, "Terminal": 0, "DistrictId": 1, "Latitude": 22.540365, "Longitude": 120.370938, "IVRNo": 2415, "EXTVoiceNo": 2415, "traveltime": 0, "holidayTraveltime": 0}, {"Id": "2416", "pgp": 0, "GoBack": 1, "SID": 1626, "NameZh": "The Training and Employment Center (Jhonglin Rd.)", "RouteId": 1792, "SeqNo": 18, "Terminal": 0, "DistrictId": 1, "Latitude": 22.538754, "Longitude": 120.368831, "IVRNo": 2416, "EXTVoiceNo": 2416, "traveltime": 0, "holidayTraveltime": 0}, {"Id": "2417", "pgp": 0, "GoBack": 1, "SID": 1629, "NameZh": "Jhonglin Rd", "RouteId": 1792, "SeqNo": 19, "Terminal": 0, "DistrictId": 1, "Latitude": 22.53658, "Longitude": 120.366136, "IVRNo": 2417, "EXTVoiceNo": 2417, "traveltime": 0, "holidayTraveltime": 0}, {"Id": "2418", "pgp": 0, "GoBack": 1, "SID": 1632, "NameZh": "CPDC Hisaogang Plant", "RouteId": 1792, "SeqNo": 20, "Terminal": 0, "DistrictId": 1, "Latitude": 22.53526, "Longitude": 120.364258, "IVRNo": 2418, "EXTVoiceNo": 2418, "traveltime": 0, "holidayTraveltime": 0}, {"Id": "2419", "pgp": 0, "GoBack": 1, "SID": 1636, "NameZh": "Jhongjhih Rd. Intersection", "RouteId": 1792, "SeqNo": 21, "Terminal": 0, "DistrictId": 1, "Latitude": 22.533113, "Longitude": 120.361416, "IVRNo": 2419, "EXTVoiceNo": 2419, "traveltime": 0, "holidayTraveltime": 0}, {"Id": "2420", "pgp": 0, "GoBack": 1, "SID": 1642, "NameZh": "Jhongli Rd. Intersection", "RouteId": 1792, "SeqNo": 22, "Terminal": 0, "DistrictId": 1, "Latitude": 22.530197, "Longitude": 120.357608, "IVRNo": 2420, "EXTVoiceNo": 2420, "traveltime": 0, "holidayTraveltime": 0}, {"Id": "2522", "pgp": 0, "GoBack": 1, "SID": 1737, "NameZh": "Jhongsin Rd. Intersection", "RouteId": 1792, "SeqNo": 23, "Terminal": 0, "DistrictId": 1, "Latitude": 22.52669, "Longitude": 120.34894, "IVRNo": 2522, "EXTVoiceNo": 2522, "traveltime": 0, "holidayTraveltime": 0}, {"Id": "2523", "pgp": 0, "GoBack": 1, "SID": 1739, "NameZh": "Dalinpu Oil Refinery Plant", "RouteId": 1792, "SeqNo": 24, "Terminal": 0, "DistrictId": 1, "Latitude": 22.529172, "Longitude": 120.346628, "IVRNo": 2523, "EXTVoiceNo": 2523, "traveltime": 0, "holidayTraveltime": 0}, {"Id": "2524", "pgp": 0, "GoBack": 1, "SID": 1740, "NameZh": "Fongbei Rd.", "RouteId": 1792, "SeqNo": 25, "Terminal": 0, "DistrictId": 1, "Latitude": 22.528394, "Longitude": 120.343919, "IVRNo": 2524, "EXTVoiceNo": 2524, "traveltime": 0, "holidayTraveltime": 0}, {"Id": "2525", "pgp": 0, "GoBack": 1, "SID": 1741, "NameZh": "Guanyin Temple", "RouteId": 1792, "SeqNo": 26, "Terminal": 0, "DistrictId": 1, "Latitude": 22.528341, "Longitude": 120.341447, "IVRNo": 2525, "EXTVoiceNo": 2525, "traveltime": 0, "holidayTraveltime": 0}, {"Id": "2469", "pgp": 0, "GoBack": 1, "SID": 1667, "NameZh": "Fongbei Rd. Intersection", "RouteId": 1792, "SeqNo": 27, "Terminal": 0, "DistrictId": 1, "Latitude": 22.527294, "Longitude": 120.341041, "IVRNo": 2429, "EXTVoiceNo": 2469, "traveltime": 0, "holidayTraveltime": 0}, {"Id": "2470", "pgp": 0, "GoBack": 1, "SID": 1672, "NameZh": "Fonglin Elementary School (Fonglin Rd.)", "RouteId": 1792, "SeqNo": 28, "Terminal": 0, "DistrictId": 1, "Latitude": 22.52666, "Longitude": 120.342393, "IVRNo": 2428, "EXTVoiceNo": 2470, "traveltime": 0, "holidayTraveltime": 0}, {"Id": "2470", "pgp": 0, "GoBack": 1, "SID": 1742, "NameZh": "Fonglin Elementary School (Fongsi St.)", "RouteId": 1792, "SeqNo": 29, "Terminal": 0, "DistrictId": 1, "Latitude": 22.525718, "Longitude": 120.343637, "IVRNo": 1268, "EXTVoiceNo": 2470, "traveltime": 0, "holidayTraveltime": 0}, {"Id": "2529", "pgp": 0, "GoBack": 1, "SID": 1743, "NameZh": "Fongsi St.", "RouteId": 1792, "SeqNo": 30, "Terminal": 0, "DistrictId": 1, "Latitude": 22.524177, "Longitude": 120.345249, "IVRNo": 2426, "EXTVoiceNo": 2529, "traveltime": 0, "holidayTraveltime": 0}, {"Id": "2562", "pgp": 0, "GoBack": 1, "SID": 1750, "NameZh": "Longfong Rd.", "RouteId": 1792, "SeqNo": 31, "Terminal": 0, "DistrictId": 1, "Latitude": 22.522728, "Longitude": 120.347737, "IVRNo": 2530, "EXTVoiceNo": 2562, "traveltime": 0, "holidayTraveltime": 0}, {"Id": "2375", "pgp": 0, "GoBack": 1, "SID": 1581, "NameZh": "Fenglin Junior High School (Fonglin Rd.)", "RouteId": 1792, "SeqNo": 32, "Terminal": 0, "DistrictId": 1, "Latitude": 22.52161, "Longitude": 120.34883, "IVRNo": 2375, "EXTVoiceNo": 2375, "traveltime": 0, "holidayTraveltime": 0}, {"Id": "2531", "pgp": 0, "GoBack": 1, "SID": 1752, "NameZh": "Longfong Park", "RouteId": 1792, "SeqNo": 33, "Terminal": 0, "DistrictId": 1, "Latitude": 22.517285, "Longitude": 120.353209, "IVRNo": 2531, "EXTVoiceNo": 2531, "traveltime": 0, "holidayTraveltime": 0}, {"Id": "2532", "pgp": 0, "GoBack": 1, "SID": 1753, "NameZh": "Cichang 1st Rd. Intersection", "RouteId": 1792, "SeqNo": 34, "Terminal": 0, "DistrictId": 1, "Latitude": 22.516183, "Longitude": 120.354322, "IVRNo": 2532, "EXTVoiceNo": 2532, "traveltime": 0, "holidayTraveltime": 0}, {"Id": "2533", "pgp": 0, "GoBack": 1, "SID": 1756, "NameZh": "Longsing Rd.", "RouteId": 1792, "SeqNo": 35, "Terminal": 0, "DistrictId": 1, "Latitude": 22.51493, "Longitude": 120.356053, "IVRNo": 2533, "EXTVoiceNo": 2533, "traveltime": 0, "holidayTraveltime": 0}, {"Id": "2534", "pgp": 0, "GoBack": 1, "SID": 1758, "NameZh": "Fong Ming Elementary School", "RouteId": 1792, "SeqNo": 36, "Terminal": 0, "DistrictId": 1, "Latitude": 22.515136, "Longitude": 120.357783, "IVRNo": 2534, "EXTVoiceNo": 2534, "traveltime": 0, "holidayTraveltime": 0}, {"Id": "2535", "pgp": 0, "GoBack": 1, "SID": 1760, "NameZh": "Fongming Village", "RouteId": 1792, "SeqNo": 37, "Terminal": 0, "DistrictId": 1, "Latitude": 22.513716, "Longitude": 120.359233, "IVRNo": 2535, "EXTVoiceNo": 2535, "traveltime": 0, "holidayTraveltime": 0}, {"Id": "2536", "pgp": 0, "GoBack": 1, "SID": 1761, "NameZh": "Fongbitou (Fongming Rd.)", "RouteId": 1792, "SeqNo": 38, "Terminal": 0, "DistrictId": 1, "Latitude": 22.511862, "Longitude": 120.361079, "IVRNo": 2377, "EXTVoiceNo": 2536, "traveltime": 0, "holidayTraveltime": 0}, {"Id": "2537", "pgp": 0, "GoBack": 1, "SID": 8796, "NameZh": "Fongbitou Fishing Port", "RouteId": 1792, "SeqNo": 39, "Terminal": 1, "DistrictId": 1, "Latitude": 22.509598, "Longitude": 120.360337, "IVRNo": 2537, "EXTVoiceNo": 2537, "traveltime": 0, "holidayTraveltime": 0}, {"Id": "2537", "pgp": 0, "GoBack": 2, "SID": 1762, "NameZh": "Fongbitou Fishing Port", "RouteId": 1792, "SeqNo": 1, "Terminal": 0, "DistrictId": 1, "Latitude": 22.509845, "Longitude": 120.361623, "IVRNo": 2537, "EXTVoiceNo": 2537, "traveltime": 0, "holidayTraveltime": 0}, {"Id": "2536", "pgp": 0, "GoBack": 2, "SID": 1763, "NameZh": "Fongbitou (Fongming Rd.)", "RouteId": 1792, "SeqNo": 2, "Terminal": 0, "DistrictId": 1, "Latitude": 22.511397, "Longitude": 120.361701, "IVRNo": 2377, "EXTVoiceNo": 2536, "traveltime": 0, "holidayTraveltime": 0}, {"Id": "2535", "pgp": 0, "GoBack": 2, "SID": 1764, "NameZh": "Fongming Village", "RouteId": 1792, "SeqNo": 3, "Terminal": 0, "DistrictId": 1, "Latitude": 22.513722, "Longitude": 120.359342, "IVRNo": 2535, "EXTVoiceNo": 2535, "traveltime": 0, "holidayTraveltime": 0}, {"Id": "2534", "pgp": 0, "GoBack": 2, "SID": 1774, "NameZh": "Fong Ming Elementary School", "RouteId": 1792, "SeqNo": 4, "Terminal": 0, "DistrictId": 1, "Latitude": 22.515283, "Longitude": 120.357783, "IVRNo": 2534, "EXTVoiceNo": 2534, "traveltime": 0, "holidayTraveltime": 0}, {"Id": "2541", "pgp": 0, "GoBack": 2, "SID": 1775, "NameZh": "Bangkeng", "RouteId": 1792, "SeqNo": 5, "Terminal": 0, "DistrictId": 1, "Latitude": 22.517303, "Longitude": 120.355822, "IVRNo": 2541, "EXTVoiceNo": 2541, "traveltime": 0, "holidayTraveltime": 0}, {"Id": "2560", "pgp": 0, "GoBack": 2, "SID": 1796, "NameZh": "Cishan 2nd Rd.", "RouteId": 1792, "SeqNo": 6, "Terminal": 0, "DistrictId": 1, "Latitude": 22.517858, "Longitude": 120.354336, "IVRNo": 2560, "EXTVoiceNo": 2560, "traveltime": 0, "holidayTraveltime": 0}, {"Id": "2531", "pgp": 0, "GoBack": 2, "SID": 1797, "NameZh": "Longfong Park", "RouteId": 1792, "SeqNo": 7, "Terminal": 0, "DistrictId": 1, "Latitude": 22.517457, "Longitude": 120.35316, "IVRNo": 2531, "EXTVoiceNo": 2531, "traveltime": 0, "holidayTraveltime": 0}, {"Id": "2375", "pgp": 0, "GoBack": 2, "SID": 1583, "NameZh": "Fenglin Junior High School (Fonglin Rd.)", "RouteId": 1792, "SeqNo": 8, "Terminal": 0, "DistrictId": 1, "Latitude": 22.52163, "Longitude": 120.34893, "IVRNo": 2375, "EXTVoiceNo": 2375, "traveltime": 0, "holidayTraveltime": 0}, {"Id": "2562", "pgp": 0, "GoBack": 2, "SID": 1799, "NameZh": "Longfong Rd.", "RouteId": 1792, "SeqNo": 9, "Terminal": 0, "DistrictId": 1, "Latitude": 22.522756, "Longitude": 120.347786, "IVRNo": 2530, "EXTVoiceNo": 2562, "traveltime": 0, "holidayTraveltime": 0}, {"Id": "6049", "pgp": 0, "GoBack": 2, "SID": 4493, "NameZh": "Fonghua Rd.", "RouteId": 1792, "SeqNo": 10, "Terminal": 0, "DistrictId": 1, "Latitude": 22.523908, "Longitude": 120.348628, "IVRNo": 2425, "EXTVoiceNo": 6049, "traveltime": 0, "holidayTraveltime": 0}, {"Id": "2544", "pgp": 0, "GoBack": 2, "SID": 1777, "NameZh": "Fonglin Rd.", "RouteId": 1792, "SeqNo": 11, "Terminal": 0, "DistrictId": 1, "Latitude": 22.525195, "Longitude": 120.347632, "IVRNo": 2424, "EXTVoiceNo": 2544, "traveltime": 0, "holidayTraveltime": 0}, {"Id": "2545", "pgp": 0, "GoBack": 2, "SID": 1780, "NameZh": "Dalinpu", "RouteId": 1792, "SeqNo": 12, "Terminal": 0, "DistrictId": 1, "Latitude": 22.526616, "Longitude": 120.346283, "IVRNo": 2423, "EXTVoiceNo": 2545, "traveltime": 0, "holidayTraveltime": 0}, {"Id": "2546", "pgp": 0, "GoBack": 2, "SID": 1781, "NameZh": "Fonglin Temple", "RouteId": 1792, "SeqNo": 13, "Terminal": 0, "DistrictId": 1, "Latitude": 22.527383, "Longitude": 120.344589, "IVRNo": 56, "EXTVoiceNo": 2546, "traveltime": 0, "holidayTraveltime": 0}, {"Id": "2470", "pgp": 0, "GoBack": 2, "SID": 1648, "NameZh": "Fonglin Elementary School (Fonglin Rd.)", "RouteId": 1792, "SeqNo": 14, "Terminal": 0, "DistrictId": 1, "Latitude": 22.52666, "Longitude": 120.342393, "IVRNo": 2428, "EXTVoiceNo": 2470, "traveltime": 0, "holidayTraveltime": 0}, {"Id": "2469", "pgp": 0, "GoBack": 2, "SID": 1651, "NameZh": "Fongbei Rd. Intersection", "RouteId": 1792, "SeqNo": 15, "Terminal": 0, "DistrictId": 1, "Latitude": 22.527078, "Longitude": 120.341237, "IVRNo": 2429, "EXTVoiceNo": 2469, "traveltime": 0, "holidayTraveltime": 0}, {"Id": "2525", "pgp": 0, "GoBack": 2, "SID": 1782, "NameZh": "Guanyin Temple", "RouteId": 1792, "SeqNo": 16, "Terminal": 0, "DistrictId": 1, "Latitude": 22.528253, "Longitude": 120.341087, "IVRNo": 2525, "EXTVoiceNo": 2525, "traveltime": 0, "holidayTraveltime": 0}, {"Id": "2524", "pgp": 0, "GoBack": 2, "SID": 1787, "NameZh": "Fongbei Rd.", "RouteId": 1792, "SeqNo": 17, "Terminal": 0, "DistrictId": 1, "Latitude": 22.528341, "Longitude": 120.343831, "IVRNo": 2524, "EXTVoiceNo": 2524, "traveltime": 0, "holidayTraveltime": 0}, {"Id": "2523", "pgp": 0, "GoBack": 2, "SID": 1788, "NameZh": "Dalinpu Oil Refinery Plant", "RouteId": 1792, "SeqNo": 18, "Terminal": 0, "DistrictId": 1, "Latitude": 22.529156, "Longitude": 120.346447, "IVRNo": 2523, "EXTVoiceNo": 2523, "traveltime": 0, "holidayTraveltime": 0}, {"Id": "2522", "pgp": 0, "GoBack": 2, "SID": 1789, "NameZh": "Jhongsin Rd. Intersection", "RouteId": 1792, "SeqNo": 19, "Terminal": 0, "DistrictId": 1, "Latitude": 22.526411, "Longitude": 120.349001, "IVRNo": 2522, "EXTVoiceNo": 2522, "traveltime": 0, "holidayTraveltime": 0}, {"Id": "2420", "pgp": 0, "GoBack": 2, "SID": 1676, "NameZh": "Jhongli Rd. Intersection", "RouteId": 1792, "SeqNo": 20, "Terminal": 0, "DistrictId": 1, "Latitude": 22.530067, "Longitude": 120.357609, "IVRNo": 2420, "EXTVoiceNo": 2420, "traveltime": 0, "holidayTraveltime": 0}, {"Id": "2419", "pgp": 0, "GoBack": 2, "SID": 1680, "NameZh": "Jhongjhih Rd. Intersection", "RouteId": 1792, "SeqNo": 21, "Terminal": 0, "DistrictId": 1, "Latitude": 22.53317, "Longitude": 120.361636, "IVRNo": 2419, "EXTVoiceNo": 2419, "traveltime": 0, "holidayTraveltime": 0}, {"Id": "2418", "pgp": 0, "GoBack": 2, "SID": 1816, "NameZh": "CPDC Hisaogang Plant", "RouteId": 1792, "SeqNo": 22, "Terminal": 0, "DistrictId": 1, "Latitude": 22.534737, "Longitude": 120.363706, "IVRNo": 2418, "EXTVoiceNo": 2418, "traveltime": 0, "holidayTraveltime": 0}, {"Id": "2417", "pgp": 0, "GoBack": 2, "SID": 1819, "NameZh": "Jhonglin Rd", "RouteId": 1792, "SeqNo": 23, "Terminal": 0, "DistrictId": 1, "Latitude": 22.5366, "Longitude": 120.366147, "IVRNo": 2417, "EXTVoiceNo": 2417, "traveltime": 0, "holidayTraveltime": 0}, {"Id": "2416", "pgp": 0, "GoBack": 2, "SID": 1820, "NameZh": "The Training and Employment Center (Jhonglin Rd.)", "RouteId": 1792, "SeqNo": 24, "Terminal": 0, "DistrictId": 1, "Latitude": 22.538628, "Longitude": 120.368814, "IVRNo": 2416, "EXTVoiceNo": 2416, "traveltime": 0, "holidayTraveltime": 0}, {"Id": "2415", "pgp": 0, "GoBack": 2, "SID": 1687, "NameZh": "Yanhai Rd. Intersection", "RouteId": 1792, "SeqNo": 25, "Terminal": 0, "DistrictId": 1, "Latitude": 22.540167, "Longitude": 120.370877, "IVRNo": 2415, "EXTVoiceNo": 2415, "traveltime": 0, "holidayTraveltime": 0}, {"Id": "6028", "pgp": 0, "GoBack": 2, "SID": 4485, "NameZh": "MRT Siaogang Station", "RouteId": 1792, "SeqNo": 26, "Terminal": 0, "DistrictId": 1, "Latitude": 22.564664, "Longitude": 120.354048, "IVRNo": 2040, "EXTVoiceNo": 6028, "traveltime": 0, "holidayTraveltime": 0}, {"Id": "2339", "pgp": 0, "GoBack": 2, "SID": 1535, "NameZh": "Erling Elementary School (MRT Siaogang Station)", "RouteId": 1792, "SeqNo": 27, "Terminal": 0, "DistrictId": 1, "Latitude": 22.565746, "Longitude": 120.351639, "IVRNo": 2339, "EXTVoiceNo": 2339, "traveltime": 0, "holidayTraveltime": 0}, {"Id": "2504", "pgp": 0, "GoBack": 2, "SID": 1802, "NameZh": "Dianbei Rd. Intersection", "RouteId": 1792, "SeqNo": 28, "Terminal": 0, "DistrictId": 1, "Latitude": 22.563667, "Longitude": 120.350187, "IVRNo": 2505, "EXTVoiceNo": 2504, "traveltime": 0, "holidayTraveltime": 0}, {"Id": "2570", "pgp": 0, "GoBack": 2, "SID": 1805, "NameZh": "Daye N. Rd.", "RouteId": 1792, "SeqNo": 29, "Terminal": 0, "DistrictId": 1, "Latitude": 22.563259, "Longitude": 120.348028, "IVRNo": 2504, "EXTVoiceNo": 2570, "traveltime": 0, "holidayTraveltime": 0}, {"Id": "2303", "pgp": 0, "GoBack": 2, "SID": 1810, "NameZh": "Erling (Daye N. Rd.)", "RouteId": 1792, "SeqNo": 30, "Terminal": 0, "DistrictId": 1, "Latitude": 22.565023, "Longitude": 120.346583, "IVRNo": 2052, "EXTVoiceNo": 2303, "traveltime": 0, "holidayTraveltime": 0}, {"Id": "2002", "pgp": 0, "GoBack": 2, "SID": 1014, "NameZh": "Siaogang Precinct", "RouteId": 1792, "SeqNo": 31, "Terminal": 0, "DistrictId": 1, "Latitude": 22.565733, "Longitude": 120.34431, "IVRNo": 2002, "EXTVoiceNo": 2002, "traveltime": 0, "holidayTraveltime": 0}, {"Id": "2001", "pgp": 0, "GoBack": 2, "SID": 953, "NameZh": "Siaogang Station", "RouteId": 1792, "SeqNo": 32, "Terminal": 1, "DistrictId": 1, "Latitude": 22.565399, "Longitude": 120.34125, "IVRNo": 2000, "EXTVoiceNo": 2001, "traveltime": 0, "holidayTraveltime": 0}], "zh": [{"Id": "2001", "pgp": 0, "GoBack": 1, "SID": 966, "NameZh": "\u5c0f\u6e2f\u7ad9", "RouteId": 1792, "SeqNo": 1, "Terminal": 0, "DistrictId": 1, "Latitude": 22.56537, "Longitude": 120.3412, "IVRNo": 2000, "EXTVoiceNo": 2001, "traveltime": 0, "holidayTraveltime": 0}, {"Id": "2002", "pgp": 0, "GoBack": 1, "SID": 967, "NameZh": "\u5c0f\u6e2f\u5206\u5c40", "RouteId": 1792, "SeqNo": 2, "Terminal": 0, "DistrictId": 1, "Latitude": 22.565553, "Longitude": 120.343961, "IVRNo": 2002, "EXTVoiceNo": 2002, "traveltime": 0, "holidayTraveltime": 0}, {"Id": "2303", "pgp": 0, "GoBack": 1, "SID": 1723, "NameZh": "\u4e8c\u82d3(\u5927\u696d\u5317\u8def)", "RouteId": 1792, "SeqNo": 3, "Terminal": 0, "DistrictId": 1, "Latitude": 22.5646, "Longitude": 120.34676, "IVRNo": 2052, "EXTVoiceNo": 2303, "traveltime": 0, "holidayTraveltime": 0}, {"Id": "2570", "pgp": 0, "GoBack": 1, "SID": 1724, "NameZh": "\u5927\u696d\u5317\u8def", "RouteId": 1792, "SeqNo": 4, "Terminal": 0, "DistrictId": 1, "Latitude": 22.563066, "Longitude": 120.347937, "IVRNo": 2504, "EXTVoiceNo": 2570, "traveltime": 0, "holidayTraveltime": 0}, {"Id": "2504", "pgp": 0, "GoBack": 1, "SID": 1727, "NameZh": "\u5e97\u5317\u8def\u53e3", "RouteId": 1792, "SeqNo": 5, "Terminal": 0, "DistrictId": 1, "Latitude": 22.563464, "Longitude": 120.350261, "IVRNo": 2505, "EXTVoiceNo": 2504, "traveltime": 0, "holidayTraveltime": 0}, {"Id": "2339", "pgp": 0, "GoBack": 1, "SID": 1433, "NameZh": "\u4e8c\u82d3\u570b\u5c0f(\u6377\u904b\u5c0f\u6e2f\u7ad9)", "RouteId": 1792, "SeqNo": 6, "Terminal": 0, "DistrictId": 1, "Latitude": 22.565594, "Longitude": 120.351747, "IVRNo": 2339, "EXTVoiceNo": 2339, "traveltime": 0, "holidayTraveltime": 0}, {"Id": "6028", "pgp": 0, "GoBack": 1, "SID": 4481, "NameZh": "\u6377\u904b\u5c0f\u6e2f\u7ad9", "RouteId": 1792, "SeqNo": 7, "Terminal": 0, "DistrictId": 1, "Latitude": 22.564926, "Longitude": 120.353538, "IVRNo": 2040, "EXTVoiceNo": 6028, "traveltime": 0, "holidayTraveltime": 0}, {"Id": "2306", "pgp": 0, "GoBack": 1, "SID": 1437, "NameZh": "\u4e2d\u5c71\u570b\u4e2d", "RouteId": 1792, "SeqNo": 8, "Terminal": 0, "DistrictId": 1, "Latitude": 22.566811, "Longitude": 120.355222, "IVRNo": 2306, "EXTVoiceNo": 2306, "traveltime": 0, "holidayTraveltime": 0}, {"Id": "2307", "pgp": 0, "GoBack": 1, "SID": 1443, "NameZh": "\u5c0f\u6e2f\u9ad8\u4e2d", "RouteId": 1792, "SeqNo": 9, "Terminal": 0, "DistrictId": 1, "Latitude": 22.566799, "Longitude": 120.357553, "IVRNo": 2307, "EXTVoiceNo": 2307, "traveltime": 0, "holidayTraveltime": 0}, {"Id": "2309", "pgp": 0, "GoBack": 1, "SID": 1454, "NameZh": "\u65b0\u8c50\u8857\u53e3", "RouteId": 1792, "SeqNo": 10, "Terminal": 0, "DistrictId": 1, "Latitude": 22.567056, "Longitude": 120.360623, "IVRNo": 2309, "EXTVoiceNo": 2309, "traveltime": 0, "holidayTraveltime": 0}, {"Id": "2409", "pgp": 0, "GoBack": 1, "SID": 1614, "NameZh": "\u5c0f\u6e2f\u91ab\u9662", "RouteId": 1792, "SeqNo": 11, "Terminal": 0, "DistrictId": 1, "Latitude": 22.566379, "Longitude": 120.363227, "IVRNo": 2409, "EXTVoiceNo": 2409, "traveltime": 0, "holidayTraveltime": 0}, {"Id": "2410", "pgp": 0, "GoBack": 1, "SID": 1620, "NameZh": "\u5c71\u660e\u8def(\u5317\u6797\u8def)", "RouteId": 1792, "SeqNo": 12, "Terminal": 0, "DistrictId": 1, "Latitude": 22.5643, "Longitude": 120.364722, "IVRNo": 2310, "EXTVoiceNo": 2410, "traveltime": 0, "holidayTraveltime": 0}, {"Id": "2411", "pgp": 0, "GoBack": 1, "SID": 1621, "NameZh": "\u5c71\u660e\u91cc", "RouteId": 1792, "SeqNo": 13, "Terminal": 0, "DistrictId": 1, "Latitude": 22.5621, "Longitude": 120.3665, "IVRNo": 2411, "EXTVoiceNo": 2411, "traveltime": 0, "holidayTraveltime": 0}, {"Id": "2349", "pgp": 0, "GoBack": 1, "SID": 1552, "NameZh": "\u5317\u6797\u8def", "RouteId": 1792, "SeqNo": 14, "Terminal": 0, "DistrictId": 1, "Latitude": 22.5602, "Longitude": 120.36801, "IVRNo": 2349, "EXTVoiceNo": 2349, "traveltime": 0, "holidayTraveltime": 0}, {"Id": "6038", "pgp": 0, "GoBack": 1, "SID": 17054, "NameZh": "\u5357\u5340\u8cc7\u6e90\u56de\u6536\u5ee0(\u5317\u6797\u8def)", "RouteId": 1792, "SeqNo": 15, "Terminal": 0, "DistrictId": 1, "Latitude": 22.550117, "Longitude": 120.375651, "IVRNo": 1297, "EXTVoiceNo": 6038, "traveltime": 0, "holidayTraveltime": 0}, {"Id": "2414", "pgp": 0, "GoBack": 1, "SID": 1595, "NameZh": "\u6771\u6797\u8def", "RouteId": 1792, "SeqNo": 16, "Terminal": 0, "DistrictId": 1, "Latitude": 22.542627, "Longitude": 120.373879, "IVRNo": 2390, "EXTVoiceNo": 2414, "traveltime": 0, "holidayTraveltime": 0}, {"Id": "2415", "pgp": 0, "GoBack": 1, "SID": 1623, "NameZh": "\u6cbf\u6d77\u8def\u53e3", "RouteId": 1792, "SeqNo": 17, "Terminal": 0, "DistrictId": 1, "Latitude": 22.540365, "Longitude": 120.370938, "IVRNo": 2415, "EXTVoiceNo": 2415, "traveltime": 0, "holidayTraveltime": 0}, {"Id": "2416", "pgp": 0, "GoBack": 1, "SID": 1626, "NameZh": "\u8077\u8a13\u4e2d\u5fc3(\u4e2d\u6797\u8def)", "RouteId": 1792, "SeqNo": 18, "Terminal": 0, "DistrictId": 1, "Latitude": 22.538754, "Longitude": 120.368831, "IVRNo": 2416, "EXTVoiceNo": 2416, "traveltime": 0, "holidayTraveltime": 0}, {"Id": "2417", "pgp": 0, "GoBack": 1, "SID": 1629, "NameZh": "\u4e2d\u6797\u8def", "RouteId": 1792, "SeqNo": 19, "Terminal": 0, "DistrictId": 1, "Latitude": 22.53658, "Longitude": 120.366136, "IVRNo": 2417, "EXTVoiceNo": 2417, "traveltime": 0, "holidayTraveltime": 0}, {"Id": "2418", "pgp": 0, "GoBack": 1, "SID": 1632, "NameZh": "\u4e2d\u5316\u5c0f\u6e2f\u5ee0", "RouteId": 1792, "SeqNo": 20, "Terminal": 0, "DistrictId": 1, "Latitude": 22.53526, "Longitude": 120.364258, "IVRNo": 2418, "EXTVoiceNo": 2418, "traveltime": 0, "holidayTraveltime": 0}, {"Id": "2419", "pgp": 0, "GoBack": 1, "SID": 1636, "NameZh": "\u4e2d\u667a\u8def\u53e3", "RouteId": 1792, "SeqNo": 21, "Terminal": 0, "DistrictId": 1, "Latitude": 22.533113, "Longitude": 120.361416, "IVRNo": 2419, "EXTVoiceNo": 2419, "traveltime": 0, "holidayTraveltime": 0}, {"Id": "2420", "pgp": 0, "GoBack": 1, "SID": 1642, "NameZh": "\u4e2d\u5229\u8def\u53e3", "RouteId": 1792, "SeqNo": 22, "Terminal": 0, "DistrictId": 1, "Latitude": 22.530197, "Longitude": 120.357608, "IVRNo": 2420, "EXTVoiceNo": 2420, "traveltime": 0, "holidayTraveltime": 0}, {"Id": "2522", "pgp": 0, "GoBack": 1, "SID": 1737, "NameZh": "\u4e2d\u5fc3\u8def\u53e3", "RouteId": 1792, "SeqNo": 23, "Terminal": 0, "DistrictId": 1, "Latitude": 22.52669, "Longitude": 120.34894, "IVRNo": 2522, "EXTVoiceNo": 2522, "traveltime": 0, "holidayTraveltime": 0}, {"Id": "2523", "pgp": 0, "GoBack": 1, "SID": 1739, "NameZh": "\u5927\u6797\u6d66\u7149\u6cb9\u5ee0", "RouteId": 1792, "SeqNo": 24, "Terminal": 0, "DistrictId": 1, "Latitude": 22.529172, "Longitude": 120.346628, "IVRNo": 2523, "EXTVoiceNo": 2523, "traveltime": 0, "holidayTraveltime": 0}, {"Id": "2524", "pgp": 0, "GoBack": 1, "SID": 1740, "NameZh": "\u9cf3\u5317\u8def", "RouteId": 1792, "SeqNo": 25, "Terminal": 0, "DistrictId": 1, "Latitude": 22.528394, "Longitude": 120.343919, "IVRNo": 2524, "EXTVoiceNo": 2524, "traveltime": 0, "holidayTraveltime": 0}, {"Id": "2525", "pgp": 0, "GoBack": 1, "SID": 1741, "NameZh": "\u89c0\u97f3\u5bfa", "RouteId": 1792, "SeqNo": 26, "Terminal": 0, "DistrictId": 1, "Latitude": 22.528341, "Longitude": 120.341447, "IVRNo": 2525, "EXTVoiceNo": 2525, "traveltime": 0, "holidayTraveltime": 0}, {"Id": "2469", "pgp": 0, "GoBack": 1, "SID": 1667, "NameZh": "\u9cf3\u5317\u8def\u53e3", "RouteId": 1792, "SeqNo": 27, "Terminal": 0, "DistrictId": 1, "Latitude": 22.527294, "Longitude": 120.341041, "IVRNo": 2429, "EXTVoiceNo": 2469, "traveltime": 0, "holidayTraveltime": 0}, {"Id": "2470", "pgp": 0, "GoBack": 1, "SID": 1672, "NameZh": "\u9cf3\u6797\u570b\u5c0f(\u9cf3\u6797\u8def)", "RouteId": 1792, "SeqNo": 28, "Terminal": 0, "DistrictId": 1, "Latitude": 22.52666, "Longitude": 120.342393, "IVRNo": 2428, "EXTVoiceNo": 2470, "traveltime": 0, "holidayTraveltime": 0}, {"Id": "2470", "pgp": 0, "GoBack": 1, "SID": 1742, "NameZh": "\u9cf3\u6797\u570b\u5c0f(\u9cf3\u897f\u8857)", "RouteId": 1792, "SeqNo": 29, "Terminal": 0, "DistrictId": 1, "Latitude": 22.525718, "Longitude": 120.343637, "IVRNo": 1268, "EXTVoiceNo": 2470, "traveltime": 0, "holidayTraveltime": 0}, {"Id": "2529", "pgp": 0, "GoBack": 1, "SID": 1743, "NameZh": "\u9cf3\u897f\u8857", "RouteId": 1792, "SeqNo": 30, "Terminal": 0, "DistrictId": 1, "Latitude": 22.524177, "Longitude": 120.345249, "IVRNo": 2426, "EXTVoiceNo": 2529, "traveltime": 0, "holidayTraveltime": 0}, {"Id": "2562", "pgp": 0, "GoBack": 1, "SID": 1750, "NameZh": "\u9f8d\u9cf3\u8def", "RouteId": 1792, "SeqNo": 31, "Terminal": 0, "DistrictId": 1, "Latitude": 22.522728, "Longitude": 120.347737, "IVRNo": 2530, "EXTVoiceNo": 2562, "traveltime": 0, "holidayTraveltime": 0}, {"Id": "2375", "pgp": 0, "GoBack": 1, "SID": 1581, "NameZh": "\u9cf3\u6797\u570b\u4e2d", "RouteId": 1792, "SeqNo": 32, "Terminal": 0, "DistrictId": 1, "Latitude": 22.52161, "Longitude": 120.34883, "IVRNo": 2375, "EXTVoiceNo": 2375, "traveltime": 0, "holidayTraveltime": 0}, {"Id": "2531", "pgp": 0, "GoBack": 1, "SID": 1752, "NameZh": "\u9f8d\u9cf3\u516c\u5712", "RouteId": 1792, "SeqNo": 33, "Terminal": 0, "DistrictId": 1, "Latitude": 22.517285, "Longitude": 120.353209, "IVRNo": 2531, "EXTVoiceNo": 2531, "traveltime": 0, "holidayTraveltime": 0}, {"Id": "2532", "pgp": 0, "GoBack": 1, "SID": 1753, "NameZh": "\u5c90\u5c71\u4e00\u8def\u53e3", "RouteId": 1792, "SeqNo": 34, "Terminal": 0, "DistrictId": 1, "Latitude": 22.516183, "Longitude": 120.354322, "IVRNo": 2532, "EXTVoiceNo": 2532, "traveltime": 0, "holidayTraveltime": 0}, {"Id": "2533", "pgp": 0, "GoBack": 1, "SID": 1756, "NameZh": "\u9f8d\u8208\u8def", "RouteId": 1792, "SeqNo": 35, "Terminal": 0, "DistrictId": 1, "Latitude": 22.51493, "Longitude": 120.356053, "IVRNo": 2533, "EXTVoiceNo": 2533, "traveltime": 0, "holidayTraveltime": 0}, {"Id": "2534", "pgp": 0, "GoBack": 1, "SID": 1758, "NameZh": "\u9cf3\u9cf4\u570b\u5c0f", "RouteId": 1792, "SeqNo": 36, "Terminal": 0, "DistrictId": 1, "Latitude": 22.515136, "Longitude": 120.357783, "IVRNo": 2534, "EXTVoiceNo": 2534, "traveltime": 0, "holidayTraveltime": 0}, {"Id": "2535", "pgp": 0, "GoBack": 1, "SID": 1760, "NameZh": "\u9cf3\u9cf4\u91cc", "RouteId": 1792, "SeqNo": 37, "Terminal": 0, "DistrictId": 1, "Latitude": 22.513716, "Longitude": 120.359233, "IVRNo": 2535, "EXTVoiceNo": 2535, "traveltime": 0, "holidayTraveltime": 0}, {"Id": "2536", "pgp": 0, "GoBack": 1, "SID": 1761, "NameZh": "\u9cf3\u9f3b\u982d(\u9cf3\u9cf4\u8def)", "RouteId": 1792, "SeqNo": 38, "Terminal": 0, "DistrictId": 1, "Latitude": 22.511862, "Longitude": 120.361079, "IVRNo": 2377, "EXTVoiceNo": 2536, "traveltime": 0, "holidayTraveltime": 0}, {"Id": "2537", "pgp": 0, "GoBack": 1, "SID": 8796, "NameZh": "\u9cf3\u9f3b\u982d\u6e2f", "RouteId": 1792, "SeqNo": 39, "Terminal": 1, "DistrictId": 1, "Latitude": 22.509598, "Longitude": 120.360337, "IVRNo": 2537, "EXTVoiceNo": 2537, "traveltime": 0, "holidayTraveltime": 0}, {"Id": "2537", "pgp": 0, "GoBack": 2, "SID": 1762, "NameZh": "\u9cf3\u9f3b\u982d\u6e2f", "RouteId": 1792, "SeqNo": 1, "Terminal": 0, "DistrictId": 1, "Latitude": 22.509845, "Longitude": 120.361623, "IVRNo": 2537, "EXTVoiceNo": 2537, "traveltime": 0, "holidayTraveltime": 0}, {"Id": "2536", "pgp": 0, "GoBack": 2, "SID": 1763, "NameZh": "\u9cf3\u9f3b\u982d(\u9cf3\u9cf4\u8def)", "RouteId": 1792, "SeqNo": 2, "Terminal": 0, "DistrictId": 1, "Latitude": 22.511397, "Longitude": 120.361701, "IVRNo": 2377, "EXTVoiceNo": 2536, "traveltime": 0, "holidayTraveltime": 0}, {"Id": "2535", "pgp": 0, "GoBack": 2, "SID": 1764, "NameZh": "\u9cf3\u9cf4\u91cc", "RouteId": 1792, "SeqNo": 3, "Terminal": 0, "DistrictId": 1, "Latitude": 22.513722, "Longitude": 120.359342, "IVRNo": 2535, "EXTVoiceNo": 2535, "traveltime": 0, "holidayTraveltime": 0}, {"Id": "2534", "pgp": 0, "GoBack": 2, "SID": 1774, "NameZh": "\u9cf3\u9cf4\u570b\u5c0f", "RouteId": 1792, "SeqNo": 4, "Terminal": 0, "DistrictId": 1, "Latitude": 22.515283, "Longitude": 120.357783, "IVRNo": 2534, "EXTVoiceNo": 2534, "traveltime": 0, "holidayTraveltime": 0}, {"Id": "2541", "pgp": 0, "GoBack": 2, "SID": 1775, "NameZh": "\u90a6\u5751", "RouteId": 1792, "SeqNo": 5, "Terminal": 0, "DistrictId": 1, "Latitude": 22.517303, "Longitude": 120.355822, "IVRNo": 2541, "EXTVoiceNo": 2541, "traveltime": 0, "holidayTraveltime": 0}, {"Id": "2560", "pgp": 0, "GoBack": 2, "SID": 1796, "NameZh": "\u6b67\u5c71\u4e8c\u8def", "RouteId": 1792, "SeqNo": 6, "Terminal": 0, "DistrictId": 1, "Latitude": 22.517858, "Longitude": 120.354336, "IVRNo": 2560, "EXTVoiceNo": 2560, "traveltime": 0, "holidayTraveltime": 0}, {"Id": "2531", "pgp": 0, "GoBack": 2, "SID": 1797, "NameZh": "\u9f8d\u9cf3\u516c\u5712", "RouteId": 1792, "SeqNo": 7, "Terminal": 0, "DistrictId": 1, "Latitude": 22.517457, "Longitude": 120.35316, "IVRNo": 2531, "EXTVoiceNo": 2531, "traveltime": 0, "holidayTraveltime": 0}, {"Id": "2375", "pgp": 0, "GoBack": 2, "SID": 1583, "NameZh": "\u9cf3\u6797\u570b\u4e2d", "RouteId": 1792, "SeqNo": 8, "Terminal": 0, "DistrictId": 1, "Latitude": 22.52163, "Longitude": 120.34893, "IVRNo": 2375, "EXTVoiceNo": 2375, "traveltime": 0, "holidayTraveltime": 0}, {"Id": "2562", "pgp": 0, "GoBack": 2, "SID": 1799, "NameZh": "\u9f8d\u9cf3\u8def", "RouteId": 1792, "SeqNo": 9, "Terminal": 0, "DistrictId": 1, "Latitude": 22.522756, "Longitude": 120.347786, "IVRNo": 2530, "EXTVoiceNo": 2562, "traveltime": 0, "holidayTraveltime": 0}, {"Id": "6049", "pgp": 0, "GoBack": 2, "SID": 4493, "NameZh": "\u9cf3\u83ef\u8def", "RouteId": 1792, "SeqNo": 10, "Terminal": 0, "DistrictId": 1, "Latitude": 22.523908, "Longitude": 120.348628, "IVRNo": 2425, "EXTVoiceNo": 6049, "traveltime": 0, "holidayTraveltime": 0}, {"Id": "2544", "pgp": 0, "GoBack": 2, "SID": 1777, "NameZh": "\u9cf3\u6797\u8def", "RouteId": 1792, "SeqNo": 11, "Terminal": 0, "DistrictId": 1, "Latitude": 22.525195, "Longitude": 120.347632, "IVRNo": 2424, "EXTVoiceNo": 2544, "traveltime": 0, "holidayTraveltime": 0}, {"Id": "2545", "pgp": 0, "GoBack": 2, "SID": 1780, "NameZh": "\u5927\u6797\u6d66", "RouteId": 1792, "SeqNo": 12, "Terminal": 0, "DistrictId": 1, "Latitude": 22.526616, "Longitude": 120.346283, "IVRNo": 2423, "EXTVoiceNo": 2545, "traveltime": 0, "holidayTraveltime": 0}, {"Id": "2546", "pgp": 0, "GoBack": 2, "SID": 1781, "NameZh": "\u9cf3\u6797\u5bae", "RouteId": 1792, "SeqNo": 13, "Terminal": 0, "DistrictId": 1, "Latitude": 22.527383, "Longitude": 120.344589, "IVRNo": 56, "EXTVoiceNo": 2546, "traveltime": 0, "holidayTraveltime": 0}, {"Id": "2470", "pgp": 0, "GoBack": 2, "SID": 1648, "NameZh": "\u9cf3\u6797\u570b\u5c0f(\u9cf3\u6797\u8def)", "RouteId": 1792, "SeqNo": 14, "Terminal": 0, "DistrictId": 1, "Latitude": 22.52666, "Longitude": 120.342393, "IVRNo": 2428, "EXTVoiceNo": 2470, "traveltime": 0, "holidayTraveltime": 0}, {"Id": "2469", "pgp": 0, "GoBack": 2, "SID": 1651, "NameZh": "\u9cf3\u5317\u8def\u53e3", "RouteId": 1792, "SeqNo": 15, "Terminal": 0, "DistrictId": 1, "Latitude": 22.527078, "Longitude": 120.341237, "IVRNo": 2429, "EXTVoiceNo": 2469, "traveltime": 0, "holidayTraveltime": 0}, {"Id": "2525", "pgp": 0, "GoBack": 2, "SID": 1782, "NameZh": "\u89c0\u97f3\u5bfa", "RouteId": 1792, "SeqNo": 16, "Terminal": 0, "DistrictId": 1, "Latitude": 22.528253, "Longitude": 120.341087, "IVRNo": 2525, "EXTVoiceNo": 2525, "traveltime": 0, "holidayTraveltime": 0}, {"Id": "2524", "pgp": 0, "GoBack": 2, "SID": 1787, "NameZh": "\u9cf3\u5317\u8def", "RouteId": 1792, "SeqNo": 17, "Terminal": 0, "DistrictId": 1, "Latitude": 22.528341, "Longitude": 120.343831, "IVRNo": 2524, "EXTVoiceNo": 2524, "traveltime": 0, "holidayTraveltime": 0}, {"Id": "2523", "pgp": 0, "GoBack": 2, "SID": 1788, "NameZh": "\u5927\u6797\u6d66\u7149\u6cb9\u5ee0", "RouteId": 1792, "SeqNo": 18, "Terminal": 0, "DistrictId": 1, "Latitude": 22.529156, "Longitude": 120.346447, "IVRNo": 2523, "EXTVoiceNo": 2523, "traveltime": 0, "holidayTraveltime": 0}, {"Id": "2522", "pgp": 0, "GoBack": 2, "SID": 1789, "NameZh": "\u4e2d\u5fc3\u8def\u53e3", "RouteId": 1792, "SeqNo": 19, "Terminal": 0, "DistrictId": 1, "Latitude": 22.526411, "Longitude": 120.349001, "IVRNo": 2522, "EXTVoiceNo": 2522, "traveltime": 0, "holidayTraveltime": 0}, {"Id": "2420", "pgp": 0, "GoBack": 2, "SID": 1676, "NameZh": "\u4e2d\u5229\u8def\u53e3", "RouteId": 1792, "SeqNo": 20, "Terminal": 0, "DistrictId": 1, "Latitude": 22.530067, "Longitude": 120.357609, "IVRNo": 2420, "EXTVoiceNo": 2420, "traveltime": 0, "holidayTraveltime": 0}, {"Id": "2419", "pgp": 0, "GoBack": 2, "SID": 1680, "NameZh": "\u4e2d\u667a\u8def\u53e3", "RouteId": 1792, "SeqNo": 21, "Terminal": 0, "DistrictId": 1, "Latitude": 22.53317, "Longitude": 120.361636, "IVRNo": 2419, "EXTVoiceNo": 2419, "traveltime": 0, "holidayTraveltime": 0}, {"Id": "2418", "pgp": 0, "GoBack": 2, "SID": 1816, "NameZh": "\u4e2d\u5316\u5c0f\u6e2f\u5ee0", "RouteId": 1792, "SeqNo": 22, "Terminal": 0, "DistrictId": 1, "Latitude": 22.534737, "Longitude": 120.363706, "IVRNo": 2418, "EXTVoiceNo": 2418, "traveltime": 0, "holidayTraveltime": 0}, {"Id": "2417", "pgp": 0, "GoBack": 2, "SID": 1819, "NameZh": "\u4e2d\u6797\u8def", "RouteId": 1792, "SeqNo": 23, "Terminal": 0, "DistrictId": 1, "Latitude": 22.5366, "Longitude": 120.366147, "IVRNo": 2417, "EXTVoiceNo": 2417, "traveltime": 0, "holidayTraveltime": 0}, {"Id": "2416", "pgp": 0, "GoBack": 2, "SID": 1820, "NameZh": "\u8077\u8a13\u4e2d\u5fc3(\u4e2d\u6797\u8def)", "RouteId": 1792, "SeqNo": 24, "Terminal": 0, "DistrictId": 1, "Latitude": 22.538628, "Longitude": 120.368814, "IVRNo": 2416, "EXTVoiceNo": 2416, "traveltime": 0, "holidayTraveltime": 0}, {"Id": "2415", "pgp": 0, "GoBack": 2, "SID": 1687, "NameZh": "\u6cbf\u6d77\u8def\u53e3", "RouteId": 1792, "SeqNo": 25, "Terminal": 0, "DistrictId": 1, "Latitude": 22.540167, "Longitude": 120.370877, "IVRNo": 2415, "EXTVoiceNo": 2415, "traveltime": 0, "holidayTraveltime": 0}, {"Id": "6028", "pgp": 0, "GoBack": 2, "SID": 4485, "NameZh": "\u6377\u904b\u5c0f\u6e2f\u7ad9", "RouteId": 1792, "SeqNo": 26, "Terminal": 0, "DistrictId": 1, "Latitude": 22.564664, "Longitude": 120.354048, "IVRNo": 2040, "EXTVoiceNo": 6028, "traveltime": 0, "holidayTraveltime": 0}, {"Id": "2339", "pgp": 0, "GoBack": 2, "SID": 1535, "NameZh": "\u4e8c\u82d3\u570b\u5c0f(\u6377\u904b\u5c0f\u6e2f\u7ad9)", "RouteId": 1792, "SeqNo": 27, "Terminal": 0, "DistrictId": 1, "Latitude": 22.565746, "Longitude": 120.351639, "IVRNo": 2339, "EXTVoiceNo": 2339, "traveltime": 0, "holidayTraveltime": 0}, {"Id": "2504", "pgp": 0, "GoBack": 2, "SID": 1802, "NameZh": "\u5e97\u5317\u8def\u53e3", "RouteId": 1792, "SeqNo": 28, "Terminal": 0, "DistrictId": 1, "Latitude": 22.563667, "Longitude": 120.350187, "IVRNo": 2505, "EXTVoiceNo": 2504, "traveltime": 0, "holidayTraveltime": 0}, {"Id": "2570", "pgp": 0, "GoBack": 2, "SID": 1805, "NameZh": "\u5927\u696d\u5317\u8def", "RouteId": 1792, "SeqNo": 29, "Terminal": 0, "DistrictId": 1, "Latitude": 22.563259, "Longitude": 120.348028, "IVRNo": 2504, "EXTVoiceNo": 2570, "traveltime": 0, "holidayTraveltime": 0}, {"Id": "2303", "pgp": 0, "GoBack": 2, "SID": 1810, "NameZh": "\u4e8c\u82d3(\u5927\u696d\u5317\u8def)", "RouteId": 1792, "SeqNo": 30, "Terminal": 0, "DistrictId": 1, "Latitude": 22.565023, "Longitude": 120.346583, "IVRNo": 2052, "EXTVoiceNo": 2303, "traveltime": 0, "holidayTraveltime": 0}, {"Id": "2002", "pgp": 0, "GoBack": 2, "SID": 1014, "NameZh": "\u5c0f\u6e2f\u5206\u5c40", "RouteId": 1792, "SeqNo": 31, "Terminal": 0, "DistrictId": 1, "Latitude": 22.565733, "Longitude": 120.34431, "IVRNo": 2002, "EXTVoiceNo": 2002, "traveltime": 0, "holidayTraveltime": 0}, {"Id": "2001", "pgp": 0, "GoBack": 2, "SID": 953, "NameZh": "\u5c0f\u6e2f\u7ad9", "RouteId": 1792, "SeqNo": 32, "Terminal": 1, "DistrictId": 1, "Latitude": 22.565399, "Longitude": 120.34125, "IVRNo": 2000, "EXTVoiceNo": 2001, "traveltime": 0, "holidayTraveltime": 0}]}