{"en": [{"Id": "0002", "pgp": 0, "GoBack": 1, "SID": 16, "NameZh": "Jianjun Station (MRT Weiwuying Station)", "RouteId": 160, "SeqNo": 1, "Terminal": 0, "DistrictId": 1, "Latitude": 22.624975, "Longitude": 120.343796, "IVRNo": 1, "EXTVoiceNo": 2, "traveltime": 0, "holidayTraveltime": 0}, {"Id": "0980", "pgp": 0, "GoBack": 1, "SID": 982, "NameZh": "Kaohsiung Armed Forces General Hospital", "RouteId": 160, "SeqNo": 2, "Terminal": 0, "DistrictId": 1, "Latitude": 22.6263, "Longitude": 120.3423, "IVRNo": 2, "EXTVoiceNo": 20980, "traveltime": 0, "holidayTraveltime": 0}, {"Id": "3528", "pgp": 0, "GoBack": 1, "SID": 3602, "NameZh": "Fongshan Administration Center (Jhongshan W. Rd.)", "RouteId": 160, "SeqNo": 3, "Terminal": 0, "DistrictId": 1, "Latitude": 22.6281, "Longitude": 120.3437, "IVRNo": 502, "EXTVoiceNo": 13528, "traveltime": 0, "holidayTraveltime": 0}, {"Id": "2498", "pgp": 0, "GoBack": 1, "SID": 19017, "NameZh": "Fongshan Administration Center (Chengcing Rd.)", "RouteId": 160, "SeqNo": 4, "Terminal": 0, "DistrictId": 1, "Latitude": 22.63043, "Longitude": 120.344552, "IVRNo": 2498, "EXTVoiceNo": 2498, "traveltime": 0, "holidayTraveltime": 0}, {"Id": "8935", "pgp": 0, "GoBack": 1, "SID": 6026, "NameZh": "Wunhua Elementary School", "RouteId": 160, "SeqNo": 5, "Terminal": 0, "DistrictId": 1, "Latitude": 22.634293, "Longitude": 120.35251, "IVRNo": 9398, "EXTVoiceNo": 8935, "traveltime": 0, "holidayTraveltime": 0}, {"Id": "9009", "pgp": 0, "GoBack": 1, "SID": 10680, "NameZh": "RT-MART", "RouteId": 160, "SeqNo": 6, "Terminal": 0, "DistrictId": 1, "Latitude": 22.633748, "Longitude": 120.355589, "IVRNo": 9515, "EXTVoiceNo": 9009, "traveltime": 0, "holidayTraveltime": 0}, {"Id": "8936", "pgp": 0, "GoBack": 1, "SID": 6027, "NameZh": "National Feng-Shan Commercial & Industrial Vocational School", "RouteId": 160, "SeqNo": 7, "Terminal": 0, "DistrictId": 1, "Latitude": 22.6338, "Longitude": 120.3582, "IVRNo": 148, "EXTVoiceNo": 8936, "traveltime": 0, "holidayTraveltime": 0}, {"Id": "9004", "pgp": 0, "GoBack": 1, "SID": 11365, "NameZh": "Jianguo Rd. New City (Wunheng Rd. Intersection)", "RouteId": 160, "SeqNo": 8, "Terminal": 0, "DistrictId": 1, "Latitude": 22.636, "Longitude": 120.3583, "IVRNo": 9516, "EXTVoiceNo": 9004, "traveltime": 0, "holidayTraveltime": 0}, {"Id": "9003", "pgp": 0, "GoBack": 1, "SID": 10682, "NameZh": "Bade Rd.", "RouteId": 160, "SeqNo": 9, "Terminal": 0, "DistrictId": 1, "Latitude": 22.6383, "Longitude": 120.3593, "IVRNo": 9517, "EXTVoiceNo": 9003, "traveltime": 0, "holidayTraveltime": 0}, {"Id": "9010", "pgp": 0, "GoBack": 1, "SID": 10683, "NameZh": "Wunshan Lane", "RouteId": 160, "SeqNo": 10, "Terminal": 0, "DistrictId": 1, "Latitude": 22.63989, "Longitude": 120.356195, "IVRNo": 9518, "EXTVoiceNo": 9010, "traveltime": 0, "holidayTraveltime": 0}, {"Id": "8956", "pgp": 0, "GoBack": 1, "SID": 6028, "NameZh": "Wunde Elementary School", "RouteId": 160, "SeqNo": 11, "Terminal": 0, "DistrictId": 1, "Latitude": 22.6403, "Longitude": 120.3537, "IVRNo": 9400, "EXTVoiceNo": 8956, "traveltime": 0, "holidayTraveltime": 0}, {"Id": "8937", "pgp": 0, "GoBack": 1, "SID": 6029, "NameZh": "Wunheng Rd. Intersection", "RouteId": 160, "SeqNo": 12, "Terminal": 0, "DistrictId": 1, "Latitude": 22.6411, "Longitude": 120.3512, "IVRNo": 451, "EXTVoiceNo": 8937, "traveltime": 0, "holidayTraveltime": 0}, {"Id": "8938", "pgp": 0, "GoBack": 1, "SID": 6030, "NameZh": "Binshan St. Intersection", "RouteId": 160, "SeqNo": 13, "Terminal": 0, "DistrictId": 1, "Latitude": 22.645076, "Longitude": 120.350161, "IVRNo": 9402, "EXTVoiceNo": 8938, "traveltime": 0, "holidayTraveltime": 0}, {"Id": "8939", "pgp": 0, "GoBack": 1, "SID": 6031, "NameZh": "Chengyuan", "RouteId": 160, "SeqNo": 14, "Terminal": 0, "DistrictId": 1, "Latitude": 22.647472, "Longitude": 120.347189, "IVRNo": 9403, "EXTVoiceNo": 8939, "traveltime": 0, "holidayTraveltime": 0}, {"Id": "0636", "pgp": 0, "GoBack": 1, "SID": 2519, "NameZh": "Cheng Shiu University (Chengcing Lake)", "RouteId": 160, "SeqNo": 15, "Terminal": 0, "DistrictId": 1, "Latitude": 22.6512, "Longitude": 120.3489, "IVRNo": 3533, "EXTVoiceNo": 10636, "traveltime": 0, "holidayTraveltime": 0}, {"Id": "3546", "pgp": 0, "GoBack": 1, "SID": 2588, "NameZh": "Chang Gung Rehabilitation buil Ding", "RouteId": 160, "SeqNo": 16, "Terminal": 0, "DistrictId": 1, "Latitude": 22.6505, "Longitude": 120.3531, "IVRNo": 3546, "EXTVoiceNo": 3546, "traveltime": 0, "holidayTraveltime": 0}, {"Id": "3534", "pgp": 0, "GoBack": 1, "SID": 2552, "NameZh": "Chang Gung Memorial Hospital", "RouteId": 160, "SeqNo": 17, "Terminal": 0, "DistrictId": 1, "Latitude": 22.6508, "Longitude": 120.3566, "IVRNo": 3534, "EXTVoiceNo": 3534, "traveltime": 0, "holidayTraveltime": 0}, {"Id": "8941", "pgp": 0, "GoBack": 1, "SID": 6039, "NameZh": "The Labor Recreation Center", "RouteId": 160, "SeqNo": 18, "Terminal": 0, "DistrictId": 1, "Latitude": 22.652948, "Longitude": 120.35972, "IVRNo": 9411, "EXTVoiceNo": 8941, "traveltime": 0, "holidayTraveltime": 0}, {"Id": "1912", "pgp": 0, "GoBack": 1, "SID": 2535, "NameZh": "Chengcing Lake Baseball Field", "RouteId": 160, "SeqNo": 19, "Terminal": 0, "DistrictId": 1, "Latitude": 22.6555, "Longitude": 120.3599, "IVRNo": 11912, "EXTVoiceNo": 11912, "traveltime": 0, "holidayTraveltime": 0}, {"Id": "7705", "pgp": 0, "GoBack": 1, "SID": 2536, "NameZh": "Jhongcheng Rd. Intersection", "RouteId": 160, "SeqNo": 20, "Terminal": 0, "DistrictId": 1, "Latitude": 22.6582, "Longitude": 120.361, "IVRNo": 864, "EXTVoiceNo": 7705, "traveltime": 0, "holidayTraveltime": 0}, {"Id": "4332", "pgp": 0, "GoBack": 1, "SID": 5995, "NameZh": "Niaosong District Office (Shennong Rd.)", "RouteId": 160, "SeqNo": 21, "Terminal": 0, "DistrictId": 1, "Latitude": 22.659086, "Longitude": 120.36487, "IVRNo": 9367, "EXTVoiceNo": 14332, "traveltime": 0, "holidayTraveltime": 0}, {"Id": "0243", "pgp": 0, "GoBack": 1, "SID": 12113, "NameZh": "Shueiguan Rd. Intersection (Shennong Rd.)", "RouteId": 160, "SeqNo": 22, "Terminal": 0, "DistrictId": 1, "Latitude": 22.659406, "Longitude": 120.37306, "IVRNo": 1238, "EXTVoiceNo": 20243, "traveltime": 0, "holidayTraveltime": 0}, {"Id": "2632", "pgp": 0, "GoBack": 1, "SID": 10684, "NameZh": "Songbu Rd. Intersection (Yuanjhao Temple)", "RouteId": 160, "SeqNo": 23, "Terminal": 0, "DistrictId": 1, "Latitude": 22.6593, "Longitude": 120.3802, "IVRNo": 5690, "EXTVoiceNo": 2632, "traveltime": 0, "holidayTraveltime": 0}, {"Id": "8942", "pgp": 0, "GoBack": 1, "SID": 6144, "NameZh": "Dipu", "RouteId": 160, "SeqNo": 24, "Terminal": 0, "DistrictId": 1, "Latitude": 22.6582, "Longitude": 120.3849, "IVRNo": 9368, "EXTVoiceNo": 8942, "traveltime": 0, "holidayTraveltime": 0}, {"Id": "9020", "pgp": 0, "GoBack": 1, "SID": 10726, "NameZh": "Gaoma", "RouteId": 160, "SeqNo": 25, "Terminal": 0, "DistrictId": 1, "Latitude": 22.658146, "Longitude": 120.389149, "IVRNo": 9538, "EXTVoiceNo": 9020, "traveltime": 0, "holidayTraveltime": 0}, {"Id": "8943", "pgp": 0, "GoBack": 1, "SID": 5997, "NameZh": "Renmei Elementary School", "RouteId": 160, "SeqNo": 26, "Terminal": 0, "DistrictId": 1, "Latitude": 22.65827, "Longitude": 120.393076, "IVRNo": 9369, "EXTVoiceNo": 8943, "traveltime": 0, "holidayTraveltime": 0}, {"Id": "8944", "pgp": 0, "GoBack": 1, "SID": 5998, "NameZh": "Shueimei Gas Station", "RouteId": 160, "SeqNo": 27, "Terminal": 0, "DistrictId": 1, "Latitude": 22.658265, "Longitude": 120.399513, "IVRNo": 9370, "EXTVoiceNo": 8944, "traveltime": 0, "holidayTraveltime": 0}, {"Id": "9209", "pgp": 0, "GoBack": 1, "SID": 10686, "NameZh": "Shueiliao Jhonghua Rd.", "RouteId": 160, "SeqNo": 28, "Terminal": 0, "DistrictId": 1, "Latitude": 22.663363, "Longitude": 120.40444, "IVRNo": 9760, "EXTVoiceNo": 9209, "traveltime": 0, "holidayTraveltime": 0}, {"Id": "8945", "pgp": 0, "GoBack": 1, "SID": 5999, "NameZh": "Shueiliao Elementary School", "RouteId": 160, "SeqNo": 29, "Terminal": 0, "DistrictId": 1, "Latitude": 22.666957, "Longitude": 120.407689, "IVRNo": 9371, "EXTVoiceNo": 8945, "traveltime": 0, "holidayTraveltime": 0}, {"Id": "8946", "pgp": 0, "GoBack": 1, "SID": 6000, "NameZh": "Shueiliao Jhongshan Rd.", "RouteId": 160, "SeqNo": 30, "Terminal": 0, "DistrictId": 1, "Latitude": 22.667165, "Longitude": 120.409116, "IVRNo": 9372, "EXTVoiceNo": 8946, "traveltime": 0, "holidayTraveltime": 0}, {"Id": "8947", "pgp": 0, "GoBack": 1, "SID": 6001, "NameZh": "Shueiliao", "RouteId": 160, "SeqNo": 31, "Terminal": 0, "DistrictId": 1, "Latitude": 22.6655, "Longitude": 120.4095, "IVRNo": 9373, "EXTVoiceNo": 8947, "traveltime": 0, "holidayTraveltime": 0}, {"Id": "8948", "pgp": 0, "GoBack": 1, "SID": 6002, "NameZh": "Shueian Village", "RouteId": 160, "SeqNo": 32, "Terminal": 0, "DistrictId": 1, "Latitude": 22.6627, "Longitude": 120.4109, "IVRNo": 9374, "EXTVoiceNo": 8948, "traveltime": 0, "holidayTraveltime": 0}, {"Id": "8949", "pgp": 0, "GoBack": 1, "SID": 6003, "NameZh": "Hudi Bridge (Dashu)", "RouteId": 160, "SeqNo": 33, "Terminal": 0, "DistrictId": 1, "Latitude": 22.658502, "Longitude": 120.415242, "IVRNo": 9375, "EXTVoiceNo": 8949, "traveltime": 0, "holidayTraveltime": 0}, {"Id": "8950", "pgp": 0, "GoBack": 1, "SID": 6004, "NameZh": "Jioutang Village (Jioucyutang Train Station)", "RouteId": 160, "SeqNo": 34, "Terminal": 0, "DistrictId": 1, "Latitude": 22.6573, "Longitude": 120.4174, "IVRNo": 9387, "EXTVoiceNo": 8950, "traveltime": 0, "holidayTraveltime": 0}, {"Id": "8951", "pgp": 0, "GoBack": 1, "SID": 6005, "NameZh": "Jioucyu Village", "RouteId": 160, "SeqNo": 35, "Terminal": 0, "DistrictId": 1, "Latitude": 22.6484, "Longitude": 120.4213, "IVRNo": 9377, "EXTVoiceNo": 8951, "traveltime": 0, "holidayTraveltime": 0}, {"Id": "8952", "pgp": 0, "GoBack": 1, "SID": 6006, "NameZh": "Jhuangnei (Jioucyu Beiji Temple)", "RouteId": 160, "SeqNo": 36, "Terminal": 0, "DistrictId": 1, "Latitude": 22.6508, "Longitude": 120.4225, "IVRNo": 9378, "EXTVoiceNo": 8952, "traveltime": 0, "holidayTraveltime": 0}, {"Id": "8953", "pgp": 0, "GoBack": 1, "SID": 10713, "NameZh": "Jioucyu Rd. Intersection", "RouteId": 160, "SeqNo": 37, "Terminal": 0, "DistrictId": 1, "Latitude": 22.655225, "Longitude": 120.423245, "IVRNo": 9761, "EXTVoiceNo": 8953, "traveltime": 0, "holidayTraveltime": 0}, {"Id": "9210", "pgp": 0, "GoBack": 1, "SID": 6007, "NameZh": "Dashu Junior High School", "RouteId": 160, "SeqNo": 38, "Terminal": 0, "DistrictId": 1, "Latitude": 22.656415, "Longitude": 120.422728, "IVRNo": 8913, "EXTVoiceNo": 9210, "traveltime": 0, "holidayTraveltime": 0}, {"Id": "8954", "pgp": 0, "GoBack": 1, "SID": 6008, "NameZh": "Jiouda Gas Station", "RouteId": 160, "SeqNo": 39, "Terminal": 0, "DistrictId": 1, "Latitude": 22.658789, "Longitude": 120.425413, "IVRNo": 9380, "EXTVoiceNo": 8954, "traveltime": 0, "holidayTraveltime": 0}, {"Id": "9303", "pgp": 0, "GoBack": 1, "SID": 10688, "NameZh": "Nongyou Jhongmiao", "RouteId": 160, "SeqNo": 40, "Terminal": 0, "DistrictId": 1, "Latitude": 22.659522, "Longitude": 120.425574, "IVRNo": 9925, "EXTVoiceNo": 9303, "traveltime": 0, "holidayTraveltime": 0}, {"Id": "8955", "pgp": 0, "GoBack": 1, "SID": 6009, "NameZh": "Old Railroad Bridge Wetland (San-He Tile Kiln)", "RouteId": 160, "SeqNo": 41, "Terminal": 0, "DistrictId": 1, "Latitude": 22.662047, "Longitude": 120.426539, "IVRNo": 9381, "EXTVoiceNo": 8955, "traveltime": 0, "holidayTraveltime": 0}, {"Id": "9302", "pgp": 0, "GoBack": 1, "SID": 12710, "NameZh": "Jhuliaoshan Tourist Winery", "RouteId": 160, "SeqNo": 42, "Terminal": 0, "DistrictId": 1, "Latitude": 22.668205, "Longitude": 120.426121, "IVRNo": 9926, "EXTVoiceNo": 9302, "traveltime": 0, "holidayTraveltime": 0}, {"Id": "9211", "pgp": 0, "GoBack": 1, "SID": 10709, "NameZh": "Syongshi Dadi", "RouteId": 160, "SeqNo": 43, "Terminal": 0, "DistrictId": 1, "Latitude": 22.669501, "Longitude": 120.426207, "IVRNo": 9763, "EXTVoiceNo": 9211, "traveltime": 0, "holidayTraveltime": 0}, {"Id": "9212", "pgp": 0, "GoBack": 1, "SID": 10691, "NameZh": "Jhuliao", "RouteId": 160, "SeqNo": 44, "Terminal": 0, "DistrictId": 1, "Latitude": 22.671769, "Longitude": 120.426142, "IVRNo": 9764, "EXTVoiceNo": 9212, "traveltime": 0, "holidayTraveltime": 0}, {"Id": "9213", "pgp": 0, "GoBack": 1, "SID": 10692, "NameZh": "Lyuyang Villa", "RouteId": 160, "SeqNo": 45, "Terminal": 0, "DistrictId": 1, "Latitude": 22.673847, "Longitude": 120.426013, "IVRNo": 9765, "EXTVoiceNo": 9213, "traveltime": 0, "holidayTraveltime": 0}, {"Id": "9214", "pgp": 0, "GoBack": 1, "SID": 10693, "NameZh": "Gongguan (Dashu)", "RouteId": 160, "SeqNo": 46, "Terminal": 0, "DistrictId": 1, "Latitude": 22.676976, "Longitude": 120.42538, "IVRNo": 1176, "EXTVoiceNo": 9214, "traveltime": 0, "holidayTraveltime": 0}, {"Id": "1001", "pgp": 0, "GoBack": 1, "SID": 10694, "NameZh": "Barracks (Dashu)", "RouteId": 160, "SeqNo": 47, "Terminal": 0, "DistrictId": 1, "Latitude": 22.679609, "Longitude": 120.425971, "IVRNo": 1001, "EXTVoiceNo": 1001, "traveltime": 0, "holidayTraveltime": 0}, {"Id": "9215", "pgp": 0, "GoBack": 1, "SID": 10695, "NameZh": "Sinjijhuang", "RouteId": 160, "SeqNo": 48, "Terminal": 0, "DistrictId": 1, "Latitude": 22.68637, "Longitude": 120.430198, "IVRNo": 9768, "EXTVoiceNo": 9215, "traveltime": 0, "holidayTraveltime": 0}, {"Id": "9216", "pgp": 0, "GoBack": 1, "SID": 10703, "NameZh": "Shihjian St.", "RouteId": 160, "SeqNo": 49, "Terminal": 0, "DistrictId": 1, "Latitude": 22.688775, "Longitude": 120.430938, "IVRNo": 9769, "EXTVoiceNo": 9216, "traveltime": 0, "holidayTraveltime": 0}, {"Id": "9217", "pgp": 0, "GoBack": 1, "SID": 10702, "NameZh": "Dashu Farmer`s Association", "RouteId": 160, "SeqNo": 50, "Terminal": 0, "DistrictId": 1, "Latitude": 22.690626, "Longitude": 120.432, "IVRNo": 9770, "EXTVoiceNo": 9217, "traveltime": 0, "holidayTraveltime": 0}, {"Id": "9218", "pgp": 0, "GoBack": 1, "SID": 15584, "NameZh": "Dashu District Office", "RouteId": 160, "SeqNo": 51, "Terminal": 1, "DistrictId": 1, "Latitude": 22.69317, "Longitude": 120.432944, "IVRNo": 9774, "EXTVoiceNo": 9218, "traveltime": 0, "holidayTraveltime": 0}, {"Id": "9218", "pgp": 0, "GoBack": 2, "SID": 10738, "NameZh": "Dashu District Office", "RouteId": 160, "SeqNo": 1, "Terminal": 0, "DistrictId": 1, "Latitude": 22.69317, "Longitude": 120.432944, "IVRNo": 9774, "EXTVoiceNo": 9218, "traveltime": 0, "holidayTraveltime": 0}, {"Id": "9219", "pgp": 0, "GoBack": 2, "SID": 11366, "NameZh": "Jhongsing N. Rd.", "RouteId": 160, "SeqNo": 2, "Terminal": 0, "DistrictId": 1, "Latitude": 22.6952, "Longitude": 120.433, "IVRNo": 9773, "EXTVoiceNo": 9219, "traveltime": 0, "holidayTraveltime": 0}, {"Id": "9220", "pgp": 0, "GoBack": 2, "SID": 10700, "NameZh": "Jhongjheng 1st. Rd.", "RouteId": 160, "SeqNo": 3, "Terminal": 0, "DistrictId": 1, "Latitude": 22.6934, "Longitude": 120.4346, "IVRNo": 9772, "EXTVoiceNo": 9220, "traveltime": 0, "holidayTraveltime": 0}, {"Id": "7138", "pgp": 0, "GoBack": 2, "SID": 10701, "NameZh": "Jhongsing E. Rd.", "RouteId": 160, "SeqNo": 4, "Terminal": 0, "DistrictId": 1, "Latitude": 22.6914, "Longitude": 120.4344, "IVRNo": 9771, "EXTVoiceNo": 17138, "traveltime": 0, "holidayTraveltime": 0}, {"Id": "9217", "pgp": 0, "GoBack": 2, "SID": 10742, "NameZh": "Dashu Farmer`s Association", "RouteId": 160, "SeqNo": 5, "Terminal": 0, "DistrictId": 1, "Latitude": 22.690884, "Longitude": 120.432193, "IVRNo": 9770, "EXTVoiceNo": 9217, "traveltime": 0, "holidayTraveltime": 0}, {"Id": "9216", "pgp": 0, "GoBack": 2, "SID": 10696, "NameZh": "Shihjian St.", "RouteId": 160, "SeqNo": 6, "Terminal": 0, "DistrictId": 1, "Latitude": 22.688963, "Longitude": 120.431217, "IVRNo": 9769, "EXTVoiceNo": 9216, "traveltime": 0, "holidayTraveltime": 0}, {"Id": "9215", "pgp": 0, "GoBack": 2, "SID": 12705, "NameZh": "Sinjijhuang", "RouteId": 160, "SeqNo": 7, "Terminal": 0, "DistrictId": 1, "Latitude": 22.686648, "Longitude": 120.430202, "IVRNo": 9768, "EXTVoiceNo": 9215, "traveltime": 0, "holidayTraveltime": 0}, {"Id": "1001", "pgp": 0, "GoBack": 2, "SID": 12706, "NameZh": "Barracks (Dashu)", "RouteId": 160, "SeqNo": 8, "Terminal": 0, "DistrictId": 1, "Latitude": 22.679872, "Longitude": 120.426126, "IVRNo": 1001, "EXTVoiceNo": 1001, "traveltime": 0, "holidayTraveltime": 0}, {"Id": "9214", "pgp": 0, "GoBack": 2, "SID": 12707, "NameZh": "Gongguan (Dashu)", "RouteId": 160, "SeqNo": 9, "Terminal": 0, "DistrictId": 1, "Latitude": 22.677265, "Longitude": 120.425359, "IVRNo": 1176, "EXTVoiceNo": 9214, "traveltime": 0, "holidayTraveltime": 0}, {"Id": "9213", "pgp": 0, "GoBack": 2, "SID": 12708, "NameZh": "Lyuyang Villa", "RouteId": 160, "SeqNo": 10, "Terminal": 0, "DistrictId": 1, "Latitude": 22.674116, "Longitude": 120.425968, "IVRNo": 9765, "EXTVoiceNo": 9213, "traveltime": 0, "holidayTraveltime": 0}, {"Id": "9212", "pgp": 0, "GoBack": 2, "SID": 12709, "NameZh": "Jhuliao", "RouteId": 160, "SeqNo": 11, "Terminal": 0, "DistrictId": 1, "Latitude": 22.672051, "Longitude": 120.426121, "IVRNo": 9764, "EXTVoiceNo": 9212, "traveltime": 0, "holidayTraveltime": 0}, {"Id": "9211", "pgp": 0, "GoBack": 2, "SID": 10689, "NameZh": "Syongshi Dadi", "RouteId": 160, "SeqNo": 12, "Terminal": 0, "DistrictId": 1, "Latitude": 22.66964, "Longitude": 120.426196, "IVRNo": 9763, "EXTVoiceNo": 9211, "traveltime": 0, "holidayTraveltime": 0}, {"Id": "9302", "pgp": 0, "GoBack": 2, "SID": 10690, "NameZh": "Jhuliaoshan Tourist Winery", "RouteId": 160, "SeqNo": 13, "Terminal": 0, "DistrictId": 1, "Latitude": 22.66838, "Longitude": 120.42612, "IVRNo": 9926, "EXTVoiceNo": 9302, "traveltime": 0, "holidayTraveltime": 0}, {"Id": "8955", "pgp": 0, "GoBack": 2, "SID": 6010, "NameZh": "Old Railroad Bridge Wetland (San-He Tile Kiln)", "RouteId": 160, "SeqNo": 14, "Terminal": 0, "DistrictId": 1, "Latitude": 22.661913, "Longitude": 120.426469, "IVRNo": 9381, "EXTVoiceNo": 8955, "traveltime": 0, "holidayTraveltime": 0}, {"Id": "9303", "pgp": 0, "GoBack": 2, "SID": 10712, "NameZh": "Nongyou Jhongmiao", "RouteId": 160, "SeqNo": 15, "Terminal": 0, "DistrictId": 1, "Latitude": 22.660769, "Longitude": 120.426207, "IVRNo": 9925, "EXTVoiceNo": 9303, "traveltime": 0, "holidayTraveltime": 0}, {"Id": "8954", "pgp": 0, "GoBack": 2, "SID": 6011, "NameZh": "Jiouda Gas Station", "RouteId": 160, "SeqNo": 16, "Terminal": 0, "DistrictId": 1, "Latitude": 22.659109, "Longitude": 120.425477, "IVRNo": 9380, "EXTVoiceNo": 8954, "traveltime": 0, "holidayTraveltime": 0}, {"Id": "9210", "pgp": 0, "GoBack": 2, "SID": 11367, "NameZh": "Dashu Junior High School", "RouteId": 160, "SeqNo": 17, "Terminal": 0, "DistrictId": 1, "Latitude": 22.656334, "Longitude": 120.42273, "IVRNo": 8913, "EXTVoiceNo": 9210, "traveltime": 0, "holidayTraveltime": 0}, {"Id": "8953", "pgp": 0, "GoBack": 2, "SID": 12712, "NameZh": "Jioucyu Rd. Intersection", "RouteId": 160, "SeqNo": 18, "Terminal": 0, "DistrictId": 1, "Latitude": 22.6542, "Longitude": 120.423884, "IVRNo": 9761, "EXTVoiceNo": 8953, "traveltime": 0, "holidayTraveltime": 0}, {"Id": "8952", "pgp": 0, "GoBack": 2, "SID": 6013, "NameZh": "Jhuangnei (Jioucyu Beiji Temple)", "RouteId": 160, "SeqNo": 19, "Terminal": 0, "DistrictId": 1, "Latitude": 22.65275, "Longitude": 120.423632, "IVRNo": 9378, "EXTVoiceNo": 8952, "traveltime": 0, "holidayTraveltime": 0}, {"Id": "8951", "pgp": 0, "GoBack": 2, "SID": 6014, "NameZh": "Jioucyu Village", "RouteId": 160, "SeqNo": 20, "Terminal": 0, "DistrictId": 1, "Latitude": 22.6484, "Longitude": 120.4213, "IVRNo": 9377, "EXTVoiceNo": 8951, "traveltime": 0, "holidayTraveltime": 0}, {"Id": "8950", "pgp": 0, "GoBack": 2, "SID": 6015, "NameZh": "Jioutang Village (Jioucyutang Train Station)", "RouteId": 160, "SeqNo": 21, "Terminal": 0, "DistrictId": 1, "Latitude": 22.657596, "Longitude": 120.417497, "IVRNo": 9387, "EXTVoiceNo": 8950, "traveltime": 0, "holidayTraveltime": 0}, {"Id": "8949", "pgp": 0, "GoBack": 2, "SID": 6016, "NameZh": "Hudi Bridge (Dashu)", "RouteId": 160, "SeqNo": 22, "Terminal": 0, "DistrictId": 1, "Latitude": 22.6582, "Longitude": 120.4157, "IVRNo": 9375, "EXTVoiceNo": 8949, "traveltime": 0, "holidayTraveltime": 0}, {"Id": "8948", "pgp": 0, "GoBack": 2, "SID": 6017, "NameZh": "Shueian Village", "RouteId": 160, "SeqNo": 23, "Terminal": 0, "DistrictId": 1, "Latitude": 22.6627, "Longitude": 120.4109, "IVRNo": 9374, "EXTVoiceNo": 8948, "traveltime": 0, "holidayTraveltime": 0}, {"Id": "8947", "pgp": 0, "GoBack": 2, "SID": 6018, "NameZh": "Shueiliao", "RouteId": 160, "SeqNo": 24, "Terminal": 0, "DistrictId": 1, "Latitude": 22.6655, "Longitude": 120.4096, "IVRNo": 9373, "EXTVoiceNo": 8947, "traveltime": 0, "holidayTraveltime": 0}, {"Id": "8946", "pgp": 0, "GoBack": 2, "SID": 6019, "NameZh": "Shueiliao Jhongshan Rd.", "RouteId": 160, "SeqNo": 25, "Terminal": 0, "DistrictId": 1, "Latitude": 22.667, "Longitude": 120.4091, "IVRNo": 9372, "EXTVoiceNo": 8946, "traveltime": 0, "holidayTraveltime": 0}, {"Id": "8945", "pgp": 0, "GoBack": 2, "SID": 6020, "NameZh": "Shueiliao Elementary School", "RouteId": 160, "SeqNo": 26, "Terminal": 0, "DistrictId": 1, "Latitude": 22.667121, "Longitude": 120.408102, "IVRNo": 9371, "EXTVoiceNo": 8945, "traveltime": 0, "holidayTraveltime": 0}, {"Id": "9209", "pgp": 0, "GoBack": 2, "SID": 10714, "NameZh": "Shueiliao Jhonghua Rd.", "RouteId": 160, "SeqNo": 27, "Terminal": 0, "DistrictId": 1, "Latitude": 22.663363, "Longitude": 120.40444, "IVRNo": 9760, "EXTVoiceNo": 9209, "traveltime": 0, "holidayTraveltime": 0}, {"Id": "8944", "pgp": 0, "GoBack": 2, "SID": 6021, "NameZh": "Shueimei Gas Station", "RouteId": 160, "SeqNo": 28, "Terminal": 0, "DistrictId": 1, "Latitude": 22.6586, "Longitude": 120.3995, "IVRNo": 9370, "EXTVoiceNo": 8944, "traveltime": 0, "holidayTraveltime": 0}, {"Id": "8943", "pgp": 0, "GoBack": 2, "SID": 6022, "NameZh": "Renmei Elementary School", "RouteId": 160, "SeqNo": 29, "Terminal": 0, "DistrictId": 1, "Latitude": 22.657972, "Longitude": 120.394495, "IVRNo": 9369, "EXTVoiceNo": 8943, "traveltime": 0, "holidayTraveltime": 0}, {"Id": "9020", "pgp": 0, "GoBack": 2, "SID": 10715, "NameZh": "Gaoma", "RouteId": 160, "SeqNo": 30, "Terminal": 0, "DistrictId": 1, "Latitude": 22.658161, "Longitude": 120.389112, "IVRNo": 9538, "EXTVoiceNo": 9020, "traveltime": 0, "holidayTraveltime": 0}, {"Id": "8942", "pgp": 0, "GoBack": 2, "SID": 6023, "NameZh": "Dipu", "RouteId": 160, "SeqNo": 31, "Terminal": 0, "DistrictId": 1, "Latitude": 22.658044, "Longitude": 120.384522, "IVRNo": 9368, "EXTVoiceNo": 8942, "traveltime": 0, "holidayTraveltime": 0}, {"Id": "2632", "pgp": 0, "GoBack": 2, "SID": 10716, "NameZh": "Songbu Rd. Intersection (Yuanjhao Temple)", "RouteId": 160, "SeqNo": 32, "Terminal": 0, "DistrictId": 1, "Latitude": 22.6591, "Longitude": 120.3802, "IVRNo": 5690, "EXTVoiceNo": 2632, "traveltime": 0, "holidayTraveltime": 0}, {"Id": "0243", "pgp": 0, "GoBack": 2, "SID": 9064, "NameZh": "Shueiguan Rd. Intersection (Shennong Rd.)", "RouteId": 160, "SeqNo": 33, "Terminal": 0, "DistrictId": 1, "Latitude": 22.659614, "Longitude": 120.373377, "IVRNo": 1238, "EXTVoiceNo": 20243, "traveltime": 0, "holidayTraveltime": 0}, {"Id": "4332", "pgp": 0, "GoBack": 2, "SID": 6024, "NameZh": "Niaosong District Office (Shennong Rd.)", "RouteId": 160, "SeqNo": 34, "Terminal": 0, "DistrictId": 1, "Latitude": 22.6593, "Longitude": 120.3652, "IVRNo": 9367, "EXTVoiceNo": 14332, "traveltime": 0, "holidayTraveltime": 0}, {"Id": "7705", "pgp": 0, "GoBack": 2, "SID": 2592, "NameZh": "Jhongcheng Rd. Intersection", "RouteId": 160, "SeqNo": 35, "Terminal": 0, "DistrictId": 1, "Latitude": 22.658, "Longitude": 120.3609, "IVRNo": 864, "EXTVoiceNo": 7705, "traveltime": 0, "holidayTraveltime": 0}, {"Id": "1912", "pgp": 0, "GoBack": 2, "SID": 2548, "NameZh": "Chengcing Lake Baseball Field", "RouteId": 160, "SeqNo": 36, "Terminal": 0, "DistrictId": 1, "Latitude": 22.6553, "Longitude": 120.36, "IVRNo": 11912, "EXTVoiceNo": 11912, "traveltime": 0, "holidayTraveltime": 0}, {"Id": "8941", "pgp": 0, "GoBack": 2, "SID": 6040, "NameZh": "The Labor Recreation Center", "RouteId": 160, "SeqNo": 37, "Terminal": 0, "DistrictId": 1, "Latitude": 22.652809, "Longitude": 120.359709, "IVRNo": 9411, "EXTVoiceNo": 8941, "traveltime": 0, "holidayTraveltime": 0}, {"Id": "3534", "pgp": 0, "GoBack": 2, "SID": 2550, "NameZh": "Chang Gung Memorial Hospital", "RouteId": 160, "SeqNo": 38, "Terminal": 0, "DistrictId": 1, "Latitude": 22.650933, "Longitude": 120.356409, "IVRNo": 3534, "EXTVoiceNo": 3534, "traveltime": 0, "holidayTraveltime": 0}, {"Id": "0636", "pgp": 0, "GoBack": 2, "SID": 2563, "NameZh": "Cheng Shiu University (Chengcing Lake)", "RouteId": 160, "SeqNo": 39, "Terminal": 0, "DistrictId": 1, "Latitude": 22.651522, "Longitude": 120.348916, "IVRNo": 3533, "EXTVoiceNo": 10636, "traveltime": 0, "holidayTraveltime": 0}, {"Id": "8939", "pgp": 0, "GoBack": 2, "SID": 6032, "NameZh": "Chengyuan", "RouteId": 160, "SeqNo": 40, "Terminal": 0, "DistrictId": 1, "Latitude": 22.6471, "Longitude": 120.3475, "IVRNo": 9403, "EXTVoiceNo": 8939, "traveltime": 0, "holidayTraveltime": 0}, {"Id": "8938", "pgp": 0, "GoBack": 2, "SID": 6033, "NameZh": "Binshan St. Intersection", "RouteId": 160, "SeqNo": 41, "Terminal": 0, "DistrictId": 1, "Latitude": 22.6451, "Longitude": 120.3501, "IVRNo": 9402, "EXTVoiceNo": 8938, "traveltime": 0, "holidayTraveltime": 0}, {"Id": "8937", "pgp": 0, "GoBack": 2, "SID": 6034, "NameZh": "Wunheng Rd. Intersection", "RouteId": 160, "SeqNo": 42, "Terminal": 0, "DistrictId": 1, "Latitude": 22.641284, "Longitude": 120.351276, "IVRNo": 451, "EXTVoiceNo": 8937, "traveltime": 0, "holidayTraveltime": 0}, {"Id": "8956", "pgp": 0, "GoBack": 2, "SID": 6035, "NameZh": "Wunde Elementary School", "RouteId": 160, "SeqNo": 43, "Terminal": 0, "DistrictId": 1, "Latitude": 22.640353, "Longitude": 120.353508, "IVRNo": 9400, "EXTVoiceNo": 8956, "traveltime": 0, "holidayTraveltime": 0}, {"Id": "9010", "pgp": 0, "GoBack": 2, "SID": 10717, "NameZh": "Wunshan Lane", "RouteId": 160, "SeqNo": 44, "Terminal": 0, "DistrictId": 1, "Latitude": 22.6395, "Longitude": 120.3565, "IVRNo": 9518, "EXTVoiceNo": 9010, "traveltime": 0, "holidayTraveltime": 0}, {"Id": "9003", "pgp": 0, "GoBack": 2, "SID": 10718, "NameZh": "Bade Rd.", "RouteId": 160, "SeqNo": 45, "Terminal": 0, "DistrictId": 1, "Latitude": 22.638313, "Longitude": 120.359323, "IVRNo": 9517, "EXTVoiceNo": 9003, "traveltime": 0, "holidayTraveltime": 0}, {"Id": "9004", "pgp": 0, "GoBack": 2, "SID": 10719, "NameZh": "Jianguo Rd. New City (Wunheng Rd. Intersection)", "RouteId": 160, "SeqNo": 46, "Terminal": 0, "DistrictId": 1, "Latitude": 22.636055, "Longitude": 120.359087, "IVRNo": 9516, "EXTVoiceNo": 9004, "traveltime": 0, "holidayTraveltime": 0}, {"Id": "8936", "pgp": 0, "GoBack": 2, "SID": 6036, "NameZh": "National Feng-Shan Commercial & Industrial Vocational School", "RouteId": 160, "SeqNo": 47, "Terminal": 0, "DistrictId": 1, "Latitude": 22.634392, "Longitude": 120.358239, "IVRNo": 148, "EXTVoiceNo": 8936, "traveltime": 0, "holidayTraveltime": 0}, {"Id": "9009", "pgp": 0, "GoBack": 2, "SID": 10720, "NameZh": "RT-MART", "RouteId": 160, "SeqNo": 48, "Terminal": 0, "DistrictId": 1, "Latitude": 22.633755, "Longitude": 120.35567, "IVRNo": 9515, "EXTVoiceNo": 9009, "traveltime": 0, "holidayTraveltime": 0}, {"Id": "8935", "pgp": 0, "GoBack": 2, "SID": 6037, "NameZh": "Wunhua Elementary School", "RouteId": 160, "SeqNo": 49, "Terminal": 0, "DistrictId": 1, "Latitude": 22.634382, "Longitude": 120.352135, "IVRNo": 9398, "EXTVoiceNo": 8935, "traveltime": 0, "holidayTraveltime": 0}, {"Id": "2498", "pgp": 0, "GoBack": 2, "SID": 19018, "NameZh": "Fongshan Administration Center (Chengcing Rd.)", "RouteId": 160, "SeqNo": 50, "Terminal": 0, "DistrictId": 1, "Latitude": 22.630033, "Longitude": 120.344378, "IVRNo": 2498, "EXTVoiceNo": 2498, "traveltime": 0, "holidayTraveltime": 0}, {"Id": "3528", "pgp": 0, "GoBack": 2, "SID": 3604, "NameZh": "Fongshan Administration Center (Jhongshan W. Rd.)", "RouteId": 160, "SeqNo": 51, "Terminal": 0, "DistrictId": 1, "Latitude": 22.628133, "Longitude": 120.343836, "IVRNo": 502, "EXTVoiceNo": 13528, "traveltime": 0, "holidayTraveltime": 0}, {"Id": "0980", "pgp": 0, "GoBack": 2, "SID": 2063, "NameZh": "Kaohsiung Armed Forces General Hospital", "RouteId": 160, "SeqNo": 52, "Terminal": 0, "DistrictId": 1, "Latitude": 22.626747, "Longitude": 120.342243, "IVRNo": 2, "EXTVoiceNo": 20980, "traveltime": 0, "holidayTraveltime": 0}, {"Id": "0002", "pgp": 0, "GoBack": 2, "SID": 6, "NameZh": "Jianjun Station (MRT Weiwuying Station)", "RouteId": 160, "SeqNo": 53, "Terminal": 1, "DistrictId": 1, "Latitude": 22.624966, "Longitude": 120.343291, "IVRNo": 1, "EXTVoiceNo": 2, "traveltime": 0, "holidayTraveltime": 0}], "zh": [{"Id": "0002", "pgp": 0, "GoBack": 1, "SID": 16, "NameZh": "\u5efa\u8ecd\u7ad9(\u6377\u904b\u885b\u6b66\u71df\u7ad9)", "RouteId": 160, "SeqNo": 1, "Terminal": 0, "DistrictId": 1, "Latitude": 22.624975, "Longitude": 120.343796, "IVRNo": 1, "EXTVoiceNo": 2, "traveltime": 0, "holidayTraveltime": 0}, {"Id": "0980", "pgp": 0, "GoBack": 1, "SID": 982, "NameZh": "\u570b\u8ecd\u9ad8\u96c4\u7e3d\u91ab\u9662", "RouteId": 160, "SeqNo": 2, "Terminal": 0, "DistrictId": 1, "Latitude": 22.6263, "Longitude": 120.3423, "IVRNo": 2, "EXTVoiceNo": 20980, "traveltime": 0, "holidayTraveltime": 0}, {"Id": "3528", "pgp": 0, "GoBack": 1, "SID": 3602, "NameZh": "\u9cf3\u5c71\u884c\u653f\u4e2d\u5fc3(\u4e2d\u5c71\u897f\u8def)", "RouteId": 160, "SeqNo": 3, "Terminal": 0, "DistrictId": 1, "Latitude": 22.6281, "Longitude": 120.3437, "IVRNo": 502, "EXTVoiceNo": 13528, "traveltime": 0, "holidayTraveltime": 0}, {"Id": "2498", "pgp": 0, "GoBack": 1, "SID": 19017, "NameZh": "\u9cf3\u5c71\u884c\u653f\u4e2d\u5fc3(\u6f84\u6e05\u8def)", "RouteId": 160, "SeqNo": 4, "Terminal": 0, "DistrictId": 1, "Latitude": 22.63043, "Longitude": 120.344552, "IVRNo": 2498, "EXTVoiceNo": 2498, "traveltime": 0, "holidayTraveltime": 0}, {"Id": "8935", "pgp": 0, "GoBack": 1, "SID": 6026, "NameZh": "\u6587\u83ef\u570b\u5c0f", "RouteId": 160, "SeqNo": 5, "Terminal": 0, "DistrictId": 1, "Latitude": 22.634293, "Longitude": 120.35251, "IVRNo": 9398, "EXTVoiceNo": 8935, "traveltime": 0, "holidayTraveltime": 0}, {"Id": "9009", "pgp": 0, "GoBack": 1, "SID": 10680, "NameZh": "\u5927\u6f64\u767c", "RouteId": 160, "SeqNo": 6, "Terminal": 0, "DistrictId": 1, "Latitude": 22.633748, "Longitude": 120.355589, "IVRNo": 9515, "EXTVoiceNo": 9009, "traveltime": 0, "holidayTraveltime": 0}, {"Id": "8936", "pgp": 0, "GoBack": 1, "SID": 6027, "NameZh": "\u9cf3\u5c71\u5546\u5de5", "RouteId": 160, "SeqNo": 7, "Terminal": 0, "DistrictId": 1, "Latitude": 22.6338, "Longitude": 120.3582, "IVRNo": 148, "EXTVoiceNo": 8936, "traveltime": 0, "holidayTraveltime": 0}, {"Id": "9004", "pgp": 0, "GoBack": 1, "SID": 11365, "NameZh": "\u5efa\u570b\u65b0\u57ce(\u6587\u8861\u8def\u53e3)", "RouteId": 160, "SeqNo": 8, "Terminal": 0, "DistrictId": 1, "Latitude": 22.636, "Longitude": 120.3583, "IVRNo": 9516, "EXTVoiceNo": 9004, "traveltime": 0, "holidayTraveltime": 0}, {"Id": "9003", "pgp": 0, "GoBack": 1, "SID": 10682, "NameZh": "\u516b\u5fb7\u8def", "RouteId": 160, "SeqNo": 9, "Terminal": 0, "DistrictId": 1, "Latitude": 22.6383, "Longitude": 120.3593, "IVRNo": 9517, "EXTVoiceNo": 9003, "traveltime": 0, "holidayTraveltime": 0}, {"Id": "9010", "pgp": 0, "GoBack": 1, "SID": 10683, "NameZh": "\u6587\u5c71\u91cc", "RouteId": 160, "SeqNo": 10, "Terminal": 0, "DistrictId": 1, "Latitude": 22.63989, "Longitude": 120.356195, "IVRNo": 9518, "EXTVoiceNo": 9010, "traveltime": 0, "holidayTraveltime": 0}, {"Id": "8956", "pgp": 0, "GoBack": 1, "SID": 6028, "NameZh": "\u6587\u5fb7\u570b\u5c0f", "RouteId": 160, "SeqNo": 11, "Terminal": 0, "DistrictId": 1, "Latitude": 22.6403, "Longitude": 120.3537, "IVRNo": 9400, "EXTVoiceNo": 8956, "traveltime": 0, "holidayTraveltime": 0}, {"Id": "8937", "pgp": 0, "GoBack": 1, "SID": 6029, "NameZh": "\u6587\u8861\u8def\u53e3", "RouteId": 160, "SeqNo": 12, "Terminal": 0, "DistrictId": 1, "Latitude": 22.6411, "Longitude": 120.3512, "IVRNo": 451, "EXTVoiceNo": 8937, "traveltime": 0, "holidayTraveltime": 0}, {"Id": "8938", "pgp": 0, "GoBack": 1, "SID": 6030, "NameZh": "\u6ff1\u5c71\u8857\u53e3", "RouteId": 160, "SeqNo": 13, "Terminal": 0, "DistrictId": 1, "Latitude": 22.645076, "Longitude": 120.350161, "IVRNo": 9402, "EXTVoiceNo": 8938, "traveltime": 0, "holidayTraveltime": 0}, {"Id": "8939", "pgp": 0, "GoBack": 1, "SID": 6031, "NameZh": "\u6f84\u5712", "RouteId": 160, "SeqNo": 14, "Terminal": 0, "DistrictId": 1, "Latitude": 22.647472, "Longitude": 120.347189, "IVRNo": 9403, "EXTVoiceNo": 8939, "traveltime": 0, "holidayTraveltime": 0}, {"Id": "0636", "pgp": 0, "GoBack": 1, "SID": 2519, "NameZh": "\u6b63\u4fee\u79d1\u5927(\u6f84\u6e05\u6e56)", "RouteId": 160, "SeqNo": 15, "Terminal": 0, "DistrictId": 1, "Latitude": 22.6512, "Longitude": 120.3489, "IVRNo": 3533, "EXTVoiceNo": 10636, "traveltime": 0, "holidayTraveltime": 0}, {"Id": "3546", "pgp": 0, "GoBack": 1, "SID": 2588, "NameZh": "\u9577\u5e9a\u5fa9\u5065\u5927\u6a13", "RouteId": 160, "SeqNo": 16, "Terminal": 0, "DistrictId": 1, "Latitude": 22.6505, "Longitude": 120.3531, "IVRNo": 3546, "EXTVoiceNo": 3546, "traveltime": 0, "holidayTraveltime": 0}, {"Id": "3534", "pgp": 0, "GoBack": 1, "SID": 2552, "NameZh": "\u9577\u5e9a\u91ab\u9662", "RouteId": 160, "SeqNo": 17, "Terminal": 0, "DistrictId": 1, "Latitude": 22.6508, "Longitude": 120.3566, "IVRNo": 3534, "EXTVoiceNo": 3534, "traveltime": 0, "holidayTraveltime": 0}, {"Id": "8941", "pgp": 0, "GoBack": 1, "SID": 6039, "NameZh": "\u52de\u5de5\u80b2\u6a02\u4e2d\u5fc3", "RouteId": 160, "SeqNo": 18, "Terminal": 0, "DistrictId": 1, "Latitude": 22.652948, "Longitude": 120.35972, "IVRNo": 9411, "EXTVoiceNo": 8941, "traveltime": 0, "holidayTraveltime": 0}, {"Id": "1912", "pgp": 0, "GoBack": 1, "SID": 2535, "NameZh": "\u6f84\u6e05\u6e56\u68d2\u7403\u5834", "RouteId": 160, "SeqNo": 19, "Terminal": 0, "DistrictId": 1, "Latitude": 22.6555, "Longitude": 120.3599, "IVRNo": 11912, "EXTVoiceNo": 11912, "traveltime": 0, "holidayTraveltime": 0}, {"Id": "7705", "pgp": 0, "GoBack": 1, "SID": 2536, "NameZh": "\u5fe0\u8aa0\u8def\u53e3", "RouteId": 160, "SeqNo": 20, "Terminal": 0, "DistrictId": 1, "Latitude": 22.6582, "Longitude": 120.361, "IVRNo": 864, "EXTVoiceNo": 7705, "traveltime": 0, "holidayTraveltime": 0}, {"Id": "4332", "pgp": 0, "GoBack": 1, "SID": 5995, "NameZh": "\u9ce5\u677e\u5340\u516c\u6240(\u795e\u8fb2\u8def)", "RouteId": 160, "SeqNo": 21, "Terminal": 0, "DistrictId": 1, "Latitude": 22.659086, "Longitude": 120.36487, "IVRNo": 9367, "EXTVoiceNo": 14332, "traveltime": 0, "holidayTraveltime": 0}, {"Id": "0243", "pgp": 0, "GoBack": 1, "SID": 12113, "NameZh": "\u6c34\u7ba1\u8def\u53e3(\u795e\u8fb2\u8def)", "RouteId": 160, "SeqNo": 22, "Terminal": 0, "DistrictId": 1, "Latitude": 22.659406, "Longitude": 120.37306, "IVRNo": 1238, "EXTVoiceNo": 20243, "traveltime": 0, "holidayTraveltime": 0}, {"Id": "2632", "pgp": 0, "GoBack": 1, "SID": 10684, "NameZh": "\u677e\u57d4\u8def\u53e3(\u5713\u7167\u5bfa)", "RouteId": 160, "SeqNo": 23, "Terminal": 0, "DistrictId": 1, "Latitude": 22.6593, "Longitude": 120.3802, "IVRNo": 5690, "EXTVoiceNo": 2632, "traveltime": 0, "holidayTraveltime": 0}, {"Id": "8942", "pgp": 0, "GoBack": 1, "SID": 6144, "NameZh": "\u5754\u57d4", "RouteId": 160, "SeqNo": 24, "Terminal": 0, "DistrictId": 1, "Latitude": 22.6582, "Longitude": 120.3849, "IVRNo": 9368, "EXTVoiceNo": 8942, "traveltime": 0, "holidayTraveltime": 0}, {"Id": "9020", "pgp": 0, "GoBack": 1, "SID": 10726, "NameZh": "\u9ad8\u78bc", "RouteId": 160, "SeqNo": 25, "Terminal": 0, "DistrictId": 1, "Latitude": 22.658146, "Longitude": 120.389149, "IVRNo": 9538, "EXTVoiceNo": 9020, "traveltime": 0, "holidayTraveltime": 0}, {"Id": "8943", "pgp": 0, "GoBack": 1, "SID": 5997, "NameZh": "\u4ec1\u7f8e\u570b\u5c0f", "RouteId": 160, "SeqNo": 26, "Terminal": 0, "DistrictId": 1, "Latitude": 22.65827, "Longitude": 120.393076, "IVRNo": 9369, "EXTVoiceNo": 8943, "traveltime": 0, "holidayTraveltime": 0}, {"Id": "8944", "pgp": 0, "GoBack": 1, "SID": 5998, "NameZh": "\u6c34\u7f8e\u52a0\u6cb9\u7ad9", "RouteId": 160, "SeqNo": 27, "Terminal": 0, "DistrictId": 1, "Latitude": 22.658265, "Longitude": 120.399513, "IVRNo": 9370, "EXTVoiceNo": 8944, "traveltime": 0, "holidayTraveltime": 0}, {"Id": "9209", "pgp": 0, "GoBack": 1, "SID": 10686, "NameZh": "\u6c34\u5bee\u4e2d\u83ef\u8def", "RouteId": 160, "SeqNo": 28, "Terminal": 0, "DistrictId": 1, "Latitude": 22.663363, "Longitude": 120.40444, "IVRNo": 9760, "EXTVoiceNo": 9209, "traveltime": 0, "holidayTraveltime": 0}, {"Id": "8945", "pgp": 0, "GoBack": 1, "SID": 5999, "NameZh": "\u6c34\u5bee\u570b\u5c0f", "RouteId": 160, "SeqNo": 29, "Terminal": 0, "DistrictId": 1, "Latitude": 22.666957, "Longitude": 120.407689, "IVRNo": 9371, "EXTVoiceNo": 8945, "traveltime": 0, "holidayTraveltime": 0}, {"Id": "8946", "pgp": 0, "GoBack": 1, "SID": 6000, "NameZh": "\u6c34\u5bee\u4e2d\u5c71\u8def", "RouteId": 160, "SeqNo": 30, "Terminal": 0, "DistrictId": 1, "Latitude": 22.667165, "Longitude": 120.409116, "IVRNo": 9372, "EXTVoiceNo": 8946, "traveltime": 0, "holidayTraveltime": 0}, {"Id": "8947", "pgp": 0, "GoBack": 1, "SID": 6001, "NameZh": "\u6c34\u5bee", "RouteId": 160, "SeqNo": 31, "Terminal": 0, "DistrictId": 1, "Latitude": 22.6655, "Longitude": 120.4095, "IVRNo": 9373, "EXTVoiceNo": 8947, "traveltime": 0, "holidayTraveltime": 0}, {"Id": "8948", "pgp": 0, "GoBack": 1, "SID": 6002, "NameZh": "\u6c34\u5b89\u91cc", "RouteId": 160, "SeqNo": 32, "Terminal": 0, "DistrictId": 1, "Latitude": 22.6627, "Longitude": 120.4109, "IVRNo": 9374, "EXTVoiceNo": 8948, "traveltime": 0, "holidayTraveltime": 0}, {"Id": "8949", "pgp": 0, "GoBack": 1, "SID": 6003, "NameZh": "\u6e56\u5e95\u6a4b(\u5927\u6a39)", "RouteId": 160, "SeqNo": 33, "Terminal": 0, "DistrictId": 1, "Latitude": 22.658502, "Longitude": 120.415242, "IVRNo": 9375, "EXTVoiceNo": 8949, "traveltime": 0, "holidayTraveltime": 0}, {"Id": "8950", "pgp": 0, "GoBack": 1, "SID": 6004, "NameZh": "\u4e45\u5802\u91cc(\u4e5d\u66f2\u5802\u706b\u8eca\u7ad9)", "RouteId": 160, "SeqNo": 34, "Terminal": 0, "DistrictId": 1, "Latitude": 22.6573, "Longitude": 120.4174, "IVRNo": 9387, "EXTVoiceNo": 8950, "traveltime": 0, "holidayTraveltime": 0}, {"Id": "8951", "pgp": 0, "GoBack": 1, "SID": 6005, "NameZh": "\u4e5d\u66f2\u91cc", "RouteId": 160, "SeqNo": 35, "Terminal": 0, "DistrictId": 1, "Latitude": 22.6484, "Longitude": 120.4213, "IVRNo": 9377, "EXTVoiceNo": 8951, "traveltime": 0, "holidayTraveltime": 0}, {"Id": "8952", "pgp": 0, "GoBack": 1, "SID": 6006, "NameZh": "\u5e84\u5167(\u4e5d\u66f2\u5317\u6975\u6bbf)", "RouteId": 160, "SeqNo": 36, "Terminal": 0, "DistrictId": 1, "Latitude": 22.6508, "Longitude": 120.4225, "IVRNo": 9378, "EXTVoiceNo": 8952, "traveltime": 0, "holidayTraveltime": 0}, {"Id": "8953", "pgp": 0, "GoBack": 1, "SID": 10713, "NameZh": "\u4e5d\u66f2\u8def\u53e3", "RouteId": 160, "SeqNo": 37, "Terminal": 0, "DistrictId": 1, "Latitude": 22.655225, "Longitude": 120.423245, "IVRNo": 9761, "EXTVoiceNo": 8953, "traveltime": 0, "holidayTraveltime": 0}, {"Id": "9210", "pgp": 0, "GoBack": 1, "SID": 6007, "NameZh": "\u5927\u6a39\u570b\u4e2d", "RouteId": 160, "SeqNo": 38, "Terminal": 0, "DistrictId": 1, "Latitude": 22.656415, "Longitude": 120.422728, "IVRNo": 8913, "EXTVoiceNo": 9210, "traveltime": 0, "holidayTraveltime": 0}, {"Id": "8954", "pgp": 0, "GoBack": 1, "SID": 6008, "NameZh": "\u4e5d\u5927\u52a0\u6cb9\u7ad9", "RouteId": 160, "SeqNo": 39, "Terminal": 0, "DistrictId": 1, "Latitude": 22.658789, "Longitude": 120.425413, "IVRNo": 9380, "EXTVoiceNo": 8954, "traveltime": 0, "holidayTraveltime": 0}, {"Id": "9303", "pgp": 0, "GoBack": 1, "SID": 10688, "NameZh": "\u8fb2\u53cb\u7a2e\u82d7", "RouteId": 160, "SeqNo": 40, "Terminal": 0, "DistrictId": 1, "Latitude": 22.659522, "Longitude": 120.425574, "IVRNo": 9925, "EXTVoiceNo": 9303, "traveltime": 0, "holidayTraveltime": 0}, {"Id": "8955", "pgp": 0, "GoBack": 1, "SID": 6009, "NameZh": "\u820a\u9435\u6a4b\u6ebc\u5730(\u4e09\u548c\u74e6\u7aaf)", "RouteId": 160, "SeqNo": 41, "Terminal": 0, "DistrictId": 1, "Latitude": 22.662047, "Longitude": 120.426539, "IVRNo": 9381, "EXTVoiceNo": 8955, "traveltime": 0, "holidayTraveltime": 0}, {"Id": "9302", "pgp": 0, "GoBack": 1, "SID": 12710, "NameZh": "\u7af9\u5bee\u5c71\u89c0\u5149\u9152\u5ee0", "RouteId": 160, "SeqNo": 42, "Terminal": 0, "DistrictId": 1, "Latitude": 22.668205, "Longitude": 120.426121, "IVRNo": 9926, "EXTVoiceNo": 9302, "traveltime": 0, "holidayTraveltime": 0}, {"Id": "9211", "pgp": 0, "GoBack": 1, "SID": 10709, "NameZh": "\u96c4\u7345\u5927\u5730", "RouteId": 160, "SeqNo": 43, "Terminal": 0, "DistrictId": 1, "Latitude": 22.669501, "Longitude": 120.426207, "IVRNo": 9763, "EXTVoiceNo": 9211, "traveltime": 0, "holidayTraveltime": 0}, {"Id": "9212", "pgp": 0, "GoBack": 1, "SID": 10691, "NameZh": "\u7af9\u5bee", "RouteId": 160, "SeqNo": 44, "Terminal": 0, "DistrictId": 1, "Latitude": 22.671769, "Longitude": 120.426142, "IVRNo": 9764, "EXTVoiceNo": 9212, "traveltime": 0, "holidayTraveltime": 0}, {"Id": "9213", "pgp": 0, "GoBack": 1, "SID": 10692, "NameZh": "\u7da0\u967d\u5c71\u838a", "RouteId": 160, "SeqNo": 45, "Terminal": 0, "DistrictId": 1, "Latitude": 22.673847, "Longitude": 120.426013, "IVRNo": 9765, "EXTVoiceNo": 9213, "traveltime": 0, "holidayTraveltime": 0}, {"Id": "9214", "pgp": 0, "GoBack": 1, "SID": 10693, "NameZh": "\u516c\u9928(\u5927\u6a39)", "RouteId": 160, "SeqNo": 46, "Terminal": 0, "DistrictId": 1, "Latitude": 22.676976, "Longitude": 120.42538, "IVRNo": 1176, "EXTVoiceNo": 9214, "traveltime": 0, "holidayTraveltime": 0}, {"Id": "1001", "pgp": 0, "GoBack": 1, "SID": 10694, "NameZh": "\u71df\u623f(\u5927\u6a39)", "RouteId": 160, "SeqNo": 47, "Terminal": 0, "DistrictId": 1, "Latitude": 22.679609, "Longitude": 120.425971, "IVRNo": 1001, "EXTVoiceNo": 1001, "traveltime": 0, "holidayTraveltime": 0}, {"Id": "9215", "pgp": 0, "GoBack": 1, "SID": 10695, "NameZh": "\u65b0\u5409\u5e84", "RouteId": 160, "SeqNo": 48, "Terminal": 0, "DistrictId": 1, "Latitude": 22.68637, "Longitude": 120.430198, "IVRNo": 9768, "EXTVoiceNo": 9215, "traveltime": 0, "holidayTraveltime": 0}, {"Id": "9216", "pgp": 0, "GoBack": 1, "SID": 10703, "NameZh": "\u5be6\u8e10\u8857", "RouteId": 160, "SeqNo": 49, "Terminal": 0, "DistrictId": 1, "Latitude": 22.688775, "Longitude": 120.430938, "IVRNo": 9769, "EXTVoiceNo": 9216, "traveltime": 0, "holidayTraveltime": 0}, {"Id": "9217", "pgp": 0, "GoBack": 1, "SID": 10702, "NameZh": "\u5927\u6a39\u8fb2\u6703", "RouteId": 160, "SeqNo": 50, "Terminal": 0, "DistrictId": 1, "Latitude": 22.690626, "Longitude": 120.432, "IVRNo": 9770, "EXTVoiceNo": 9217, "traveltime": 0, "holidayTraveltime": 0}, {"Id": "9218", "pgp": 0, "GoBack": 1, "SID": 15584, "NameZh": "\u5927\u6a39\u5340\u516c\u6240", "RouteId": 160, "SeqNo": 51, "Terminal": 1, "DistrictId": 1, "Latitude": 22.69317, "Longitude": 120.432944, "IVRNo": 9774, "EXTVoiceNo": 9218, "traveltime": 0, "holidayTraveltime": 0}, {"Id": "9218", "pgp": 0, "GoBack": 2, "SID": 10738, "NameZh": "\u5927\u6a39\u5340\u516c\u6240", "RouteId": 160, "SeqNo": 1, "Terminal": 0, "DistrictId": 1, "Latitude": 22.69317, "Longitude": 120.432944, "IVRNo": 9774, "EXTVoiceNo": 9218, "traveltime": 0, "holidayTraveltime": 0}, {"Id": "9219", "pgp": 0, "GoBack": 2, "SID": 11366, "NameZh": "\u4e2d\u8208\u5317\u8def", "RouteId": 160, "SeqNo": 2, "Terminal": 0, "DistrictId": 1, "Latitude": 22.6952, "Longitude": 120.433, "IVRNo": 9773, "EXTVoiceNo": 9219, "traveltime": 0, "holidayTraveltime": 0}, {"Id": "9220", "pgp": 0, "GoBack": 2, "SID": 10700, "NameZh": "\u4e2d\u6b63\u4e00\u8def", "RouteId": 160, "SeqNo": 3, "Terminal": 0, "DistrictId": 1, "Latitude": 22.6934, "Longitude": 120.4346, "IVRNo": 9772, "EXTVoiceNo": 9220, "traveltime": 0, "holidayTraveltime": 0}, {"Id": "7138", "pgp": 0, "GoBack": 2, "SID": 10701, "NameZh": "\u4e2d\u8208\u6771\u8def", "RouteId": 160, "SeqNo": 4, "Terminal": 0, "DistrictId": 1, "Latitude": 22.6914, "Longitude": 120.4344, "IVRNo": 9771, "EXTVoiceNo": 17138, "traveltime": 0, "holidayTraveltime": 0}, {"Id": "9217", "pgp": 0, "GoBack": 2, "SID": 10742, "NameZh": "\u5927\u6a39\u8fb2\u6703", "RouteId": 160, "SeqNo": 5, "Terminal": 0, "DistrictId": 1, "Latitude": 22.690884, "Longitude": 120.432193, "IVRNo": 9770, "EXTVoiceNo": 9217, "traveltime": 0, "holidayTraveltime": 0}, {"Id": "9216", "pgp": 0, "GoBack": 2, "SID": 10696, "NameZh": "\u5be6\u8e10\u8857", "RouteId": 160, "SeqNo": 6, "Terminal": 0, "DistrictId": 1, "Latitude": 22.688963, "Longitude": 120.431217, "IVRNo": 9769, "EXTVoiceNo": 9216, "traveltime": 0, "holidayTraveltime": 0}, {"Id": "9215", "pgp": 0, "GoBack": 2, "SID": 12705, "NameZh": "\u65b0\u5409\u5e84", "RouteId": 160, "SeqNo": 7, "Terminal": 0, "DistrictId": 1, "Latitude": 22.686648, "Longitude": 120.430202, "IVRNo": 9768, "EXTVoiceNo": 9215, "traveltime": 0, "holidayTraveltime": 0}, {"Id": "1001", "pgp": 0, "GoBack": 2, "SID": 12706, "NameZh": "\u71df\u623f(\u5927\u6a39)", "RouteId": 160, "SeqNo": 8, "Terminal": 0, "DistrictId": 1, "Latitude": 22.679872, "Longitude": 120.426126, "IVRNo": 1001, "EXTVoiceNo": 1001, "traveltime": 0, "holidayTraveltime": 0}, {"Id": "9214", "pgp": 0, "GoBack": 2, "SID": 12707, "NameZh": "\u516c\u9928(\u5927\u6a39)", "RouteId": 160, "SeqNo": 9, "Terminal": 0, "DistrictId": 1, "Latitude": 22.677265, "Longitude": 120.425359, "IVRNo": 1176, "EXTVoiceNo": 9214, "traveltime": 0, "holidayTraveltime": 0}, {"Id": "9213", "pgp": 0, "GoBack": 2, "SID": 12708, "NameZh": "\u7da0\u967d\u5c71\u838a", "RouteId": 160, "SeqNo": 10, "Terminal": 0, "DistrictId": 1, "Latitude": 22.674116, "Longitude": 120.425968, "IVRNo": 9765, "EXTVoiceNo": 9213, "traveltime": 0, "holidayTraveltime": 0}, {"Id": "9212", "pgp": 0, "GoBack": 2, "SID": 12709, "NameZh": "\u7af9\u5bee", "RouteId": 160, "SeqNo": 11, "Terminal": 0, "DistrictId": 1, "Latitude": 22.672051, "Longitude": 120.426121, "IVRNo": 9764, "EXTVoiceNo": 9212, "traveltime": 0, "holidayTraveltime": 0}, {"Id": "9211", "pgp": 0, "GoBack": 2, "SID": 10689, "NameZh": "\u96c4\u7345\u5927\u5730", "RouteId": 160, "SeqNo": 12, "Terminal": 0, "DistrictId": 1, "Latitude": 22.66964, "Longitude": 120.426196, "IVRNo": 9763, "EXTVoiceNo": 9211, "traveltime": 0, "holidayTraveltime": 0}, {"Id": "9302", "pgp": 0, "GoBack": 2, "SID": 10690, "NameZh": "\u7af9\u5bee\u5c71\u89c0\u5149\u9152\u5ee0", "RouteId": 160, "SeqNo": 13, "Terminal": 0, "DistrictId": 1, "Latitude": 22.66838, "Longitude": 120.42612, "IVRNo": 9926, "EXTVoiceNo": 9302, "traveltime": 0, "holidayTraveltime": 0}, {"Id": "8955", "pgp": 0, "GoBack": 2, "SID": 6010, "NameZh": "\u820a\u9435\u6a4b\u6ebc\u5730(\u4e09\u548c\u74e6\u7aaf)", "RouteId": 160, "SeqNo": 14, "Terminal": 0, "DistrictId": 1, "Latitude": 22.661913, "Longitude": 120.426469, "IVRNo": 9381, "EXTVoiceNo": 8955, "traveltime": 0, "holidayTraveltime": 0}, {"Id": "9303", "pgp": 0, "GoBack": 2, "SID": 10712, "NameZh": "\u8fb2\u53cb\u7a2e\u82d7", "RouteId": 160, "SeqNo": 15, "Terminal": 0, "DistrictId": 1, "Latitude": 22.660769, "Longitude": 120.426207, "IVRNo": 9925, "EXTVoiceNo": 9303, "traveltime": 0, "holidayTraveltime": 0}, {"Id": "8954", "pgp": 0, "GoBack": 2, "SID": 6011, "NameZh": "\u4e5d\u5927\u52a0\u6cb9\u7ad9", "RouteId": 160, "SeqNo": 16, "Terminal": 0, "DistrictId": 1, "Latitude": 22.659109, "Longitude": 120.425477, "IVRNo": 9380, "EXTVoiceNo": 8954, "traveltime": 0, "holidayTraveltime": 0}, {"Id": "9210", "pgp": 0, "GoBack": 2, "SID": 11367, "NameZh": "\u5927\u6a39\u570b\u4e2d", "RouteId": 160, "SeqNo": 17, "Terminal": 0, "DistrictId": 1, "Latitude": 22.656334, "Longitude": 120.42273, "IVRNo": 8913, "EXTVoiceNo": 9210, "traveltime": 0, "holidayTraveltime": 0}, {"Id": "8953", "pgp": 0, "GoBack": 2, "SID": 12712, "NameZh": "\u4e5d\u66f2\u8def\u53e3", "RouteId": 160, "SeqNo": 18, "Terminal": 0, "DistrictId": 1, "Latitude": 22.6542, "Longitude": 120.423884, "IVRNo": 9761, "EXTVoiceNo": 8953, "traveltime": 0, "holidayTraveltime": 0}, {"Id": "8952", "pgp": 0, "GoBack": 2, "SID": 6013, "NameZh": "\u5e84\u5167(\u4e5d\u66f2\u5317\u6975\u6bbf)", "RouteId": 160, "SeqNo": 19, "Terminal": 0, "DistrictId": 1, "Latitude": 22.65275, "Longitude": 120.423632, "IVRNo": 9378, "EXTVoiceNo": 8952, "traveltime": 0, "holidayTraveltime": 0}, {"Id": "8951", "pgp": 0, "GoBack": 2, "SID": 6014, "NameZh": "\u4e5d\u66f2\u91cc", "RouteId": 160, "SeqNo": 20, "Terminal": 0, "DistrictId": 1, "Latitude": 22.6484, "Longitude": 120.4213, "IVRNo": 9377, "EXTVoiceNo": 8951, "traveltime": 0, "holidayTraveltime": 0}, {"Id": "8950", "pgp": 0, "GoBack": 2, "SID": 6015, "NameZh": "\u4e45\u5802\u91cc(\u4e5d\u66f2\u5802\u706b\u8eca\u7ad9)", "RouteId": 160, "SeqNo": 21, "Terminal": 0, "DistrictId": 1, "Latitude": 22.657596, "Longitude": 120.417497, "IVRNo": 9387, "EXTVoiceNo": 8950, "traveltime": 0, "holidayTraveltime": 0}, {"Id": "8949", "pgp": 0, "GoBack": 2, "SID": 6016, "NameZh": "\u6e56\u5e95\u6a4b(\u5927\u6a39)", "RouteId": 160, "SeqNo": 22, "Terminal": 0, "DistrictId": 1, "Latitude": 22.6582, "Longitude": 120.4157, "IVRNo": 9375, "EXTVoiceNo": 8949, "traveltime": 0, "holidayTraveltime": 0}, {"Id": "8948", "pgp": 0, "GoBack": 2, "SID": 6017, "NameZh": "\u6c34\u5b89\u91cc", "RouteId": 160, "SeqNo": 23, "Terminal": 0, "DistrictId": 1, "Latitude": 22.6627, "Longitude": 120.4109, "IVRNo": 9374, "EXTVoiceNo": 8948, "traveltime": 0, "holidayTraveltime": 0}, {"Id": "8947", "pgp": 0, "GoBack": 2, "SID": 6018, "NameZh": "\u6c34\u5bee", "RouteId": 160, "SeqNo": 24, "Terminal": 0, "DistrictId": 1, "Latitude": 22.6655, "Longitude": 120.4096, "IVRNo": 9373, "EXTVoiceNo": 8947, "traveltime": 0, "holidayTraveltime": 0}, {"Id": "8946", "pgp": 0, "GoBack": 2, "SID": 6019, "NameZh": "\u6c34\u5bee\u4e2d\u5c71\u8def", "RouteId": 160, "SeqNo": 25, "Terminal": 0, "DistrictId": 1, "Latitude": 22.667, "Longitude": 120.4091, "IVRNo": 9372, "EXTVoiceNo": 8946, "traveltime": 0, "holidayTraveltime": 0}, {"Id": "8945", "pgp": 0, "GoBack": 2, "SID": 6020, "NameZh": "\u6c34\u5bee\u570b\u5c0f", "RouteId": 160, "SeqNo": 26, "Terminal": 0, "DistrictId": 1, "Latitude": 22.667121, "Longitude": 120.408102, "IVRNo": 9371, "EXTVoiceNo": 8945, "traveltime": 0, "holidayTraveltime": 0}, {"Id": "9209", "pgp": 0, "GoBack": 2, "SID": 10714, "NameZh": "\u6c34\u5bee\u4e2d\u83ef\u8def", "RouteId": 160, "SeqNo": 27, "Terminal": 0, "DistrictId": 1, "Latitude": 22.663363, "Longitude": 120.40444, "IVRNo": 9760, "EXTVoiceNo": 9209, "traveltime": 0, "holidayTraveltime": 0}, {"Id": "8944", "pgp": 0, "GoBack": 2, "SID": 6021, "NameZh": "\u6c34\u7f8e\u52a0\u6cb9\u7ad9", "RouteId": 160, "SeqNo": 28, "Terminal": 0, "DistrictId": 1, "Latitude": 22.6586, "Longitude": 120.3995, "IVRNo": 9370, "EXTVoiceNo": 8944, "traveltime": 0, "holidayTraveltime": 0}, {"Id": "8943", "pgp": 0, "GoBack": 2, "SID": 6022, "NameZh": "\u4ec1\u7f8e\u570b\u5c0f", "RouteId": 160, "SeqNo": 29, "Terminal": 0, "DistrictId": 1, "Latitude": 22.657972, "Longitude": 120.394495, "IVRNo": 9369, "EXTVoiceNo": 8943, "traveltime": 0, "holidayTraveltime": 0}, {"Id": "9020", "pgp": 0, "GoBack": 2, "SID": 10715, "NameZh": "\u9ad8\u78bc", "RouteId": 160, "SeqNo": 30, "Terminal": 0, "DistrictId": 1, "Latitude": 22.658161, "Longitude": 120.389112, "IVRNo": 9538, "EXTVoiceNo": 9020, "traveltime": 0, "holidayTraveltime": 0}, {"Id": "8942", "pgp": 0, "GoBack": 2, "SID": 6023, "NameZh": "\u5754\u57d4", "RouteId": 160, "SeqNo": 31, "Terminal": 0, "DistrictId": 1, "Latitude": 22.658044, "Longitude": 120.384522, "IVRNo": 9368, "EXTVoiceNo": 8942, "traveltime": 0, "holidayTraveltime": 0}, {"Id": "2632", "pgp": 0, "GoBack": 2, "SID": 10716, "NameZh": "\u677e\u57d4\u8def\u53e3(\u5713\u7167\u5bfa)", "RouteId": 160, "SeqNo": 32, "Terminal": 0, "DistrictId": 1, "Latitude": 22.6591, "Longitude": 120.3802, "IVRNo": 5690, "EXTVoiceNo": 2632, "traveltime": 0, "holidayTraveltime": 0}, {"Id": "0243", "pgp": 0, "GoBack": 2, "SID": 9064, "NameZh": "\u6c34\u7ba1\u8def\u53e3(\u795e\u8fb2\u8def)", "RouteId": 160, "SeqNo": 33, "Terminal": 0, "DistrictId": 1, "Latitude": 22.659614, "Longitude": 120.373377, "IVRNo": 1238, "EXTVoiceNo": 20243, "traveltime": 0, "holidayTraveltime": 0}, {"Id": "4332", "pgp": 0, "GoBack": 2, "SID": 6024, "NameZh": "\u9ce5\u677e\u5340\u516c\u6240(\u795e\u8fb2\u8def)", "RouteId": 160, "SeqNo": 34, "Terminal": 0, "DistrictId": 1, "Latitude": 22.6593, "Longitude": 120.3652, "IVRNo": 9367, "EXTVoiceNo": 14332, "traveltime": 0, "holidayTraveltime": 0}, {"Id": "7705", "pgp": 0, "GoBack": 2, "SID": 2592, "NameZh": "\u5fe0\u8aa0\u8def\u53e3", "RouteId": 160, "SeqNo": 35, "Terminal": 0, "DistrictId": 1, "Latitude": 22.658, "Longitude": 120.3609, "IVRNo": 864, "EXTVoiceNo": 7705, "traveltime": 0, "holidayTraveltime": 0}, {"Id": "1912", "pgp": 0, "GoBack": 2, "SID": 2548, "NameZh": "\u6f84\u6e05\u6e56\u68d2\u7403\u5834", "RouteId": 160, "SeqNo": 36, "Terminal": 0, "DistrictId": 1, "Latitude": 22.6553, "Longitude": 120.36, "IVRNo": 11912, "EXTVoiceNo": 11912, "traveltime": 0, "holidayTraveltime": 0}, {"Id": "8941", "pgp": 0, "GoBack": 2, "SID": 6040, "NameZh": "\u52de\u5de5\u80b2\u6a02\u4e2d\u5fc3", "RouteId": 160, "SeqNo": 37, "Terminal": 0, "DistrictId": 1, "Latitude": 22.652809, "Longitude": 120.359709, "IVRNo": 9411, "EXTVoiceNo": 8941, "traveltime": 0, "holidayTraveltime": 0}, {"Id": "3534", "pgp": 0, "GoBack": 2, "SID": 2550, "NameZh": "\u9577\u5e9a\u91ab\u9662", "RouteId": 160, "SeqNo": 38, "Terminal": 0, "DistrictId": 1, "Latitude": 22.650933, "Longitude": 120.356409, "IVRNo": 3534, "EXTVoiceNo": 3534, "traveltime": 0, "holidayTraveltime": 0}, {"Id": "0636", "pgp": 0, "GoBack": 2, "SID": 2563, "NameZh": "\u6b63\u4fee\u79d1\u5927(\u6f84\u6e05\u6e56)", "RouteId": 160, "SeqNo": 39, "Terminal": 0, "DistrictId": 1, "Latitude": 22.651522, "Longitude": 120.348916, "IVRNo": 3533, "EXTVoiceNo": 10636, "traveltime": 0, "holidayTraveltime": 0}, {"Id": "8939", "pgp": 0, "GoBack": 2, "SID": 6032, "NameZh": "\u6f84\u5712", "RouteId": 160, "SeqNo": 40, "Terminal": 0, "DistrictId": 1, "Latitude": 22.6471, "Longitude": 120.3475, "IVRNo": 9403, "EXTVoiceNo": 8939, "traveltime": 0, "holidayTraveltime": 0}, {"Id": "8938", "pgp": 0, "GoBack": 2, "SID": 6033, "NameZh": "\u6ff1\u5c71\u8857\u53e3", "RouteId": 160, "SeqNo": 41, "Terminal": 0, "DistrictId": 1, "Latitude": 22.6451, "Longitude": 120.3501, "IVRNo": 9402, "EXTVoiceNo": 8938, "traveltime": 0, "holidayTraveltime": 0}, {"Id": "8937", "pgp": 0, "GoBack": 2, "SID": 6034, "NameZh": "\u6587\u8861\u8def\u53e3", "RouteId": 160, "SeqNo": 42, "Terminal": 0, "DistrictId": 1, "Latitude": 22.641284, "Longitude": 120.351276, "IVRNo": 451, "EXTVoiceNo": 8937, "traveltime": 0, "holidayTraveltime": 0}, {"Id": "8956", "pgp": 0, "GoBack": 2, "SID": 6035, "NameZh": "\u6587\u5fb7\u570b\u5c0f", "RouteId": 160, "SeqNo": 43, "Terminal": 0, "DistrictId": 1, "Latitude": 22.640353, "Longitude": 120.353508, "IVRNo": 9400, "EXTVoiceNo": 8956, "traveltime": 0, "holidayTraveltime": 0}, {"Id": "9010", "pgp": 0, "GoBack": 2, "SID": 10717, "NameZh": "\u6587\u5c71\u91cc", "RouteId": 160, "SeqNo": 44, "Terminal": 0, "DistrictId": 1, "Latitude": 22.6395, "Longitude": 120.3565, "IVRNo": 9518, "EXTVoiceNo": 9010, "traveltime": 0, "holidayTraveltime": 0}, {"Id": "9003", "pgp": 0, "GoBack": 2, "SID": 10718, "NameZh": "\u516b\u5fb7\u8def", "RouteId": 160, "SeqNo": 45, "Terminal": 0, "DistrictId": 1, "Latitude": 22.638313, "Longitude": 120.359323, "IVRNo": 9517, "EXTVoiceNo": 9003, "traveltime": 0, "holidayTraveltime": 0}, {"Id": "9004", "pgp": 0, "GoBack": 2, "SID": 10719, "NameZh": "\u5efa\u570b\u65b0\u57ce(\u6587\u8861\u8def\u53e3)", "RouteId": 160, "SeqNo": 46, "Terminal": 0, "DistrictId": 1, "Latitude": 22.636055, "Longitude": 120.359087, "IVRNo": 9516, "EXTVoiceNo": 9004, "traveltime": 0, "holidayTraveltime": 0}, {"Id": "8936", "pgp": 0, "GoBack": 2, "SID": 6036, "NameZh": "\u9cf3\u5c71\u5546\u5de5", "RouteId": 160, "SeqNo": 47, "Terminal": 0, "DistrictId": 1, "Latitude": 22.634392, "Longitude": 120.358239, "IVRNo": 148, "EXTVoiceNo": 8936, "traveltime": 0, "holidayTraveltime": 0}, {"Id": "9009", "pgp": 0, "GoBack": 2, "SID": 10720, "NameZh": "\u5927\u6f64\u767c", "RouteId": 160, "SeqNo": 48, "Terminal": 0, "DistrictId": 1, "Latitude": 22.633755, "Longitude": 120.35567, "IVRNo": 9515, "EXTVoiceNo": 9009, "traveltime": 0, "holidayTraveltime": 0}, {"Id": "8935", "pgp": 0, "GoBack": 2, "SID": 6037, "NameZh": "\u6587\u83ef\u570b\u5c0f", "RouteId": 160, "SeqNo": 49, "Terminal": 0, "DistrictId": 1, "Latitude": 22.634382, "Longitude": 120.352135, "IVRNo": 9398, "EXTVoiceNo": 8935, "traveltime": 0, "holidayTraveltime": 0}, {"Id": "2498", "pgp": 0, "GoBack": 2, "SID": 19018, "NameZh": "\u9cf3\u5c71\u884c\u653f\u4e2d\u5fc3(\u6f84\u6e05\u8def)", "RouteId": 160, "SeqNo": 50, "Terminal": 0, "DistrictId": 1, "Latitude": 22.630033, "Longitude": 120.344378, "IVRNo": 2498, "EXTVoiceNo": 2498, "traveltime": 0, "holidayTraveltime": 0}, {"Id": "3528", "pgp": 0, "GoBack": 2, "SID": 3604, "NameZh": "\u9cf3\u5c71\u884c\u653f\u4e2d\u5fc3(\u4e2d\u5c71\u897f\u8def)", "RouteId": 160, "SeqNo": 51, "Terminal": 0, "DistrictId": 1, "Latitude": 22.628133, "Longitude": 120.343836, "IVRNo": 502, "EXTVoiceNo": 13528, "traveltime": 0, "holidayTraveltime": 0}, {"Id": "0980", "pgp": 0, "GoBack": 2, "SID": 2063, "NameZh": "\u570b\u8ecd\u9ad8\u96c4\u7e3d\u91ab\u9662", "RouteId": 160, "SeqNo": 52, "Terminal": 0, "DistrictId": 1, "Latitude": 22.626747, "Longitude": 120.342243, "IVRNo": 2, "EXTVoiceNo": 20980, "traveltime": 0, "holidayTraveltime": 0}, {"Id": "0002", "pgp": 0, "GoBack": 2, "SID": 6, "NameZh": "\u5efa\u8ecd\u7ad9(\u6377\u904b\u885b\u6b66\u71df\u7ad9)", "RouteId": 160, "SeqNo": 53, "Terminal": 1, "DistrictId": 1, "Latitude": 22.624966, "Longitude": 120.343291, "IVRNo": 1, "EXTVoiceNo": 2, "traveltime": 0, "holidayTraveltime": 0}]}