{"en": [{"Id": "2303", "pgp": 0, "GoBack": 1, "SID": 18424, "NameZh": "Minsheng 2nd Village", "RouteId": 86, "SeqNo": 1, "Terminal": 0, "DistrictId": 1, "Latitude": 23.279189, "Longitude": 120.719569, "IVRNo": 8642, "EXTVoiceNo": 32303, "traveltime": 0, "holidayTraveltime": 0}, {"Id": "2305", "pgp": 0, "GoBack": 1, "SID": 18425, "NameZh": "Namasia", "RouteId": 86, "SeqNo": 2, "Terminal": 0, "DistrictId": 1, "Latitude": 23.225421, "Longitude": 120.694089, "IVRNo": 8643, "EXTVoiceNo": 32305, "traveltime": 0, "holidayTraveltime": 0}, {"Id": "2307", "pgp": 0, "GoBack": 1, "SID": 18426, "NameZh": "Si An Mountain", "RouteId": 86, "SeqNo": 3, "Terminal": 0, "DistrictId": 1, "Latitude": 23.211265, "Longitude": 120.668485, "IVRNo": 8644, "EXTVoiceNo": 32307, "traveltime": 0, "holidayTraveltime": 0}, {"Id": "2302", "pgp": 0, "GoBack": 1, "SID": 18430, "NameZh": "Siaolin", "RouteId": 86, "SeqNo": 4, "Terminal": 0, "DistrictId": 1, "Latitude": 23.162375, "Longitude": 120.639851, "IVRNo": 8648, "EXTVoiceNo": 32302, "traveltime": 0, "holidayTraveltime": 0}, {"Id": "6084", "pgp": 0, "GoBack": 1, "SID": 13982, "NameZh": "Wulipu (Siaolin Elementary School)", "RouteId": 86, "SeqNo": 5, "Terminal": 0, "DistrictId": 1, "Latitude": 23.147877, "Longitude": 120.63074, "IVRNo": 10345, "EXTVoiceNo": 26084, "traveltime": 0, "holidayTraveltime": 0}, {"Id": "3439", "pgp": 0, "GoBack": 1, "SID": 13989, "NameZh": "Guanshan Village", "RouteId": 86, "SeqNo": 6, "Terminal": 0, "DistrictId": 1, "Latitude": 23.112655, "Longitude": 120.606116, "IVRNo": 13439, "EXTVoiceNo": 13439, "traveltime": 0, "holidayTraveltime": 0}, {"Id": "6087", "pgp": 0, "GoBack": 1, "SID": 13995, "NameZh": "Jiasian District Office, Health Center", "RouteId": 86, "SeqNo": 7, "Terminal": 0, "DistrictId": 1, "Latitude": 23.08391, "Longitude": 120.58816, "IVRNo": 13298, "EXTVoiceNo": 26087, "traveltime": 0, "holidayTraveltime": 0}, {"Id": "0345", "pgp": 0, "GoBack": 1, "SID": 13996, "NameZh": "Jiasian Station", "RouteId": 86, "SeqNo": 8, "Terminal": 0, "DistrictId": 1, "Latitude": 23.082619, "Longitude": 120.5879, "IVRNo": 10704, "EXTVoiceNo": 20345, "traveltime": 0, "holidayTraveltime": 0}, {"Id": "3393", "pgp": 0, "GoBack": 1, "SID": 13999, "NameZh": "Sinrong Lane", "RouteId": 86, "SeqNo": 9, "Terminal": 0, "DistrictId": 1, "Latitude": 23.070222, "Longitude": 120.578634, "IVRNo": 11662, "EXTVoiceNo": 13393, "traveltime": 0, "holidayTraveltime": 0}, {"Id": "3362", "pgp": 0, "GoBack": 1, "SID": 14004, "NameZh": "Paozihliao", "RouteId": 86, "SeqNo": 10, "Terminal": 0, "DistrictId": 1, "Latitude": 23.048394, "Longitude": 120.554485, "IVRNo": 13362, "EXTVoiceNo": 13362, "traveltime": 0, "holidayTraveltime": 0}, {"Id": "0026", "pgp": 0, "GoBack": 1, "SID": 9802, "NameZh": "Shihjhangli", "RouteId": 86, "SeqNo": 11, "Terminal": 0, "DistrictId": 1, "Latitude": 23.02256, "Longitude": 120.56293, "IVRNo": 10062, "EXTVoiceNo": 20026, "traveltime": 0, "holidayTraveltime": 0}, {"Id": "0124", "pgp": 0, "GoBack": 1, "SID": 14015, "NameZh": "Siaofenwei", "RouteId": 86, "SeqNo": 12, "Terminal": 0, "DistrictId": 1, "Latitude": 22.999221, "Longitude": 120.573239, "IVRNo": 10241, "EXTVoiceNo": 20124, "traveltime": 0, "holidayTraveltime": 0}, {"Id": "3385", "pgp": 0, "GoBack": 1, "SID": 14021, "NameZh": "Sinjhuang Elementary School", "RouteId": 86, "SeqNo": 13, "Terminal": 0, "DistrictId": 1, "Latitude": 22.987184, "Longitude": 120.561704, "IVRNo": 11624, "EXTVoiceNo": 13385, "traveltime": 0, "holidayTraveltime": 0}, {"Id": "3309", "pgp": 0, "GoBack": 1, "SID": 14028, "NameZh": "Shanlin District Office (Health Center)", "RouteId": 86, "SeqNo": 14, "Terminal": 0, "DistrictId": 1, "Latitude": 22.972111, "Longitude": 120.540037, "IVRNo": 13309, "EXTVoiceNo": 13309, "traveltime": 0, "holidayTraveltime": 0}, {"Id": "6078", "pgp": 0, "GoBack": 1, "SID": 14030, "NameZh": "Daai Village", "RouteId": 86, "SeqNo": 15, "Terminal": 0, "DistrictId": 1, "Latitude": 22.967, "Longitude": 120.54338, "IVRNo": 9744, "EXTVoiceNo": 26078, "traveltime": 0, "holidayTraveltime": 0}, {"Id": "3311", "pgp": 0, "GoBack": 1, "SID": 14034, "NameZh": "Shanlin Farmers` Association", "RouteId": 86, "SeqNo": 16, "Terminal": 0, "DistrictId": 1, "Latitude": 22.964291, "Longitude": 120.532108, "IVRNo": 10854, "EXTVoiceNo": 13311, "traveltime": 0, "holidayTraveltime": 0}, {"Id": "3381", "pgp": 0, "GoBack": 1, "SID": 14040, "NameZh": "Yuantan", "RouteId": 86, "SeqNo": 17, "Terminal": 0, "DistrictId": 1, "Latitude": 22.932533, "Longitude": 120.503374, "IVRNo": 11580, "EXTVoiceNo": 13381, "traveltime": 0, "holidayTraveltime": 0}, {"Id": "3413", "pgp": 0, "GoBack": 1, "SID": 14049, "NameZh": "Ci Shan Agricultural and Industrial Senior High School", "RouteId": 86, "SeqNo": 18, "Terminal": 0, "DistrictId": 1, "Latitude": 22.90194, "Longitude": 120.483244, "IVRNo": 1255, "EXTVoiceNo": 13413, "traveltime": 0, "holidayTraveltime": 0}, {"Id": "3414", "pgp": 0, "GoBack": 1, "SID": 14051, "NameZh": "Cishan District Public Health Center", "RouteId": 86, "SeqNo": 19, "Terminal": 0, "DistrictId": 1, "Latitude": 22.890262, "Longitude": 120.480133, "IVRNo": 13414, "EXTVoiceNo": 13414, "traveltime": 0, "holidayTraveltime": 0}, {"Id": "9718", "pgp": 0, "GoBack": 1, "SID": 14052, "NameZh": "Yanping Rd. (Cishan District Office)", "RouteId": 86, "SeqNo": 20, "Terminal": 0, "DistrictId": 1, "Latitude": 22.887674, "Longitude": 120.483179, "IVRNo": 9718, "EXTVoiceNo": 9718, "traveltime": 0, "holidayTraveltime": 0}, {"Id": "3412", "pgp": 0, "GoBack": 1, "SID": 14054, "NameZh": "Cishan Bus Transfer Station", "RouteId": 86, "SeqNo": 21, "Terminal": 0, "DistrictId": 1, "Latitude": 22.8835, "Longitude": 120.48461, "IVRNo": 9717, "EXTVoiceNo": 13412, "traveltime": 0, "holidayTraveltime": 0}, {"Id": "3422", "pgp": 0, "GoBack": 1, "SID": 18465, "NameZh": "Dechang Rd.-Cishan Hospital", "RouteId": 86, "SeqNo": 22, "Terminal": 0, "DistrictId": 1, "Latitude": 22.880445, "Longitude": 120.48378, "IVRNo": 1069, "EXTVoiceNo": 13422, "traveltime": 0, "holidayTraveltime": 0}, {"Id": "1702", "pgp": 0, "GoBack": 1, "SID": 14067, "NameZh": "Sijhou", "RouteId": 86, "SeqNo": 23, "Terminal": 0, "DistrictId": 1, "Latitude": 22.843748, "Longitude": 120.464513, "IVRNo": 11702, "EXTVoiceNo": 11702, "traveltime": 0, "holidayTraveltime": 0}, {"Id": "0900", "pgp": 0, "GoBack": 1, "SID": 14073, "NameZh": "Shanghe", "RouteId": 86, "SeqNo": 24, "Terminal": 0, "DistrictId": 1, "Latitude": 22.814795, "Longitude": 120.461609, "IVRNo": 10900, "EXTVoiceNo": 10900, "traveltime": 0, "holidayTraveltime": 0}, {"Id": "7602", "pgp": 0, "GoBack": 1, "SID": 14076, "NameZh": "E-Da Hospital", "RouteId": 86, "SeqNo": 25, "Terminal": 0, "DistrictId": 1, "Latitude": 22.76495, "Longitude": 120.36415, "IVRNo": 7126, "EXTVoiceNo": 7602, "traveltime": 0, "holidayTraveltime": 0}, {"Id": "3534", "pgp": 0, "GoBack": 1, "SID": 14087, "NameZh": "Chang Gung Memorial Hospital", "RouteId": 86, "SeqNo": 26, "Terminal": 0, "DistrictId": 1, "Latitude": 22.650821, "Longitude": 120.35674, "IVRNo": 3534, "EXTVoiceNo": 3534, "traveltime": 0, "holidayTraveltime": 0}, {"Id": "3534", "pgp": 0, "GoBack": 2, "SID": 14088, "NameZh": "Chang Gung Memorial Hospital", "RouteId": 86, "SeqNo": 1, "Terminal": 0, "DistrictId": 1, "Latitude": 22.65078, "Longitude": 120.35681, "IVRNo": 3534, "EXTVoiceNo": 3534, "traveltime": 0, "holidayTraveltime": 0}, {"Id": "7602", "pgp": 0, "GoBack": 2, "SID": 14098, "NameZh": "E-Da Hospital", "RouteId": 86, "SeqNo": 2, "Terminal": 0, "DistrictId": 1, "Latitude": 22.76495, "Longitude": 120.36415, "IVRNo": 7126, "EXTVoiceNo": 7602, "traveltime": 0, "holidayTraveltime": 0}, {"Id": "0900", "pgp": 0, "GoBack": 2, "SID": 14102, "NameZh": "Shanghe", "RouteId": 86, "SeqNo": 3, "Terminal": 0, "DistrictId": 1, "Latitude": 22.81473, "Longitude": 120.46171, "IVRNo": 10900, "EXTVoiceNo": 10900, "traveltime": 0, "holidayTraveltime": 0}, {"Id": "1702", "pgp": 0, "GoBack": 2, "SID": 14108, "NameZh": "Sijhou", "RouteId": 86, "SeqNo": 4, "Terminal": 0, "DistrictId": 1, "Latitude": 22.8437, "Longitude": 120.46456, "IVRNo": 11702, "EXTVoiceNo": 11702, "traveltime": 0, "holidayTraveltime": 0}, {"Id": "3422", "pgp": 0, "GoBack": 2, "SID": 18489, "NameZh": "Dechang Rd.-Cishan Hospital", "RouteId": 86, "SeqNo": 5, "Terminal": 0, "DistrictId": 1, "Latitude": 22.880418, "Longitude": 120.483857, "IVRNo": 1069, "EXTVoiceNo": 13422, "traveltime": 0, "holidayTraveltime": 0}, {"Id": "3412", "pgp": 0, "GoBack": 2, "SID": 14121, "NameZh": "Cishan Bus Transfer Station", "RouteId": 86, "SeqNo": 6, "Terminal": 0, "DistrictId": 1, "Latitude": 22.883438, "Longitude": 120.484586, "IVRNo": 9717, "EXTVoiceNo": 13412, "traveltime": 0, "holidayTraveltime": 0}, {"Id": "9718", "pgp": 0, "GoBack": 2, "SID": 14122, "NameZh": "Yanping Rd. (Cishan District Office)", "RouteId": 86, "SeqNo": 7, "Terminal": 0, "DistrictId": 1, "Latitude": 22.88745, "Longitude": 120.48318, "IVRNo": 9718, "EXTVoiceNo": 9718, "traveltime": 0, "holidayTraveltime": 0}, {"Id": "3414", "pgp": 0, "GoBack": 2, "SID": 14123, "NameZh": "Cishan District Public Health Center", "RouteId": 86, "SeqNo": 8, "Terminal": 0, "DistrictId": 1, "Latitude": 22.89025, "Longitude": 120.48015, "IVRNo": 13414, "EXTVoiceNo": 13414, "traveltime": 0, "holidayTraveltime": 0}, {"Id": "3413", "pgp": 0, "GoBack": 2, "SID": 14125, "NameZh": "Ci Shan Agricultural and Industrial Senior High School", "RouteId": 86, "SeqNo": 9, "Terminal": 0, "DistrictId": 1, "Latitude": 22.90193, "Longitude": 120.4833, "IVRNo": 1255, "EXTVoiceNo": 13413, "traveltime": 0, "holidayTraveltime": 0}, {"Id": "3381", "pgp": 0, "GoBack": 2, "SID": 14134, "NameZh": "Yuantan", "RouteId": 86, "SeqNo": 10, "Terminal": 0, "DistrictId": 1, "Latitude": 22.93268, "Longitude": 120.50353, "IVRNo": 11580, "EXTVoiceNo": 13381, "traveltime": 0, "holidayTraveltime": 0}, {"Id": "3311", "pgp": 0, "GoBack": 2, "SID": 14140, "NameZh": "Shanlin Farmers` Association", "RouteId": 86, "SeqNo": 11, "Terminal": 0, "DistrictId": 1, "Latitude": 22.964271, "Longitude": 120.532089, "IVRNo": 10854, "EXTVoiceNo": 13311, "traveltime": 0, "holidayTraveltime": 0}, {"Id": "6078", "pgp": 0, "GoBack": 2, "SID": 14144, "NameZh": "Daai Village", "RouteId": 86, "SeqNo": 12, "Terminal": 0, "DistrictId": 1, "Latitude": 22.967, "Longitude": 120.54338, "IVRNo": 9744, "EXTVoiceNo": 26078, "traveltime": 0, "holidayTraveltime": 0}, {"Id": "3309", "pgp": 0, "GoBack": 2, "SID": 14146, "NameZh": "Shanlin District Office (Health Center)", "RouteId": 86, "SeqNo": 13, "Terminal": 0, "DistrictId": 1, "Latitude": 22.97193, "Longitude": 120.53996, "IVRNo": 13309, "EXTVoiceNo": 13309, "traveltime": 0, "holidayTraveltime": 0}, {"Id": "3385", "pgp": 0, "GoBack": 2, "SID": 14153, "NameZh": "Sinjhuang Elementary School", "RouteId": 86, "SeqNo": 14, "Terminal": 0, "DistrictId": 1, "Latitude": 22.98715, "Longitude": 120.56158, "IVRNo": 11624, "EXTVoiceNo": 13385, "traveltime": 0, "holidayTraveltime": 0}, {"Id": "0124", "pgp": 0, "GoBack": 2, "SID": 14159, "NameZh": "Siaofenwei", "RouteId": 86, "SeqNo": 15, "Terminal": 0, "DistrictId": 1, "Latitude": 22.99921, "Longitude": 120.57328, "IVRNo": 10241, "EXTVoiceNo": 20124, "traveltime": 0, "holidayTraveltime": 0}, {"Id": "0026", "pgp": 0, "GoBack": 2, "SID": 9830, "NameZh": "Shihjhangli", "RouteId": 86, "SeqNo": 16, "Terminal": 0, "DistrictId": 1, "Latitude": 23.02233, "Longitude": 120.56306, "IVRNo": 10062, "EXTVoiceNo": 20026, "traveltime": 0, "holidayTraveltime": 0}, {"Id": "3362", "pgp": 0, "GoBack": 2, "SID": 14170, "NameZh": "Paozihliao", "RouteId": 86, "SeqNo": 17, "Terminal": 0, "DistrictId": 1, "Latitude": 23.04835, "Longitude": 120.5545, "IVRNo": 13362, "EXTVoiceNo": 13362, "traveltime": 0, "holidayTraveltime": 0}, {"Id": "3393", "pgp": 0, "GoBack": 2, "SID": 14175, "NameZh": "Sinrong Lane", "RouteId": 86, "SeqNo": 18, "Terminal": 0, "DistrictId": 1, "Latitude": 23.07026, "Longitude": 120.57868, "IVRNo": 11662, "EXTVoiceNo": 13393, "traveltime": 0, "holidayTraveltime": 0}, {"Id": "0345", "pgp": 0, "GoBack": 2, "SID": 14178, "NameZh": "Jiasian Station", "RouteId": 86, "SeqNo": 19, "Terminal": 0, "DistrictId": 1, "Latitude": 23.082619, "Longitude": 120.5879, "IVRNo": 10704, "EXTVoiceNo": 20345, "traveltime": 0, "holidayTraveltime": 0}, {"Id": "6087", "pgp": 0, "GoBack": 2, "SID": 14179, "NameZh": "Jiasian District Office, Health Center", "RouteId": 86, "SeqNo": 20, "Terminal": 0, "DistrictId": 1, "Latitude": 23.083798, "Longitude": 120.588306, "IVRNo": 13298, "EXTVoiceNo": 26087, "traveltime": 0, "holidayTraveltime": 0}, {"Id": "3439", "pgp": 0, "GoBack": 2, "SID": 14185, "NameZh": "Guanshan Village", "RouteId": 86, "SeqNo": 21, "Terminal": 0, "DistrictId": 1, "Latitude": 23.1126, "Longitude": 120.60595, "IVRNo": 13439, "EXTVoiceNo": 13439, "traveltime": 0, "holidayTraveltime": 0}, {"Id": "6084", "pgp": 0, "GoBack": 2, "SID": 14192, "NameZh": "Wulipu (Siaolin Elementary School)", "RouteId": 86, "SeqNo": 22, "Terminal": 0, "DistrictId": 1, "Latitude": 23.14786, "Longitude": 120.63076, "IVRNo": 10345, "EXTVoiceNo": 26084, "traveltime": 0, "holidayTraveltime": 0}, {"Id": "2302", "pgp": 0, "GoBack": 2, "SID": 18433, "NameZh": "Siaolin", "RouteId": 86, "SeqNo": 23, "Terminal": 0, "DistrictId": 1, "Latitude": 23.162375, "Longitude": 120.639851, "IVRNo": 8648, "EXTVoiceNo": 32302, "traveltime": 0, "holidayTraveltime": 0}, {"Id": "2307", "pgp": 0, "GoBack": 2, "SID": 18437, "NameZh": "Si An Mountain", "RouteId": 86, "SeqNo": 24, "Terminal": 0, "DistrictId": 1, "Latitude": 23.211125, "Longitude": 120.668679, "IVRNo": 8644, "EXTVoiceNo": 32307, "traveltime": 0, "holidayTraveltime": 0}, {"Id": "2305", "pgp": 0, "GoBack": 2, "SID": 18438, "NameZh": "Namasia", "RouteId": 86, "SeqNo": 25, "Terminal": 0, "DistrictId": 1, "Latitude": 23.225421, "Longitude": 120.694089, "IVRNo": 8643, "EXTVoiceNo": 32305, "traveltime": 0, "holidayTraveltime": 0}, {"Id": "2303", "pgp": 0, "GoBack": 2, "SID": 18439, "NameZh": "Minsheng 2nd Village", "RouteId": 86, "SeqNo": 26, "Terminal": 1, "DistrictId": 1, "Latitude": 23.279219, "Longitude": 120.719607, "IVRNo": 8642, "EXTVoiceNo": 32303, "traveltime": 0, "holidayTraveltime": 0}], "zh": [{"Id": "2303", "pgp": 0, "GoBack": 1, "SID": 18424, "NameZh": "\u6c11\u751f\u4e8c\u91cc", "RouteId": 86, "SeqNo": 1, "Terminal": 0, "DistrictId": 1, "Latitude": 23.279189, "Longitude": 120.719569, "IVRNo": 8642, "EXTVoiceNo": 32303, "traveltime": 0, "holidayTraveltime": 0}, {"Id": "2305", "pgp": 0, "GoBack": 1, "SID": 18425, "NameZh": "\u90a3\u746a\u590f", "RouteId": 86, "SeqNo": 2, "Terminal": 0, "DistrictId": 1, "Latitude": 23.225421, "Longitude": 120.694089, "IVRNo": 8643, "EXTVoiceNo": 32305, "traveltime": 0, "holidayTraveltime": 0}, {"Id": "2307", "pgp": 0, "GoBack": 1, "SID": 18426, "NameZh": "\u932b\u5b89\u5c71", "RouteId": 86, "SeqNo": 3, "Terminal": 0, "DistrictId": 1, "Latitude": 23.211265, "Longitude": 120.668485, "IVRNo": 8644, "EXTVoiceNo": 32307, "traveltime": 0, "holidayTraveltime": 0}, {"Id": "2302", "pgp": 0, "GoBack": 1, "SID": 18430, "NameZh": "\u5c0f\u6797", "RouteId": 86, "SeqNo": 4, "Terminal": 0, "DistrictId": 1, "Latitude": 23.162375, "Longitude": 120.639851, "IVRNo": 8648, "EXTVoiceNo": 32302, "traveltime": 0, "holidayTraveltime": 0}, {"Id": "6084", "pgp": 0, "GoBack": 1, "SID": 13982, "NameZh": "\u4e94\u91cc\u57d4(\u5c0f\u6797\u570b\u5c0f)", "RouteId": 86, "SeqNo": 5, "Terminal": 0, "DistrictId": 1, "Latitude": 23.147877, "Longitude": 120.63074, "IVRNo": 10345, "EXTVoiceNo": 26084, "traveltime": 0, "holidayTraveltime": 0}, {"Id": "3439", "pgp": 0, "GoBack": 1, "SID": 13989, "NameZh": "\u95dc\u5c71\u91cc", "RouteId": 86, "SeqNo": 6, "Terminal": 0, "DistrictId": 1, "Latitude": 23.112655, "Longitude": 120.606116, "IVRNo": 13439, "EXTVoiceNo": 13439, "traveltime": 0, "holidayTraveltime": 0}, {"Id": "6087", "pgp": 0, "GoBack": 1, "SID": 13995, "NameZh": "\u7532\u4ed9\u5340\u516c\u6240.\u885b\u751f\u6240", "RouteId": 86, "SeqNo": 7, "Terminal": 0, "DistrictId": 1, "Latitude": 23.08391, "Longitude": 120.58816, "IVRNo": 13298, "EXTVoiceNo": 26087, "traveltime": 0, "holidayTraveltime": 0}, {"Id": "0345", "pgp": 0, "GoBack": 1, "SID": 13996, "NameZh": "\u7532\u4ed9\u7ad9", "RouteId": 86, "SeqNo": 8, "Terminal": 0, "DistrictId": 1, "Latitude": 23.082619, "Longitude": 120.5879, "IVRNo": 10704, "EXTVoiceNo": 20345, "traveltime": 0, "holidayTraveltime": 0}, {"Id": "3393", "pgp": 0, "GoBack": 1, "SID": 13999, "NameZh": "\u65b0\u69ae\u5df7", "RouteId": 86, "SeqNo": 9, "Terminal": 0, "DistrictId": 1, "Latitude": 23.070222, "Longitude": 120.578634, "IVRNo": 11662, "EXTVoiceNo": 13393, "traveltime": 0, "holidayTraveltime": 0}, {"Id": "3362", "pgp": 0, "GoBack": 1, "SID": 14004, "NameZh": "\u530f\u5b50\u5bee", "RouteId": 86, "SeqNo": 10, "Terminal": 0, "DistrictId": 1, "Latitude": 23.048394, "Longitude": 120.554485, "IVRNo": 13362, "EXTVoiceNo": 13362, "traveltime": 0, "holidayTraveltime": 0}, {"Id": "0026", "pgp": 0, "GoBack": 1, "SID": 9802, "NameZh": "\u5341\u5f35\u7281", "RouteId": 86, "SeqNo": 11, "Terminal": 0, "DistrictId": 1, "Latitude": 23.02256, "Longitude": 120.56293, "IVRNo": 10062, "EXTVoiceNo": 20026, "traveltime": 0, "holidayTraveltime": 0}, {"Id": "0124", "pgp": 0, "GoBack": 1, "SID": 14015, "NameZh": "\u5c0f\u4efd\u5c3e", "RouteId": 86, "SeqNo": 12, "Terminal": 0, "DistrictId": 1, "Latitude": 22.999221, "Longitude": 120.573239, "IVRNo": 10241, "EXTVoiceNo": 20124, "traveltime": 0, "holidayTraveltime": 0}, {"Id": "3385", "pgp": 0, "GoBack": 1, "SID": 14021, "NameZh": "\u65b0\u5e84\u570b\u5c0f", "RouteId": 86, "SeqNo": 13, "Terminal": 0, "DistrictId": 1, "Latitude": 22.987184, "Longitude": 120.561704, "IVRNo": 11624, "EXTVoiceNo": 13385, "traveltime": 0, "holidayTraveltime": 0}, {"Id": "3309", "pgp": 0, "GoBack": 1, "SID": 14028, "NameZh": "\u6749\u6797\u5340\u516c\u6240(\u885b\u751f\u6240)", "RouteId": 86, "SeqNo": 14, "Terminal": 0, "DistrictId": 1, "Latitude": 22.972111, "Longitude": 120.540037, "IVRNo": 13309, "EXTVoiceNo": 13309, "traveltime": 0, "holidayTraveltime": 0}, {"Id": "6078", "pgp": 0, "GoBack": 1, "SID": 14030, "NameZh": "\u5927\u611b\u6751", "RouteId": 86, "SeqNo": 15, "Terminal": 0, "DistrictId": 1, "Latitude": 22.967, "Longitude": 120.54338, "IVRNo": 9744, "EXTVoiceNo": 26078, "traveltime": 0, "holidayTraveltime": 0}, {"Id": "3311", "pgp": 0, "GoBack": 1, "SID": 14034, "NameZh": "\u6749\u6797\u8fb2\u6703", "RouteId": 86, "SeqNo": 16, "Terminal": 0, "DistrictId": 1, "Latitude": 22.964291, "Longitude": 120.532108, "IVRNo": 10854, "EXTVoiceNo": 13311, "traveltime": 0, "holidayTraveltime": 0}, {"Id": "3381", "pgp": 0, "GoBack": 1, "SID": 14040, "NameZh": "\u5713\u6f6d", "RouteId": 86, "SeqNo": 17, "Terminal": 0, "DistrictId": 1, "Latitude": 22.932533, "Longitude": 120.503374, "IVRNo": 11580, "EXTVoiceNo": 13381, "traveltime": 0, "holidayTraveltime": 0}, {"Id": "3413", "pgp": 0, "GoBack": 1, "SID": 14049, "NameZh": "\u65d7\u5c71\u8fb2\u5de5", "RouteId": 86, "SeqNo": 18, "Terminal": 0, "DistrictId": 1, "Latitude": 22.90194, "Longitude": 120.483244, "IVRNo": 1255, "EXTVoiceNo": 13413, "traveltime": 0, "holidayTraveltime": 0}, {"Id": "3414", "pgp": 0, "GoBack": 1, "SID": 14051, "NameZh": "\u65d7\u5c71\u885b\u751f\u6240", "RouteId": 86, "SeqNo": 19, "Terminal": 0, "DistrictId": 1, "Latitude": 22.890262, "Longitude": 120.480133, "IVRNo": 13414, "EXTVoiceNo": 13414, "traveltime": 0, "holidayTraveltime": 0}, {"Id": "9718", "pgp": 0, "GoBack": 1, "SID": 14052, "NameZh": "\u5ef6\u5e73\u8def(\u65d7\u5c71\u5340\u516c\u6240)", "RouteId": 86, "SeqNo": 20, "Terminal": 0, "DistrictId": 1, "Latitude": 22.887674, "Longitude": 120.483179, "IVRNo": 9718, "EXTVoiceNo": 9718, "traveltime": 0, "holidayTraveltime": 0}, {"Id": "3412", "pgp": 0, "GoBack": 1, "SID": 14054, "NameZh": "\u65d7\u5c71\u8f49\u904b\u7ad9", "RouteId": 86, "SeqNo": 21, "Terminal": 0, "DistrictId": 1, "Latitude": 22.8835, "Longitude": 120.48461, "IVRNo": 9717, "EXTVoiceNo": 13412, "traveltime": 0, "holidayTraveltime": 0}, {"Id": "3422", "pgp": 0, "GoBack": 1, "SID": 18465, "NameZh": "\u5fb7\u660c\u8def-\u7f72\u7acb\u65d7\u5c71\u91ab\u9662", "RouteId": 86, "SeqNo": 22, "Terminal": 0, "DistrictId": 1, "Latitude": 22.880445, "Longitude": 120.48378, "IVRNo": 1069, "EXTVoiceNo": 13422, "traveltime": 0, "holidayTraveltime": 0}, {"Id": "1702", "pgp": 0, "GoBack": 1, "SID": 14067, "NameZh": "\u6eaa\u6d32", "RouteId": 86, "SeqNo": 23, "Terminal": 0, "DistrictId": 1, "Latitude": 22.843748, "Longitude": 120.464513, "IVRNo": 11702, "EXTVoiceNo": 11702, "traveltime": 0, "holidayTraveltime": 0}, {"Id": "0900", "pgp": 0, "GoBack": 1, "SID": 14073, "NameZh": "\u5c1a\u548c", "RouteId": 86, "SeqNo": 24, "Terminal": 0, "DistrictId": 1, "Latitude": 22.814795, "Longitude": 120.461609, "IVRNo": 10900, "EXTVoiceNo": 10900, "traveltime": 0, "holidayTraveltime": 0}, {"Id": "7602", "pgp": 0, "GoBack": 1, "SID": 14076, "NameZh": "\u7fa9\u5927\u91ab\u9662", "RouteId": 86, "SeqNo": 25, "Terminal": 0, "DistrictId": 1, "Latitude": 22.76495, "Longitude": 120.36415, "IVRNo": 7126, "EXTVoiceNo": 7602, "traveltime": 0, "holidayTraveltime": 0}, {"Id": "3534", "pgp": 0, "GoBack": 1, "SID": 14087, "NameZh": "\u9577\u5e9a\u91ab\u9662", "RouteId": 86, "SeqNo": 26, "Terminal": 0, "DistrictId": 1, "Latitude": 22.650821, "Longitude": 120.35674, "IVRNo": 3534, "EXTVoiceNo": 3534, "traveltime": 0, "holidayTraveltime": 0}, {"Id": "3534", "pgp": 0, "GoBack": 2, "SID": 14088, "NameZh": "\u9577\u5e9a\u91ab\u9662", "RouteId": 86, "SeqNo": 1, "Terminal": 0, "DistrictId": 1, "Latitude": 22.65078, "Longitude": 120.35681, "IVRNo": 3534, "EXTVoiceNo": 3534, "traveltime": 0, "holidayTraveltime": 0}, {"Id": "7602", "pgp": 0, "GoBack": 2, "SID": 14098, "NameZh": "\u7fa9\u5927\u91ab\u9662", "RouteId": 86, "SeqNo": 2, "Terminal": 0, "DistrictId": 1, "Latitude": 22.76495, "Longitude": 120.36415, "IVRNo": 7126, "EXTVoiceNo": 7602, "traveltime": 0, "holidayTraveltime": 0}, {"Id": "0900", "pgp": 0, "GoBack": 2, "SID": 14102, "NameZh": "\u5c1a\u548c", "RouteId": 86, "SeqNo": 3, "Terminal": 0, "DistrictId": 1, "Latitude": 22.81473, "Longitude": 120.46171, "IVRNo": 10900, "EXTVoiceNo": 10900, "traveltime": 0, "holidayTraveltime": 0}, {"Id": "1702", "pgp": 0, "GoBack": 2, "SID": 14108, "NameZh": "\u6eaa\u6d32", "RouteId": 86, "SeqNo": 4, "Terminal": 0, "DistrictId": 1, "Latitude": 22.8437, "Longitude": 120.46456, "IVRNo": 11702, "EXTVoiceNo": 11702, "traveltime": 0, "holidayTraveltime": 0}, {"Id": "3422", "pgp": 0, "GoBack": 2, "SID": 18489, "NameZh": "\u5fb7\u660c\u8def-\u7f72\u7acb\u65d7\u5c71\u91ab\u9662", "RouteId": 86, "SeqNo": 5, "Terminal": 0, "DistrictId": 1, "Latitude": 22.880418, "Longitude": 120.483857, "IVRNo": 1069, "EXTVoiceNo": 13422, "traveltime": 0, "holidayTraveltime": 0}, {"Id": "3412", "pgp": 0, "GoBack": 2, "SID": 14121, "NameZh": "\u65d7\u5c71\u8f49\u904b\u7ad9", "RouteId": 86, "SeqNo": 6, "Terminal": 0, "DistrictId": 1, "Latitude": 22.883438, "Longitude": 120.484586, "IVRNo": 9717, "EXTVoiceNo": 13412, "traveltime": 0, "holidayTraveltime": 0}, {"Id": "9718", "pgp": 0, "GoBack": 2, "SID": 14122, "NameZh": "\u5ef6\u5e73\u8def(\u65d7\u5c71\u5340\u516c\u6240)", "RouteId": 86, "SeqNo": 7, "Terminal": 0, "DistrictId": 1, "Latitude": 22.88745, "Longitude": 120.48318, "IVRNo": 9718, "EXTVoiceNo": 9718, "traveltime": 0, "holidayTraveltime": 0}, {"Id": "3414", "pgp": 0, "GoBack": 2, "SID": 14123, "NameZh": "\u65d7\u5c71\u885b\u751f\u6240", "RouteId": 86, "SeqNo": 8, "Terminal": 0, "DistrictId": 1, "Latitude": 22.89025, "Longitude": 120.48015, "IVRNo": 13414, "EXTVoiceNo": 13414, "traveltime": 0, "holidayTraveltime": 0}, {"Id": "3413", "pgp": 0, "GoBack": 2, "SID": 14125, "NameZh": "\u65d7\u5c71\u8fb2\u5de5", "RouteId": 86, "SeqNo": 9, "Terminal": 0, "DistrictId": 1, "Latitude": 22.90193, "Longitude": 120.4833, "IVRNo": 1255, "EXTVoiceNo": 13413, "traveltime": 0, "holidayTraveltime": 0}, {"Id": "3381", "pgp": 0, "GoBack": 2, "SID": 14134, "NameZh": "\u5713\u6f6d", "RouteId": 86, "SeqNo": 10, "Terminal": 0, "DistrictId": 1, "Latitude": 22.93268, "Longitude": 120.50353, "IVRNo": 11580, "EXTVoiceNo": 13381, "traveltime": 0, "holidayTraveltime": 0}, {"Id": "3311", "pgp": 0, "GoBack": 2, "SID": 14140, "NameZh": "\u6749\u6797\u8fb2\u6703", "RouteId": 86, "SeqNo": 11, "Terminal": 0, "DistrictId": 1, "Latitude": 22.964271, "Longitude": 120.532089, "IVRNo": 10854, "EXTVoiceNo": 13311, "traveltime": 0, "holidayTraveltime": 0}, {"Id": "6078", "pgp": 0, "GoBack": 2, "SID": 14144, "NameZh": "\u5927\u611b\u6751", "RouteId": 86, "SeqNo": 12, "Terminal": 0, "DistrictId": 1, "Latitude": 22.967, "Longitude": 120.54338, "IVRNo": 9744, "EXTVoiceNo": 26078, "traveltime": 0, "holidayTraveltime": 0}, {"Id": "3309", "pgp": 0, "GoBack": 2, "SID": 14146, "NameZh": "\u6749\u6797\u5340\u516c\u6240(\u885b\u751f\u6240)", "RouteId": 86, "SeqNo": 13, "Terminal": 0, "DistrictId": 1, "Latitude": 22.97193, "Longitude": 120.53996, "IVRNo": 13309, "EXTVoiceNo": 13309, "traveltime": 0, "holidayTraveltime": 0}, {"Id": "3385", "pgp": 0, "GoBack": 2, "SID": 14153, "NameZh": "\u65b0\u5e84\u570b\u5c0f", "RouteId": 86, "SeqNo": 14, "Terminal": 0, "DistrictId": 1, "Latitude": 22.98715, "Longitude": 120.56158, "IVRNo": 11624, "EXTVoiceNo": 13385, "traveltime": 0, "holidayTraveltime": 0}, {"Id": "0124", "pgp": 0, "GoBack": 2, "SID": 14159, "NameZh": "\u5c0f\u4efd\u5c3e", "RouteId": 86, "SeqNo": 15, "Terminal": 0, "DistrictId": 1, "Latitude": 22.99921, "Longitude": 120.57328, "IVRNo": 10241, "EXTVoiceNo": 20124, "traveltime": 0, "holidayTraveltime": 0}, {"Id": "0026", "pgp": 0, "GoBack": 2, "SID": 9830, "NameZh": "\u5341\u5f35\u7281", "RouteId": 86, "SeqNo": 16, "Terminal": 0, "DistrictId": 1, "Latitude": 23.02233, "Longitude": 120.56306, "IVRNo": 10062, "EXTVoiceNo": 20026, "traveltime": 0, "holidayTraveltime": 0}, {"Id": "3362", "pgp": 0, "GoBack": 2, "SID": 14170, "NameZh": "\u530f\u5b50\u5bee", "RouteId": 86, "SeqNo": 17, "Terminal": 0, "DistrictId": 1, "Latitude": 23.04835, "Longitude": 120.5545, "IVRNo": 13362, "EXTVoiceNo": 13362, "traveltime": 0, "holidayTraveltime": 0}, {"Id": "3393", "pgp": 0, "GoBack": 2, "SID": 14175, "NameZh": "\u65b0\u69ae\u5df7", "RouteId": 86, "SeqNo": 18, "Terminal": 0, "DistrictId": 1, "Latitude": 23.07026, "Longitude": 120.57868, "IVRNo": 11662, "EXTVoiceNo": 13393, "traveltime": 0, "holidayTraveltime": 0}, {"Id": "0345", "pgp": 0, "GoBack": 2, "SID": 14178, "NameZh": "\u7532\u4ed9\u7ad9", "RouteId": 86, "SeqNo": 19, "Terminal": 0, "DistrictId": 1, "Latitude": 23.082619, "Longitude": 120.5879, "IVRNo": 10704, "EXTVoiceNo": 20345, "traveltime": 0, "holidayTraveltime": 0}, {"Id": "6087", "pgp": 0, "GoBack": 2, "SID": 14179, "NameZh": "\u7532\u4ed9\u5340\u516c\u6240.\u885b\u751f\u6240", "RouteId": 86, "SeqNo": 20, "Terminal": 0, "DistrictId": 1, "Latitude": 23.083798, "Longitude": 120.588306, "IVRNo": 13298, "EXTVoiceNo": 26087, "traveltime": 0, "holidayTraveltime": 0}, {"Id": "3439", "pgp": 0, "GoBack": 2, "SID": 14185, "NameZh": "\u95dc\u5c71\u91cc", "RouteId": 86, "SeqNo": 21, "Terminal": 0, "DistrictId": 1, "Latitude": 23.1126, "Longitude": 120.60595, "IVRNo": 13439, "EXTVoiceNo": 13439, "traveltime": 0, "holidayTraveltime": 0}, {"Id": "6084", "pgp": 0, "GoBack": 2, "SID": 14192, "NameZh": "\u4e94\u91cc\u57d4(\u5c0f\u6797\u570b\u5c0f)", "RouteId": 86, "SeqNo": 22, "Terminal": 0, "DistrictId": 1, "Latitude": 23.14786, "Longitude": 120.63076, "IVRNo": 10345, "EXTVoiceNo": 26084, "traveltime": 0, "holidayTraveltime": 0}, {"Id": "2302", "pgp": 0, "GoBack": 2, "SID": 18433, "NameZh": "\u5c0f\u6797", "RouteId": 86, "SeqNo": 23, "Terminal": 0, "DistrictId": 1, "Latitude": 23.162375, "Longitude": 120.639851, "IVRNo": 8648, "EXTVoiceNo": 32302, "traveltime": 0, "holidayTraveltime": 0}, {"Id": "2307", "pgp": 0, "GoBack": 2, "SID": 18437, "NameZh": "\u932b\u5b89\u5c71", "RouteId": 86, "SeqNo": 24, "Terminal": 0, "DistrictId": 1, "Latitude": 23.211125, "Longitude": 120.668679, "IVRNo": 8644, "EXTVoiceNo": 32307, "traveltime": 0, "holidayTraveltime": 0}, {"Id": "2305", "pgp": 0, "GoBack": 2, "SID": 18438, "NameZh": "\u90a3\u746a\u590f", "RouteId": 86, "SeqNo": 25, "Terminal": 0, "DistrictId": 1, "Latitude": 23.225421, "Longitude": 120.694089, "IVRNo": 8643, "EXTVoiceNo": 32305, "traveltime": 0, "holidayTraveltime": 0}, {"Id": "2303", "pgp": 0, "GoBack": 2, "SID": 18439, "NameZh": "\u6c11\u751f\u4e8c\u91cc", "RouteId": 86, "SeqNo": 26, "Terminal": 1, "DistrictId": 1, "Latitude": 23.279219, "Longitude": 120.719607, "IVRNo": 8642, "EXTVoiceNo": 32303, "traveltime": 0, "holidayTraveltime": 0}]}