{"en": [{"Id": "0319", "pgp": 0, "GoBack": 1, "SID": 9831, "NameZh": "KBus Gang Shan Station", "RouteId": 872, "SeqNo": 1, "Terminal": 0, "DistrictId": 1, "Latitude": 22.768256, "Longitude": 120.307485, "IVRNo": 319, "EXTVoiceNo": 319, "traveltime": 0, "holidayTraveltime": 0}, {"Id": "0320", "pgp": 0, "GoBack": 1, "SID": 15951, "NameZh": "Bisiou", "RouteId": 872, "SeqNo": 2, "Terminal": 0, "DistrictId": 1, "Latitude": 22.767995, "Longitude": 120.309643, "IVRNo": 320, "EXTVoiceNo": 320, "traveltime": 0, "holidayTraveltime": 0}, {"Id": "0321", "pgp": 0, "GoBack": 1, "SID": 3052, "NameZh": "Bisiou Community Center", "RouteId": 872, "SeqNo": 3, "Terminal": 0, "DistrictId": 1, "Latitude": 22.768606, "Longitude": 120.312432, "IVRNo": 321, "EXTVoiceNo": 321, "traveltime": 0, "holidayTraveltime": 0}, {"Id": "0322", "pgp": 0, "GoBack": 1, "SID": 3053, "NameZh": "Bisiou E. Rd. Intersection", "RouteId": 872, "SeqNo": 4, "Terminal": 0, "DistrictId": 1, "Latitude": 22.768374, "Longitude": 120.314637, "IVRNo": 322, "EXTVoiceNo": 322, "traveltime": 0, "holidayTraveltime": 0}, {"Id": "0828", "pgp": 0, "GoBack": 1, "SID": 2922, "NameZh": "MRT Gangshan South Station", "RouteId": 872, "SeqNo": 5, "Terminal": 0, "DistrictId": 1, "Latitude": 22.780612, "Longitude": 120.300541, "IVRNo": 828, "EXTVoiceNo": 828, "traveltime": 0, "holidayTraveltime": 0}, {"Id": "9641", "pgp": 0, "GoBack": 1, "SID": 2976, "NameZh": "Desong Rd. Intersection", "RouteId": 872, "SeqNo": 6, "Terminal": 0, "DistrictId": 1, "Latitude": 22.763823, "Longitude": 120.307587, "IVRNo": 9541, "EXTVoiceNo": 9641, "traveltime": 0, "holidayTraveltime": 0}, {"Id": "9125", "pgp": 0, "GoBack": 1, "SID": 5339, "NameZh": "MRT Ciaotou Train Station", "RouteId": 872, "SeqNo": 7, "Terminal": 0, "DistrictId": 1, "Latitude": 22.760615, "Longitude": 120.309235, "IVRNo": 7900, "EXTVoiceNo": 9125, "traveltime": 0, "holidayTraveltime": 0}, {"Id": "7902", "pgp": 0, "GoBack": 1, "SID": 5340, "NameZh": "Ciaotou Junior High School", "RouteId": 872, "SeqNo": 8, "Terminal": 0, "DistrictId": 1, "Latitude": 22.75881, "Longitude": 120.30715, "IVRNo": 7902, "EXTVoiceNo": 7902, "traveltime": 0, "holidayTraveltime": 0}, {"Id": "7903", "pgp": 0, "GoBack": 1, "SID": 5341, "NameZh": "Ciaotou  District Office (Baishu Rd.)", "RouteId": 872, "SeqNo": 9, "Terminal": 0, "DistrictId": 1, "Latitude": 22.75846, "Longitude": 120.30536, "IVRNo": 7706, "EXTVoiceNo": 7903, "traveltime": 0, "holidayTraveltime": 0}, {"Id": "9808", "pgp": 0, "GoBack": 1, "SID": 11402, "NameZh": "Meide St. Intersection", "RouteId": 872, "SeqNo": 10, "Terminal": 0, "DistrictId": 1, "Latitude": 22.756777, "Longitude": 120.300614, "IVRNo": 9785, "EXTVoiceNo": 9808, "traveltime": 0, "holidayTraveltime": 0}, {"Id": "9112", "pgp": 0, "GoBack": 1, "SID": 5362, "NameZh": "Shihyuan Rd. Intersection", "RouteId": 872, "SeqNo": 11, "Terminal": 0, "DistrictId": 1, "Latitude": 22.75595, "Longitude": 120.29723, "IVRNo": 7924, "EXTVoiceNo": 9112, "traveltime": 0, "holidayTraveltime": 0}, {"Id": "3300", "pgp": 0, "GoBack": 1, "SID": 18158, "NameZh": "Jiashu Rd. Intersection (The 2nd Funeral Parlor in Ciaoto)", "RouteId": 872, "SeqNo": 12, "Terminal": 0, "DistrictId": 1, "Latitude": 22.758505, "Longitude": 120.297095, "IVRNo": 5781, "EXTVoiceNo": 13300, "traveltime": 0, "holidayTraveltime": 0}, {"Id": "9227", "pgp": 0, "GoBack": 1, "SID": 11403, "NameZh": "Jiashu Rd.", "RouteId": 872, "SeqNo": 13, "Terminal": 0, "DistrictId": 1, "Latitude": 22.762489, "Longitude": 120.299899, "IVRNo": 9786, "EXTVoiceNo": 9227, "traveltime": 0, "holidayTraveltime": 0}, {"Id": "9228", "pgp": 0, "GoBack": 1, "SID": 11404, "NameZh": "Southern Region Training Center Training Directorate General Of Highways.M.O.T.C", "RouteId": 872, "SeqNo": 14, "Terminal": 0, "DistrictId": 1, "Latitude": 22.764112, "Longitude": 120.299268, "IVRNo": 9787, "EXTVoiceNo": 9228, "traveltime": 0, "holidayTraveltime": 0}, {"Id": "9229", "pgp": 0, "GoBack": 1, "SID": 11405, "NameZh": "Wulin Rd. Intersection", "RouteId": 872, "SeqNo": 15, "Terminal": 0, "DistrictId": 1, "Latitude": 22.762661, "Longitude": 120.294366, "IVRNo": 9788, "EXTVoiceNo": 9229, "traveltime": 0, "holidayTraveltime": 0}, {"Id": "9230", "pgp": 0, "GoBack": 1, "SID": 11406, "NameZh": "Wulin Elementary School", "RouteId": 872, "SeqNo": 16, "Terminal": 0, "DistrictId": 1, "Latitude": 22.759372, "Longitude": 120.294012, "IVRNo": 9789, "EXTVoiceNo": 9230, "traveltime": 0, "holidayTraveltime": 0}, {"Id": "7904", "pgp": 0, "GoBack": 1, "SID": 5342, "NameZh": "Kao-Yuan Technology & Commerce", "RouteId": 872, "SeqNo": 17, "Terminal": 0, "DistrictId": 1, "Latitude": 22.7575, "Longitude": 120.29215, "IVRNo": 7904, "EXTVoiceNo": 7904, "traveltime": 0, "holidayTraveltime": 0}, {"Id": "7925", "pgp": 0, "GoBack": 1, "SID": 5365, "NameZh": "Yuliao Rd.", "RouteId": 872, "SeqNo": 18, "Terminal": 0, "DistrictId": 1, "Latitude": 22.76, "Longitude": 120.2863, "IVRNo": 7925, "EXTVoiceNo": 7925, "traveltime": 0, "holidayTraveltime": 0}, {"Id": "7905", "pgp": 0, "GoBack": 1, "SID": 5343, "NameZh": "Chung Hung Steel (Ciaotou)", "RouteId": 872, "SeqNo": 19, "Terminal": 0, "DistrictId": 1, "Latitude": 22.76221, "Longitude": 120.27773, "IVRNo": 7905, "EXTVoiceNo": 7905, "traveltime": 0, "holidayTraveltime": 0}, {"Id": "9114", "pgp": 0, "GoBack": 1, "SID": 5366, "NameZh": "Jhonglun Rd.", "RouteId": 872, "SeqNo": 20, "Terminal": 0, "DistrictId": 1, "Latitude": 22.76173, "Longitude": 120.27306, "IVRNo": 7926, "EXTVoiceNo": 9114, "traveltime": 0, "holidayTraveltime": 0}, {"Id": "9115", "pgp": 0, "GoBack": 1, "SID": 5368, "NameZh": "Zihyi 3rd Park", "RouteId": 872, "SeqNo": 21, "Terminal": 0, "DistrictId": 1, "Latitude": 22.76118, "Longitude": 120.26965, "IVRNo": 32343, "EXTVoiceNo": 9115, "traveltime": 0, "holidayTraveltime": 0}, {"Id": "7906", "pgp": 0, "GoBack": 1, "SID": 5344, "NameZh": "Zihguan District Office", "RouteId": 872, "SeqNo": 22, "Terminal": 0, "DistrictId": 1, "Latitude": 22.760723, "Longitude": 120.266656, "IVRNo": 7906, "EXTVoiceNo": 7906, "traveltime": 0, "holidayTraveltime": 0}, {"Id": "7907", "pgp": 0, "GoBack": 1, "SID": 5345, "NameZh": "Zihguan Elementary School", "RouteId": 872, "SeqNo": 23, "Terminal": 0, "DistrictId": 1, "Latitude": 22.760515, "Longitude": 120.264626, "IVRNo": 7907, "EXTVoiceNo": 7907, "traveltime": 0, "holidayTraveltime": 0}, {"Id": "7908", "pgp": 0, "GoBack": 1, "SID": 5346, "NameZh": "Sinyi Rd.", "RouteId": 872, "SeqNo": 24, "Terminal": 0, "DistrictId": 1, "Latitude": 22.76229, "Longitude": 120.26244, "IVRNo": 7908, "EXTVoiceNo": 7908, "traveltime": 0, "holidayTraveltime": 0}, {"Id": "2468", "pgp": 0, "GoBack": 1, "SID": 17371, "NameZh": "Leidi Park", "RouteId": 872, "SeqNo": 25, "Terminal": 0, "DistrictId": 1, "Latitude": 22.76736, "Longitude": 120.255985, "IVRNo": 2468, "EXTVoiceNo": 2468, "traveltime": 0, "holidayTraveltime": 0}, {"Id": "0909", "pgp": 0, "GoBack": 1, "SID": 13183, "NameZh": "Nan An Elementary School", "RouteId": 872, "SeqNo": 26, "Terminal": 0, "DistrictId": 1, "Latitude": 22.764433, "Longitude": 120.243388, "IVRNo": 909, "EXTVoiceNo": 909, "traveltime": 0, "holidayTraveltime": 0}, {"Id": "1854", "pgp": 0, "GoBack": 1, "SID": 17762, "NameZh": "Tadi Rd.", "RouteId": 872, "SeqNo": 27, "Terminal": 0, "DistrictId": 1, "Latitude": 22.76919, "Longitude": 120.244975, "IVRNo": 11854, "EXTVoiceNo": 11854, "traveltime": 0, "holidayTraveltime": 0}, {"Id": "0366", "pgp": 0, "GoBack": 1, "SID": 17763, "NameZh": "Mituo Junior High School (Jinsyue Rd.)", "RouteId": 872, "SeqNo": 28, "Terminal": 0, "DistrictId": 1, "Latitude": 22.776251, "Longitude": 120.246925, "IVRNo": 2352, "EXTVoiceNo": 366, "traveltime": 0, "holidayTraveltime": 0}, {"Id": "7910", "pgp": 0, "GoBack": 1, "SID": 5348, "NameZh": "Mituo Junior High School (Jhongjheng S. Rd.)", "RouteId": 872, "SeqNo": 29, "Terminal": 0, "DistrictId": 1, "Latitude": 22.77741, "Longitude": 120.25091, "IVRNo": 869, "EXTVoiceNo": 7910, "traveltime": 0, "holidayTraveltime": 0}, {"Id": "7911", "pgp": 0, "GoBack": 1, "SID": 5349, "NameZh": "Mituo District Office", "RouteId": 872, "SeqNo": 30, "Terminal": 0, "DistrictId": 1, "Latitude": 22.780392, "Longitude": 120.249284, "IVRNo": 7911, "EXTVoiceNo": 7911, "traveltime": 0, "holidayTraveltime": 0}, {"Id": "7912", "pgp": 0, "GoBack": 1, "SID": 5350, "NameZh": "Mituo Elementary School", "RouteId": 872, "SeqNo": 31, "Terminal": 0, "DistrictId": 1, "Latitude": 22.784147, "Longitude": 120.248042, "IVRNo": 7912, "EXTVoiceNo": 7912, "traveltime": 0, "holidayTraveltime": 0}, {"Id": "0323", "pgp": 0, "GoBack": 1, "SID": 6686, "NameZh": "Jhongjheng W. Rd.Intersection", "RouteId": 872, "SeqNo": 32, "Terminal": 0, "DistrictId": 1, "Latitude": 22.783898, "Longitude": 120.245817, "IVRNo": 323, "EXTVoiceNo": 323, "traveltime": 0, "holidayTraveltime": 0}, {"Id": "0324", "pgp": 0, "GoBack": 1, "SID": 6741, "NameZh": "Guanghe Rd", "RouteId": 872, "SeqNo": 33, "Terminal": 0, "DistrictId": 1, "Latitude": 22.783266, "Longitude": 120.243589, "IVRNo": 324, "EXTVoiceNo": 324, "traveltime": 0, "holidayTraveltime": 0}, {"Id": "0325", "pgp": 0, "GoBack": 1, "SID": 9244, "NameZh": "Guanghe N. Rd.", "RouteId": 872, "SeqNo": 34, "Terminal": 0, "DistrictId": 1, "Latitude": 22.78413, "Longitude": 120.242932, "IVRNo": 325, "EXTVoiceNo": 325, "traveltime": 0, "holidayTraveltime": 0}, {"Id": "0326", "pgp": 0, "GoBack": 1, "SID": 13830, "NameZh": "Leshan Temple", "RouteId": 872, "SeqNo": 35, "Terminal": 0, "DistrictId": 1, "Latitude": 22.785992, "Longitude": 120.243288, "IVRNo": 326, "EXTVoiceNo": 326, "traveltime": 0, "holidayTraveltime": 0}, {"Id": "3303", "pgp": 0, "GoBack": 1, "SID": 14339, "NameZh": "Anle Temple (Yangang 2nd Rd)", "RouteId": 872, "SeqNo": 36, "Terminal": 1, "DistrictId": 1, "Latitude": 22.787864, "Longitude": 120.243037, "IVRNo": 14301, "EXTVoiceNo": 13303, "traveltime": 0, "holidayTraveltime": 0}, {"Id": "3303", "pgp": 0, "GoBack": 2, "SID": 14585, "NameZh": "Anle Temple (Yangang 2nd Rd)", "RouteId": 872, "SeqNo": 1, "Terminal": 0, "DistrictId": 1, "Latitude": 22.787864, "Longitude": 120.243037, "IVRNo": 14301, "EXTVoiceNo": 13303, "traveltime": 0, "holidayTraveltime": 0}, {"Id": "0326", "pgp": 0, "GoBack": 2, "SID": 7907, "NameZh": "Leshan Temple", "RouteId": 872, "SeqNo": 2, "Terminal": 0, "DistrictId": 1, "Latitude": 22.786, "Longitude": 120.24325, "IVRNo": 326, "EXTVoiceNo": 326, "traveltime": 0, "holidayTraveltime": 0}, {"Id": "0325", "pgp": 0, "GoBack": 2, "SID": 16158, "NameZh": "Guanghe N. Rd.", "RouteId": 872, "SeqNo": 3, "Terminal": 0, "DistrictId": 1, "Latitude": 22.784033, "Longitude": 120.242889, "IVRNo": 325, "EXTVoiceNo": 325, "traveltime": 0, "holidayTraveltime": 0}, {"Id": "0324", "pgp": 0, "GoBack": 2, "SID": 9797, "NameZh": "Guanghe Rd", "RouteId": 872, "SeqNo": 4, "Terminal": 0, "DistrictId": 1, "Latitude": 22.783193, "Longitude": 120.243471, "IVRNo": 324, "EXTVoiceNo": 324, "traveltime": 0, "holidayTraveltime": 0}, {"Id": "0323", "pgp": 0, "GoBack": 2, "SID": 9835, "NameZh": "Jhongjheng W. Rd.Intersection", "RouteId": 872, "SeqNo": 5, "Terminal": 0, "DistrictId": 1, "Latitude": 22.783898, "Longitude": 120.245817, "IVRNo": 323, "EXTVoiceNo": 323, "traveltime": 0, "holidayTraveltime": 0}, {"Id": "7912", "pgp": 0, "GoBack": 2, "SID": 5351, "NameZh": "Mituo Elementary School", "RouteId": 872, "SeqNo": 6, "Terminal": 0, "DistrictId": 1, "Latitude": 22.784184, "Longitude": 120.247969, "IVRNo": 7912, "EXTVoiceNo": 7912, "traveltime": 0, "holidayTraveltime": 0}, {"Id": "7911", "pgp": 0, "GoBack": 2, "SID": 5352, "NameZh": "Mituo District Office", "RouteId": 872, "SeqNo": 7, "Terminal": 0, "DistrictId": 1, "Latitude": 22.780392, "Longitude": 120.249284, "IVRNo": 7911, "EXTVoiceNo": 7911, "traveltime": 0, "holidayTraveltime": 0}, {"Id": "7910", "pgp": 0, "GoBack": 2, "SID": 5353, "NameZh": "Mituo Junior High School (Jhongjheng S. Rd.)", "RouteId": 872, "SeqNo": 8, "Terminal": 0, "DistrictId": 1, "Latitude": 22.77741, "Longitude": 120.25091, "IVRNo": 869, "EXTVoiceNo": 7910, "traveltime": 0, "holidayTraveltime": 0}, {"Id": "0366", "pgp": 0, "GoBack": 2, "SID": 17219, "NameZh": "Mituo Junior High School (Jinsyue Rd.)", "RouteId": 872, "SeqNo": 9, "Terminal": 0, "DistrictId": 1, "Latitude": 22.776177, "Longitude": 120.246786, "IVRNo": 2352, "EXTVoiceNo": 366, "traveltime": 0, "holidayTraveltime": 0}, {"Id": "1854", "pgp": 0, "GoBack": 2, "SID": 17807, "NameZh": "Tadi Rd.", "RouteId": 872, "SeqNo": 10, "Terminal": 0, "DistrictId": 1, "Latitude": 22.76917, "Longitude": 120.244836, "IVRNo": 11854, "EXTVoiceNo": 11854, "traveltime": 0, "holidayTraveltime": 0}, {"Id": "0909", "pgp": 0, "GoBack": 2, "SID": 13189, "NameZh": "Nan An Elementary School", "RouteId": 872, "SeqNo": 11, "Terminal": 0, "DistrictId": 1, "Latitude": 22.764433, "Longitude": 120.243388, "IVRNo": 909, "EXTVoiceNo": 909, "traveltime": 0, "holidayTraveltime": 0}, {"Id": "2468", "pgp": 0, "GoBack": 2, "SID": 17376, "NameZh": "Leidi Park", "RouteId": 872, "SeqNo": 12, "Terminal": 0, "DistrictId": 1, "Latitude": 22.76737, "Longitude": 120.256062, "IVRNo": 2468, "EXTVoiceNo": 2468, "traveltime": 0, "holidayTraveltime": 0}, {"Id": "7908", "pgp": 0, "GoBack": 2, "SID": 5355, "NameZh": "Sinyi Rd.", "RouteId": 872, "SeqNo": 13, "Terminal": 0, "DistrictId": 1, "Latitude": 22.762279, "Longitude": 120.262347, "IVRNo": 7908, "EXTVoiceNo": 7908, "traveltime": 0, "holidayTraveltime": 0}, {"Id": "7907", "pgp": 0, "GoBack": 2, "SID": 5356, "NameZh": "Zihguan Elementary School", "RouteId": 872, "SeqNo": 14, "Terminal": 0, "DistrictId": 1, "Latitude": 22.760466, "Longitude": 120.26463, "IVRNo": 7907, "EXTVoiceNo": 7907, "traveltime": 0, "holidayTraveltime": 0}, {"Id": "7906", "pgp": 0, "GoBack": 2, "SID": 5357, "NameZh": "Zihguan District Office", "RouteId": 872, "SeqNo": 15, "Terminal": 0, "DistrictId": 1, "Latitude": 22.760694, "Longitude": 120.266658, "IVRNo": 7906, "EXTVoiceNo": 7906, "traveltime": 0, "holidayTraveltime": 0}, {"Id": "9115", "pgp": 0, "GoBack": 2, "SID": 5371, "NameZh": "Zihyi 3rd Park", "RouteId": 872, "SeqNo": 16, "Terminal": 0, "DistrictId": 1, "Latitude": 22.76111, "Longitude": 120.26931, "IVRNo": 32343, "EXTVoiceNo": 9115, "traveltime": 0, "holidayTraveltime": 0}, {"Id": "9114", "pgp": 0, "GoBack": 2, "SID": 5372, "NameZh": "Jhonglun Rd.", "RouteId": 872, "SeqNo": 17, "Terminal": 0, "DistrictId": 1, "Latitude": 22.76164, "Longitude": 120.273019, "IVRNo": 7926, "EXTVoiceNo": 9114, "traveltime": 0, "holidayTraveltime": 0}, {"Id": "7905", "pgp": 0, "GoBack": 2, "SID": 5358, "NameZh": "Chung Hung Steel (Ciaotou)", "RouteId": 872, "SeqNo": 18, "Terminal": 0, "DistrictId": 1, "Latitude": 22.762149, "Longitude": 120.277725, "IVRNo": 7905, "EXTVoiceNo": 7905, "traveltime": 0, "holidayTraveltime": 0}, {"Id": "7925", "pgp": 0, "GoBack": 2, "SID": 5375, "NameZh": "Yuliao Rd.", "RouteId": 872, "SeqNo": 19, "Terminal": 0, "DistrictId": 1, "Latitude": 22.76016, "Longitude": 120.28563, "IVRNo": 7925, "EXTVoiceNo": 7925, "traveltime": 0, "holidayTraveltime": 0}, {"Id": "7904", "pgp": 0, "GoBack": 2, "SID": 5359, "NameZh": "Kao-Yuan Technology & Commerce", "RouteId": 872, "SeqNo": 20, "Terminal": 0, "DistrictId": 1, "Latitude": 22.757455, "Longitude": 120.291412, "IVRNo": 7904, "EXTVoiceNo": 7904, "traveltime": 0, "holidayTraveltime": 0}, {"Id": "9230", "pgp": 0, "GoBack": 2, "SID": 11439, "NameZh": "Wulin Elementary School", "RouteId": 872, "SeqNo": 21, "Terminal": 0, "DistrictId": 1, "Latitude": 22.759205, "Longitude": 120.29409, "IVRNo": 9789, "EXTVoiceNo": 9230, "traveltime": 0, "holidayTraveltime": 0}, {"Id": "9229", "pgp": 0, "GoBack": 2, "SID": 11440, "NameZh": "Wulin Rd. Intersection", "RouteId": 872, "SeqNo": 22, "Terminal": 0, "DistrictId": 1, "Latitude": 22.762579, "Longitude": 120.293975, "IVRNo": 9788, "EXTVoiceNo": 9229, "traveltime": 0, "holidayTraveltime": 0}, {"Id": "9228", "pgp": 0, "GoBack": 2, "SID": 11441, "NameZh": "Southern Region Training Center Training Directorate General Of Highways.M.O.T.C", "RouteId": 872, "SeqNo": 23, "Terminal": 0, "DistrictId": 1, "Latitude": 22.764026, "Longitude": 120.299228, "IVRNo": 9787, "EXTVoiceNo": 9228, "traveltime": 0, "holidayTraveltime": 0}, {"Id": "9227", "pgp": 0, "GoBack": 2, "SID": 11442, "NameZh": "Jiashu Rd.", "RouteId": 872, "SeqNo": 24, "Terminal": 0, "DistrictId": 1, "Latitude": 22.762489, "Longitude": 120.299899, "IVRNo": 9786, "EXTVoiceNo": 9227, "traveltime": 0, "holidayTraveltime": 0}, {"Id": "3300", "pgp": 0, "GoBack": 2, "SID": 18164, "NameZh": "Jiashu Rd. Intersection (The 2nd Funeral Parlor in Ciaoto)", "RouteId": 872, "SeqNo": 25, "Terminal": 0, "DistrictId": 1, "Latitude": 22.758368, "Longitude": 120.296962, "IVRNo": 5781, "EXTVoiceNo": 13300, "traveltime": 0, "holidayTraveltime": 0}, {"Id": "9112", "pgp": 0, "GoBack": 2, "SID": 5376, "NameZh": "Shihyuan Rd. Intersection", "RouteId": 872, "SeqNo": 26, "Terminal": 0, "DistrictId": 1, "Latitude": 22.75553, "Longitude": 120.29786, "IVRNo": 7924, "EXTVoiceNo": 9112, "traveltime": 0, "holidayTraveltime": 0}, {"Id": "9808", "pgp": 0, "GoBack": 2, "SID": 11443, "NameZh": "Meide St. Intersection", "RouteId": 872, "SeqNo": 27, "Terminal": 0, "DistrictId": 1, "Latitude": 22.758223, "Longitude": 120.30292, "IVRNo": 9785, "EXTVoiceNo": 9808, "traveltime": 0, "holidayTraveltime": 0}, {"Id": "7903", "pgp": 0, "GoBack": 2, "SID": 5360, "NameZh": "Ciaotou  District Office (Baishu Rd.)", "RouteId": 872, "SeqNo": 28, "Terminal": 0, "DistrictId": 1, "Latitude": 22.758417, "Longitude": 120.30536, "IVRNo": 7706, "EXTVoiceNo": 7903, "traveltime": 0, "holidayTraveltime": 0}, {"Id": "7902", "pgp": 0, "GoBack": 2, "SID": 5361, "NameZh": "Ciaotou Junior High School", "RouteId": 872, "SeqNo": 29, "Terminal": 0, "DistrictId": 1, "Latitude": 22.75874, "Longitude": 120.307076, "IVRNo": 7902, "EXTVoiceNo": 7902, "traveltime": 0, "holidayTraveltime": 0}, {"Id": "9125", "pgp": 0, "GoBack": 2, "SID": 5338, "NameZh": "MRT Ciaotou Train Station", "RouteId": 872, "SeqNo": 30, "Terminal": 0, "DistrictId": 1, "Latitude": 22.75962, "Longitude": 120.309805, "IVRNo": 7900, "EXTVoiceNo": 9125, "traveltime": 0, "holidayTraveltime": 0}, {"Id": "9641", "pgp": 0, "GoBack": 2, "SID": 7943, "NameZh": "Desong Rd. Intersection", "RouteId": 872, "SeqNo": 31, "Terminal": 0, "DistrictId": 1, "Latitude": 22.76406, "Longitude": 120.30758, "IVRNo": 9541, "EXTVoiceNo": 9641, "traveltime": 0, "holidayTraveltime": 0}, {"Id": "0828", "pgp": 0, "GoBack": 2, "SID": 8016, "NameZh": "MRT Gangshan South Station", "RouteId": 872, "SeqNo": 32, "Terminal": 0, "DistrictId": 1, "Latitude": 22.780347, "Longitude": 120.300666, "IVRNo": 828, "EXTVoiceNo": 828, "traveltime": 0, "holidayTraveltime": 0}, {"Id": "0322", "pgp": 0, "GoBack": 2, "SID": 10100, "NameZh": "Bisiou E. Rd. Intersection", "RouteId": 872, "SeqNo": 33, "Terminal": 0, "DistrictId": 1, "Latitude": 22.768453, "Longitude": 120.314701, "IVRNo": 322, "EXTVoiceNo": 322, "traveltime": 0, "holidayTraveltime": 0}, {"Id": "0321", "pgp": 0, "GoBack": 2, "SID": 13772, "NameZh": "Bisiou Community Center", "RouteId": 872, "SeqNo": 34, "Terminal": 0, "DistrictId": 1, "Latitude": 22.768651, "Longitude": 120.312279, "IVRNo": 321, "EXTVoiceNo": 321, "traveltime": 0, "holidayTraveltime": 0}, {"Id": "0320", "pgp": 0, "GoBack": 2, "SID": 13972, "NameZh": "Bisiou", "RouteId": 872, "SeqNo": 35, "Terminal": 0, "DistrictId": 1, "Latitude": 22.768047, "Longitude": 120.309535, "IVRNo": 320, "EXTVoiceNo": 320, "traveltime": 0, "holidayTraveltime": 0}, {"Id": "0319", "pgp": 0, "GoBack": 2, "SID": 13987, "NameZh": "KBus Gang Shan Station", "RouteId": 872, "SeqNo": 36, "Terminal": 1, "DistrictId": 1, "Latitude": 22.768256, "Longitude": 120.307485, "IVRNo": 319, "EXTVoiceNo": 319, "traveltime": 0, "holidayTraveltime": 0}], "zh": [{"Id": "0319", "pgp": 0, "GoBack": 1, "SID": 9831, "NameZh": "\u9ad8\u96c4\u5ba2\u904b\u5ca1\u5c71\u7ad9", "RouteId": 872, "SeqNo": 1, "Terminal": 0, "DistrictId": 1, "Latitude": 22.768256, "Longitude": 120.307485, "IVRNo": 319, "EXTVoiceNo": 319, "traveltime": 0, "holidayTraveltime": 0}, {"Id": "0320", "pgp": 0, "GoBack": 1, "SID": 15951, "NameZh": "\u7b46\u79c0", "RouteId": 872, "SeqNo": 2, "Terminal": 0, "DistrictId": 1, "Latitude": 22.767995, "Longitude": 120.309643, "IVRNo": 320, "EXTVoiceNo": 320, "traveltime": 0, "holidayTraveltime": 0}, {"Id": "0321", "pgp": 0, "GoBack": 1, "SID": 3052, "NameZh": "\u7b46\u79c0\u6d3b\u52d5\u4e2d\u5fc3", "RouteId": 872, "SeqNo": 3, "Terminal": 0, "DistrictId": 1, "Latitude": 22.768606, "Longitude": 120.312432, "IVRNo": 321, "EXTVoiceNo": 321, "traveltime": 0, "holidayTraveltime": 0}, {"Id": "0322", "pgp": 0, "GoBack": 1, "SID": 3053, "NameZh": "\u7b46\u79c0\u6771\u8def\u53e3", "RouteId": 872, "SeqNo": 4, "Terminal": 0, "DistrictId": 1, "Latitude": 22.768374, "Longitude": 120.314637, "IVRNo": 322, "EXTVoiceNo": 322, "traveltime": 0, "holidayTraveltime": 0}, {"Id": "0828", "pgp": 0, "GoBack": 1, "SID": 2922, "NameZh": "\u6377\u904b\u5357\u5ca1\u5c71\u7ad9", "RouteId": 872, "SeqNo": 5, "Terminal": 0, "DistrictId": 1, "Latitude": 22.780612, "Longitude": 120.300541, "IVRNo": 828, "EXTVoiceNo": 828, "traveltime": 0, "holidayTraveltime": 0}, {"Id": "9641", "pgp": 0, "GoBack": 1, "SID": 2976, "NameZh": "\u5fb7\u677e\u8def\u53e3", "RouteId": 872, "SeqNo": 6, "Terminal": 0, "DistrictId": 1, "Latitude": 22.763823, "Longitude": 120.307587, "IVRNo": 9541, "EXTVoiceNo": 9641, "traveltime": 0, "holidayTraveltime": 0}, {"Id": "9125", "pgp": 0, "GoBack": 1, "SID": 5339, "NameZh": "\u6377\u904b\u6a4b\u982d\u706b\u8eca\u7ad9", "RouteId": 872, "SeqNo": 7, "Terminal": 0, "DistrictId": 1, "Latitude": 22.760615, "Longitude": 120.309235, "IVRNo": 7900, "EXTVoiceNo": 9125, "traveltime": 0, "holidayTraveltime": 0}, {"Id": "7902", "pgp": 0, "GoBack": 1, "SID": 5340, "NameZh": "\u6a4b\u982d\u570b\u4e2d", "RouteId": 872, "SeqNo": 8, "Terminal": 0, "DistrictId": 1, "Latitude": 22.75881, "Longitude": 120.30715, "IVRNo": 7902, "EXTVoiceNo": 7902, "traveltime": 0, "holidayTraveltime": 0}, {"Id": "7903", "pgp": 0, "GoBack": 1, "SID": 5341, "NameZh": "\u6a4b\u982d\u5340\u516c\u6240(\u767d\u6a39\u8def)", "RouteId": 872, "SeqNo": 9, "Terminal": 0, "DistrictId": 1, "Latitude": 22.75846, "Longitude": 120.30536, "IVRNo": 7706, "EXTVoiceNo": 7903, "traveltime": 0, "holidayTraveltime": 0}, {"Id": "9808", "pgp": 0, "GoBack": 1, "SID": 11402, "NameZh": "\u7f8e\u5fb7\u8857\u53e3", "RouteId": 872, "SeqNo": 10, "Terminal": 0, "DistrictId": 1, "Latitude": 22.756777, "Longitude": 120.300614, "IVRNo": 9785, "EXTVoiceNo": 9808, "traveltime": 0, "holidayTraveltime": 0}, {"Id": "9112", "pgp": 0, "GoBack": 1, "SID": 5362, "NameZh": "\u4ed5\u5143\u8def\u53e3", "RouteId": 872, "SeqNo": 11, "Terminal": 0, "DistrictId": 1, "Latitude": 22.75595, "Longitude": 120.29723, "IVRNo": 7924, "EXTVoiceNo": 9112, "traveltime": 0, "holidayTraveltime": 0}, {"Id": "3300", "pgp": 0, "GoBack": 1, "SID": 18158, "NameZh": "\u7532\u6a39\u8def\u53e3(\u7b2c\u4e8c\u6baf\u5100\u9928\u6a4b\u982d\u5206\u9928)", "RouteId": 872, "SeqNo": 12, "Terminal": 0, "DistrictId": 1, "Latitude": 22.758505, "Longitude": 120.297095, "IVRNo": 5781, "EXTVoiceNo": 13300, "traveltime": 0, "holidayTraveltime": 0}, {"Id": "9227", "pgp": 0, "GoBack": 1, "SID": 11403, "NameZh": "\u7532\u6a39\u8def", "RouteId": 872, "SeqNo": 13, "Terminal": 0, "DistrictId": 1, "Latitude": 22.762489, "Longitude": 120.299899, "IVRNo": 9786, "EXTVoiceNo": 9227, "traveltime": 0, "holidayTraveltime": 0}, {"Id": "9228", "pgp": 0, "GoBack": 1, "SID": 11404, "NameZh": "\u516c\u8def\u7e3d\u5c40\u5357\u8a13\u4e2d\u5fc3", "RouteId": 872, "SeqNo": 14, "Terminal": 0, "DistrictId": 1, "Latitude": 22.764112, "Longitude": 120.299268, "IVRNo": 9787, "EXTVoiceNo": 9228, "traveltime": 0, "holidayTraveltime": 0}, {"Id": "9229", "pgp": 0, "GoBack": 1, "SID": 11405, "NameZh": "\u4e94\u6797\u8def\u53e3", "RouteId": 872, "SeqNo": 15, "Terminal": 0, "DistrictId": 1, "Latitude": 22.762661, "Longitude": 120.294366, "IVRNo": 9788, "EXTVoiceNo": 9229, "traveltime": 0, "holidayTraveltime": 0}, {"Id": "9230", "pgp": 0, "GoBack": 1, "SID": 11406, "NameZh": "\u4e94\u6797\u570b\u5c0f", "RouteId": 872, "SeqNo": 16, "Terminal": 0, "DistrictId": 1, "Latitude": 22.759372, "Longitude": 120.294012, "IVRNo": 9789, "EXTVoiceNo": 9230, "traveltime": 0, "holidayTraveltime": 0}, {"Id": "7904", "pgp": 0, "GoBack": 1, "SID": 5342, "NameZh": "\u9ad8\u82d1\u5de5\u5546", "RouteId": 872, "SeqNo": 17, "Terminal": 0, "DistrictId": 1, "Latitude": 22.7575, "Longitude": 120.29215, "IVRNo": 7904, "EXTVoiceNo": 7904, "traveltime": 0, "holidayTraveltime": 0}, {"Id": "7925", "pgp": 0, "GoBack": 1, "SID": 5365, "NameZh": "\u828b\u5bee\u8def", "RouteId": 872, "SeqNo": 18, "Terminal": 0, "DistrictId": 1, "Latitude": 22.76, "Longitude": 120.2863, "IVRNo": 7925, "EXTVoiceNo": 7925, "traveltime": 0, "holidayTraveltime": 0}, {"Id": "7905", "pgp": 0, "GoBack": 1, "SID": 5343, "NameZh": "\u4e2d\u9d3b\u92fc\u9435(\u6a4b\u982d)", "RouteId": 872, "SeqNo": 19, "Terminal": 0, "DistrictId": 1, "Latitude": 22.76221, "Longitude": 120.27773, "IVRNo": 7905, "EXTVoiceNo": 7905, "traveltime": 0, "holidayTraveltime": 0}, {"Id": "9114", "pgp": 0, "GoBack": 1, "SID": 5366, "NameZh": "\u4e2d\u5d19\u8def", "RouteId": 872, "SeqNo": 20, "Terminal": 0, "DistrictId": 1, "Latitude": 22.76173, "Longitude": 120.27306, "IVRNo": 7926, "EXTVoiceNo": 9114, "traveltime": 0, "holidayTraveltime": 0}, {"Id": "9115", "pgp": 0, "GoBack": 1, "SID": 5368, "NameZh": "\u6893\u7fa9\u7b2c\u4e09\u516c\u5712", "RouteId": 872, "SeqNo": 21, "Terminal": 0, "DistrictId": 1, "Latitude": 22.76118, "Longitude": 120.26965, "IVRNo": 32343, "EXTVoiceNo": 9115, "traveltime": 0, "holidayTraveltime": 0}, {"Id": "7906", "pgp": 0, "GoBack": 1, "SID": 5344, "NameZh": "\u6893\u5b98\u5340\u516c\u6240", "RouteId": 872, "SeqNo": 22, "Terminal": 0, "DistrictId": 1, "Latitude": 22.760723, "Longitude": 120.266656, "IVRNo": 7906, "EXTVoiceNo": 7906, "traveltime": 0, "holidayTraveltime": 0}, {"Id": "7907", "pgp": 0, "GoBack": 1, "SID": 5345, "NameZh": "\u6893\u5b98\u570b\u5c0f", "RouteId": 872, "SeqNo": 23, "Terminal": 0, "DistrictId": 1, "Latitude": 22.760515, "Longitude": 120.264626, "IVRNo": 7907, "EXTVoiceNo": 7907, "traveltime": 0, "holidayTraveltime": 0}, {"Id": "7908", "pgp": 0, "GoBack": 1, "SID": 5346, "NameZh": "\u4fe1\u7fa9\u8def", "RouteId": 872, "SeqNo": 24, "Terminal": 0, "DistrictId": 1, "Latitude": 22.76229, "Longitude": 120.26244, "IVRNo": 7908, "EXTVoiceNo": 7908, "traveltime": 0, "holidayTraveltime": 0}, {"Id": "2468", "pgp": 0, "GoBack": 1, "SID": 17371, "NameZh": "\u6f2f\u5e95\u516c\u5712", "RouteId": 872, "SeqNo": 25, "Terminal": 0, "DistrictId": 1, "Latitude": 22.76736, "Longitude": 120.255985, "IVRNo": 2468, "EXTVoiceNo": 2468, "traveltime": 0, "holidayTraveltime": 0}, {"Id": "0909", "pgp": 0, "GoBack": 1, "SID": 13183, "NameZh": "\u5357\u5b89\u570b\u5c0f", "RouteId": 872, "SeqNo": 26, "Terminal": 0, "DistrictId": 1, "Latitude": 22.764433, "Longitude": 120.243388, "IVRNo": 909, "EXTVoiceNo": 909, "traveltime": 0, "holidayTraveltime": 0}, {"Id": "1854", "pgp": 0, "GoBack": 1, "SID": 17762, "NameZh": "\u6f2f\u5e95\u8def", "RouteId": 872, "SeqNo": 27, "Terminal": 0, "DistrictId": 1, "Latitude": 22.76919, "Longitude": 120.244975, "IVRNo": 11854, "EXTVoiceNo": 11854, "traveltime": 0, "holidayTraveltime": 0}, {"Id": "0366", "pgp": 0, "GoBack": 1, "SID": 17763, "NameZh": "\u5f4c\u9640\u570b\u4e2d(\u9032\u5b78\u8def)", "RouteId": 872, "SeqNo": 28, "Terminal": 0, "DistrictId": 1, "Latitude": 22.776251, "Longitude": 120.246925, "IVRNo": 2352, "EXTVoiceNo": 366, "traveltime": 0, "holidayTraveltime": 0}, {"Id": "7910", "pgp": 0, "GoBack": 1, "SID": 5348, "NameZh": "\u5f4c\u9640\u570b\u4e2d(\u4e2d\u6b63\u5357\u8def)", "RouteId": 872, "SeqNo": 29, "Terminal": 0, "DistrictId": 1, "Latitude": 22.77741, "Longitude": 120.25091, "IVRNo": 869, "EXTVoiceNo": 7910, "traveltime": 0, "holidayTraveltime": 0}, {"Id": "7911", "pgp": 0, "GoBack": 1, "SID": 5349, "NameZh": "\u5f4c\u9640\u5340\u516c\u6240", "RouteId": 872, "SeqNo": 30, "Terminal": 0, "DistrictId": 1, "Latitude": 22.780392, "Longitude": 120.249284, "IVRNo": 7911, "EXTVoiceNo": 7911, "traveltime": 0, "holidayTraveltime": 0}, {"Id": "7912", "pgp": 0, "GoBack": 1, "SID": 5350, "NameZh": "\u5f4c\u9640\u570b\u5c0f", "RouteId": 872, "SeqNo": 31, "Terminal": 0, "DistrictId": 1, "Latitude": 22.784147, "Longitude": 120.248042, "IVRNo": 7912, "EXTVoiceNo": 7912, "traveltime": 0, "holidayTraveltime": 0}, {"Id": "0323", "pgp": 0, "GoBack": 1, "SID": 6686, "NameZh": "\u4e2d\u6b63\u897f\u8def\u53e3", "RouteId": 872, "SeqNo": 32, "Terminal": 0, "DistrictId": 1, "Latitude": 22.783898, "Longitude": 120.245817, "IVRNo": 323, "EXTVoiceNo": 323, "traveltime": 0, "holidayTraveltime": 0}, {"Id": "0324", "pgp": 0, "GoBack": 1, "SID": 6741, "NameZh": "\u5149\u548c\u8def", "RouteId": 872, "SeqNo": 33, "Terminal": 0, "DistrictId": 1, "Latitude": 22.783266, "Longitude": 120.243589, "IVRNo": 324, "EXTVoiceNo": 324, "traveltime": 0, "holidayTraveltime": 0}, {"Id": "0325", "pgp": 0, "GoBack": 1, "SID": 9244, "NameZh": "\u5149\u548c\u5317\u8def", "RouteId": 872, "SeqNo": 34, "Terminal": 0, "DistrictId": 1, "Latitude": 22.78413, "Longitude": 120.242932, "IVRNo": 325, "EXTVoiceNo": 325, "traveltime": 0, "holidayTraveltime": 0}, {"Id": "0326", "pgp": 0, "GoBack": 1, "SID": 13830, "NameZh": "\u6a02\u5584\u5bae", "RouteId": 872, "SeqNo": 35, "Terminal": 0, "DistrictId": 1, "Latitude": 22.785992, "Longitude": 120.243288, "IVRNo": 326, "EXTVoiceNo": 326, "traveltime": 0, "holidayTraveltime": 0}, {"Id": "3303", "pgp": 0, "GoBack": 1, "SID": 14339, "NameZh": "\u5b89\u6a02\u5bae(\u9e7d\u6e2f\u4e8c\u8def)", "RouteId": 872, "SeqNo": 36, "Terminal": 1, "DistrictId": 1, "Latitude": 22.787864, "Longitude": 120.243037, "IVRNo": 14301, "EXTVoiceNo": 13303, "traveltime": 0, "holidayTraveltime": 0}, {"Id": "3303", "pgp": 0, "GoBack": 2, "SID": 14585, "NameZh": "\u5b89\u6a02\u5bae(\u9e7d\u6e2f\u4e8c\u8def)", "RouteId": 872, "SeqNo": 1, "Terminal": 0, "DistrictId": 1, "Latitude": 22.787864, "Longitude": 120.243037, "IVRNo": 14301, "EXTVoiceNo": 13303, "traveltime": 0, "holidayTraveltime": 0}, {"Id": "0326", "pgp": 0, "GoBack": 2, "SID": 7907, "NameZh": "\u6a02\u5584\u5bae", "RouteId": 872, "SeqNo": 2, "Terminal": 0, "DistrictId": 1, "Latitude": 22.786, "Longitude": 120.24325, "IVRNo": 326, "EXTVoiceNo": 326, "traveltime": 0, "holidayTraveltime": 0}, {"Id": "0325", "pgp": 0, "GoBack": 2, "SID": 16158, "NameZh": "\u5149\u548c\u5317\u8def", "RouteId": 872, "SeqNo": 3, "Terminal": 0, "DistrictId": 1, "Latitude": 22.784033, "Longitude": 120.242889, "IVRNo": 325, "EXTVoiceNo": 325, "traveltime": 0, "holidayTraveltime": 0}, {"Id": "0324", "pgp": 0, "GoBack": 2, "SID": 9797, "NameZh": "\u5149\u548c\u8def", "RouteId": 872, "SeqNo": 4, "Terminal": 0, "DistrictId": 1, "Latitude": 22.783193, "Longitude": 120.243471, "IVRNo": 324, "EXTVoiceNo": 324, "traveltime": 0, "holidayTraveltime": 0}, {"Id": "0323", "pgp": 0, "GoBack": 2, "SID": 9835, "NameZh": "\u4e2d\u6b63\u897f\u8def\u53e3", "RouteId": 872, "SeqNo": 5, "Terminal": 0, "DistrictId": 1, "Latitude": 22.783898, "Longitude": 120.245817, "IVRNo": 323, "EXTVoiceNo": 323, "traveltime": 0, "holidayTraveltime": 0}, {"Id": "7912", "pgp": 0, "GoBack": 2, "SID": 5351, "NameZh": "\u5f4c\u9640\u570b\u5c0f", "RouteId": 872, "SeqNo": 6, "Terminal": 0, "DistrictId": 1, "Latitude": 22.784184, "Longitude": 120.247969, "IVRNo": 7912, "EXTVoiceNo": 7912, "traveltime": 0, "holidayTraveltime": 0}, {"Id": "7911", "pgp": 0, "GoBack": 2, "SID": 5352, "NameZh": "\u5f4c\u9640\u5340\u516c\u6240", "RouteId": 872, "SeqNo": 7, "Terminal": 0, "DistrictId": 1, "Latitude": 22.780392, "Longitude": 120.249284, "IVRNo": 7911, "EXTVoiceNo": 7911, "traveltime": 0, "holidayTraveltime": 0}, {"Id": "7910", "pgp": 0, "GoBack": 2, "SID": 5353, "NameZh": "\u5f4c\u9640\u570b\u4e2d(\u4e2d\u6b63\u5357\u8def)", "RouteId": 872, "SeqNo": 8, "Terminal": 0, "DistrictId": 1, "Latitude": 22.77741, "Longitude": 120.25091, "IVRNo": 869, "EXTVoiceNo": 7910, "traveltime": 0, "holidayTraveltime": 0}, {"Id": "0366", "pgp": 0, "GoBack": 2, "SID": 17219, "NameZh": "\u5f4c\u9640\u570b\u4e2d(\u9032\u5b78\u8def)", "RouteId": 872, "SeqNo": 9, "Terminal": 0, "DistrictId": 1, "Latitude": 22.776177, "Longitude": 120.246786, "IVRNo": 2352, "EXTVoiceNo": 366, "traveltime": 0, "holidayTraveltime": 0}, {"Id": "1854", "pgp": 0, "GoBack": 2, "SID": 17807, "NameZh": "\u6f2f\u5e95\u8def", "RouteId": 872, "SeqNo": 10, "Terminal": 0, "DistrictId": 1, "Latitude": 22.76917, "Longitude": 120.244836, "IVRNo": 11854, "EXTVoiceNo": 11854, "traveltime": 0, "holidayTraveltime": 0}, {"Id": "0909", "pgp": 0, "GoBack": 2, "SID": 13189, "NameZh": "\u5357\u5b89\u570b\u5c0f", "RouteId": 872, "SeqNo": 11, "Terminal": 0, "DistrictId": 1, "Latitude": 22.764433, "Longitude": 120.243388, "IVRNo": 909, "EXTVoiceNo": 909, "traveltime": 0, "holidayTraveltime": 0}, {"Id": "2468", "pgp": 0, "GoBack": 2, "SID": 17376, "NameZh": "\u6f2f\u5e95\u516c\u5712", "RouteId": 872, "SeqNo": 12, "Terminal": 0, "DistrictId": 1, "Latitude": 22.76737, "Longitude": 120.256062, "IVRNo": 2468, "EXTVoiceNo": 2468, "traveltime": 0, "holidayTraveltime": 0}, {"Id": "7908", "pgp": 0, "GoBack": 2, "SID": 5355, "NameZh": "\u4fe1\u7fa9\u8def", "RouteId": 872, "SeqNo": 13, "Terminal": 0, "DistrictId": 1, "Latitude": 22.762279, "Longitude": 120.262347, "IVRNo": 7908, "EXTVoiceNo": 7908, "traveltime": 0, "holidayTraveltime": 0}, {"Id": "7907", "pgp": 0, "GoBack": 2, "SID": 5356, "NameZh": "\u6893\u5b98\u570b\u5c0f", "RouteId": 872, "SeqNo": 14, "Terminal": 0, "DistrictId": 1, "Latitude": 22.760466, "Longitude": 120.26463, "IVRNo": 7907, "EXTVoiceNo": 7907, "traveltime": 0, "holidayTraveltime": 0}, {"Id": "7906", "pgp": 0, "GoBack": 2, "SID": 5357, "NameZh": "\u6893\u5b98\u5340\u516c\u6240", "RouteId": 872, "SeqNo": 15, "Terminal": 0, "DistrictId": 1, "Latitude": 22.760694, "Longitude": 120.266658, "IVRNo": 7906, "EXTVoiceNo": 7906, "traveltime": 0, "holidayTraveltime": 0}, {"Id": "9115", "pgp": 0, "GoBack": 2, "SID": 5371, "NameZh": "\u6893\u7fa9\u7b2c\u4e09\u516c\u5712", "RouteId": 872, "SeqNo": 16, "Terminal": 0, "DistrictId": 1, "Latitude": 22.76111, "Longitude": 120.26931, "IVRNo": 32343, "EXTVoiceNo": 9115, "traveltime": 0, "holidayTraveltime": 0}, {"Id": "9114", "pgp": 0, "GoBack": 2, "SID": 5372, "NameZh": "\u4e2d\u5d19\u8def", "RouteId": 872, "SeqNo": 17, "Terminal": 0, "DistrictId": 1, "Latitude": 22.76164, "Longitude": 120.273019, "IVRNo": 7926, "EXTVoiceNo": 9114, "traveltime": 0, "holidayTraveltime": 0}, {"Id": "7905", "pgp": 0, "GoBack": 2, "SID": 5358, "NameZh": "\u4e2d\u9d3b\u92fc\u9435(\u6a4b\u982d)", "RouteId": 872, "SeqNo": 18, "Terminal": 0, "DistrictId": 1, "Latitude": 22.762149, "Longitude": 120.277725, "IVRNo": 7905, "EXTVoiceNo": 7905, "traveltime": 0, "holidayTraveltime": 0}, {"Id": "7925", "pgp": 0, "GoBack": 2, "SID": 5375, "NameZh": "\u828b\u5bee\u8def", "RouteId": 872, "SeqNo": 19, "Terminal": 0, "DistrictId": 1, "Latitude": 22.76016, "Longitude": 120.28563, "IVRNo": 7925, "EXTVoiceNo": 7925, "traveltime": 0, "holidayTraveltime": 0}, {"Id": "7904", "pgp": 0, "GoBack": 2, "SID": 5359, "NameZh": "\u9ad8\u82d1\u5de5\u5546", "RouteId": 872, "SeqNo": 20, "Terminal": 0, "DistrictId": 1, "Latitude": 22.757455, "Longitude": 120.291412, "IVRNo": 7904, "EXTVoiceNo": 7904, "traveltime": 0, "holidayTraveltime": 0}, {"Id": "9230", "pgp": 0, "GoBack": 2, "SID": 11439, "NameZh": "\u4e94\u6797\u570b\u5c0f", "RouteId": 872, "SeqNo": 21, "Terminal": 0, "DistrictId": 1, "Latitude": 22.759205, "Longitude": 120.29409, "IVRNo": 9789, "EXTVoiceNo": 9230, "traveltime": 0, "holidayTraveltime": 0}, {"Id": "9229", "pgp": 0, "GoBack": 2, "SID": 11440, "NameZh": "\u4e94\u6797\u8def\u53e3", "RouteId": 872, "SeqNo": 22, "Terminal": 0, "DistrictId": 1, "Latitude": 22.762579, "Longitude": 120.293975, "IVRNo": 9788, "EXTVoiceNo": 9229, "traveltime": 0, "holidayTraveltime": 0}, {"Id": "9228", "pgp": 0, "GoBack": 2, "SID": 11441, "NameZh": "\u516c\u8def\u7e3d\u5c40\u5357\u8a13\u4e2d\u5fc3", "RouteId": 872, "SeqNo": 23, "Terminal": 0, "DistrictId": 1, "Latitude": 22.764026, "Longitude": 120.299228, "IVRNo": 9787, "EXTVoiceNo": 9228, "traveltime": 0, "holidayTraveltime": 0}, {"Id": "9227", "pgp": 0, "GoBack": 2, "SID": 11442, "NameZh": "\u7532\u6a39\u8def", "RouteId": 872, "SeqNo": 24, "Terminal": 0, "DistrictId": 1, "Latitude": 22.762489, "Longitude": 120.299899, "IVRNo": 9786, "EXTVoiceNo": 9227, "traveltime": 0, "holidayTraveltime": 0}, {"Id": "3300", "pgp": 0, "GoBack": 2, "SID": 18164, "NameZh": "\u7532\u6a39\u8def\u53e3(\u7b2c\u4e8c\u6baf\u5100\u9928\u6a4b\u982d\u5206\u9928)", "RouteId": 872, "SeqNo": 25, "Terminal": 0, "DistrictId": 1, "Latitude": 22.758368, "Longitude": 120.296962, "IVRNo": 5781, "EXTVoiceNo": 13300, "traveltime": 0, "holidayTraveltime": 0}, {"Id": "9112", "pgp": 0, "GoBack": 2, "SID": 5376, "NameZh": "\u4ed5\u5143\u8def\u53e3", "RouteId": 872, "SeqNo": 26, "Terminal": 0, "DistrictId": 1, "Latitude": 22.75553, "Longitude": 120.29786, "IVRNo": 7924, "EXTVoiceNo": 9112, "traveltime": 0, "holidayTraveltime": 0}, {"Id": "9808", "pgp": 0, "GoBack": 2, "SID": 11443, "NameZh": "\u7f8e\u5fb7\u8857\u53e3", "RouteId": 872, "SeqNo": 27, "Terminal": 0, "DistrictId": 1, "Latitude": 22.758223, "Longitude": 120.30292, "IVRNo": 9785, "EXTVoiceNo": 9808, "traveltime": 0, "holidayTraveltime": 0}, {"Id": "7903", "pgp": 0, "GoBack": 2, "SID": 5360, "NameZh": "\u6a4b\u982d\u5340\u516c\u6240(\u767d\u6a39\u8def)", "RouteId": 872, "SeqNo": 28, "Terminal": 0, "DistrictId": 1, "Latitude": 22.758417, "Longitude": 120.30536, "IVRNo": 7706, "EXTVoiceNo": 7903, "traveltime": 0, "holidayTraveltime": 0}, {"Id": "7902", "pgp": 0, "GoBack": 2, "SID": 5361, "NameZh": "\u6a4b\u982d\u570b\u4e2d", "RouteId": 872, "SeqNo": 29, "Terminal": 0, "DistrictId": 1, "Latitude": 22.75874, "Longitude": 120.307076, "IVRNo": 7902, "EXTVoiceNo": 7902, "traveltime": 0, "holidayTraveltime": 0}, {"Id": "9125", "pgp": 0, "GoBack": 2, "SID": 5338, "NameZh": "\u6377\u904b\u6a4b\u982d\u706b\u8eca\u7ad9", "RouteId": 872, "SeqNo": 30, "Terminal": 0, "DistrictId": 1, "Latitude": 22.75962, "Longitude": 120.309805, "IVRNo": 7900, "EXTVoiceNo": 9125, "traveltime": 0, "holidayTraveltime": 0}, {"Id": "9641", "pgp": 0, "GoBack": 2, "SID": 7943, "NameZh": "\u5fb7\u677e\u8def\u53e3", "RouteId": 872, "SeqNo": 31, "Terminal": 0, "DistrictId": 1, "Latitude": 22.76406, "Longitude": 120.30758, "IVRNo": 9541, "EXTVoiceNo": 9641, "traveltime": 0, "holidayTraveltime": 0}, {"Id": "0828", "pgp": 0, "GoBack": 2, "SID": 8016, "NameZh": "\u6377\u904b\u5357\u5ca1\u5c71\u7ad9", "RouteId": 872, "SeqNo": 32, "Terminal": 0, "DistrictId": 1, "Latitude": 22.780347, "Longitude": 120.300666, "IVRNo": 828, "EXTVoiceNo": 828, "traveltime": 0, "holidayTraveltime": 0}, {"Id": "0322", "pgp": 0, "GoBack": 2, "SID": 10100, "NameZh": "\u7b46\u79c0\u6771\u8def\u53e3", "RouteId": 872, "SeqNo": 33, "Terminal": 0, "DistrictId": 1, "Latitude": 22.768453, "Longitude": 120.314701, "IVRNo": 322, "EXTVoiceNo": 322, "traveltime": 0, "holidayTraveltime": 0}, {"Id": "0321", "pgp": 0, "GoBack": 2, "SID": 13772, "NameZh": "\u7b46\u79c0\u6d3b\u52d5\u4e2d\u5fc3", "RouteId": 872, "SeqNo": 34, "Terminal": 0, "DistrictId": 1, "Latitude": 22.768651, "Longitude": 120.312279, "IVRNo": 321, "EXTVoiceNo": 321, "traveltime": 0, "holidayTraveltime": 0}, {"Id": "0320", "pgp": 0, "GoBack": 2, "SID": 13972, "NameZh": "\u7b46\u79c0", "RouteId": 872, "SeqNo": 35, "Terminal": 0, "DistrictId": 1, "Latitude": 22.768047, "Longitude": 120.309535, "IVRNo": 320, "EXTVoiceNo": 320, "traveltime": 0, "holidayTraveltime": 0}, {"Id": "0319", "pgp": 0, "GoBack": 2, "SID": 13987, "NameZh": "\u9ad8\u96c4\u5ba2\u904b\u5ca1\u5c71\u7ad9", "RouteId": 872, "SeqNo": 36, "Terminal": 1, "DistrictId": 1, "Latitude": 22.768256, "Longitude": 120.307485, "IVRNo": 319, "EXTVoiceNo": 319, "traveltime": 0, "holidayTraveltime": 0}]}