{"en": [{"Id": "7701", "pgp": 0, "GoBack": 1, "SID": 5258, "NameZh": "Police Radio Station (Chongjhong Rd.)", "RouteId": 161, "SeqNo": 1, "Terminal": 0, "DistrictId": 1, "Latitude": 22.688284, "Longitude": 120.316807, "IVRNo": 5010, "EXTVoiceNo": 7701, "traveltime": 0, "holidayTraveltime": 0}, {"Id": "0226", "pgp": 0, "GoBack": 1, "SID": 4443, "NameZh": "Wen-Fu Elementary School", "RouteId": 161, "SeqNo": 2, "Terminal": 0, "DistrictId": 1, "Latitude": 22.69107, "Longitude": 120.31432, "IVRNo": 5918, "EXTVoiceNo": 20226, "traveltime": 0, "holidayTraveltime": 0}, {"Id": "5069", "pgp": 0, "GoBack": 1, "SID": 5328, "NameZh": "Shin Kong Mitsukoshi Department Store (Kaohsiung Zuoying)", "RouteId": 161, "SeqNo": 3, "Terminal": 0, "DistrictId": 1, "Latitude": 22.688903, "Longitude": 120.310605, "IVRNo": 111, "EXTVoiceNo": 5069, "traveltime": 0, "holidayTraveltime": 0}, {"Id": "5026", "pgp": 0, "GoBack": 1, "SID": 3633, "NameZh": "THSR Zuoying Station", "RouteId": 161, "SeqNo": 4, "Terminal": 0, "DistrictId": 1, "Latitude": 22.686962, "Longitude": 120.308698, "IVRNo": 5026, "EXTVoiceNo": 5026, "traveltime": 0, "holidayTraveltime": 0}, {"Id": "0063", "pgp": 0, "GoBack": 1, "SID": 4415, "NameZh": "Dajhong Rd. Intersection I (Huasia Rd.)", "RouteId": 161, "SeqNo": 5, "Terminal": 0, "DistrictId": 1, "Latitude": 22.683738, "Longitude": 120.308409, "IVRNo": 5916, "EXTVoiceNo": 20063, "traveltime": 0, "holidayTraveltime": 0}, {"Id": "1074", "pgp": 0, "GoBack": 1, "SID": 4452, "NameZh": "Dajhong Rd. Intersection (Huasia Rd.)", "RouteId": 161, "SeqNo": 6, "Terminal": 0, "DistrictId": 1, "Latitude": 22.681798, "Longitude": 120.305906, "IVRNo": 1074, "EXTVoiceNo": 1074, "traveltime": 0, "holidayTraveltime": 0}, {"Id": "5903", "pgp": 0, "GoBack": 1, "SID": 4416, "NameZh": "Shin Kuang Elementary School", "RouteId": 161, "SeqNo": 7, "Terminal": 0, "DistrictId": 1, "Latitude": 22.68071, "Longitude": 120.304509, "IVRNo": 5903, "EXTVoiceNo": 5903, "traveltime": 0, "holidayTraveltime": 0}, {"Id": "5904", "pgp": 0, "GoBack": 1, "SID": 4419, "NameZh": "Mengzih Rd. Intersection", "RouteId": 161, "SeqNo": 8, "Terminal": 0, "DistrictId": 1, "Latitude": 22.6785, "Longitude": 120.30235, "IVRNo": 5904, "EXTVoiceNo": 5904, "traveltime": 0, "holidayTraveltime": 0}, {"Id": "9011", "pgp": 0, "GoBack": 1, "SID": 5902, "NameZh": "Chongde Rd. Intersection (Huasia Rd.)", "RouteId": 161, "SeqNo": 9, "Terminal": 0, "DistrictId": 1, "Latitude": 22.6765, "Longitude": 120.30069, "IVRNo": 9011, "EXTVoiceNo": 9011, "traveltime": 0, "holidayTraveltime": 0}, {"Id": "9012", "pgp": 0, "GoBack": 1, "SID": 5905, "NameZh": "Tongsin New Village", "RouteId": 161, "SeqNo": 10, "Terminal": 0, "DistrictId": 1, "Latitude": 22.6742, "Longitude": 120.29905, "IVRNo": 9012, "EXTVoiceNo": 9012, "traveltime": 0, "holidayTraveltime": 0}, {"Id": "8964", "pgp": 0, "GoBack": 1, "SID": 12285, "NameZh": "Sinjhuang Rd. Intersection", "RouteId": 161, "SeqNo": 11, "Terminal": 0, "DistrictId": 1, "Latitude": 22.67216, "Longitude": 120.29778, "IVRNo": 5685, "EXTVoiceNo": 8964, "traveltime": 0, "holidayTraveltime": 0}, {"Id": "8965", "pgp": 0, "GoBack": 1, "SID": 4148, "NameZh": "Nanbing Rd. Intersection", "RouteId": 161, "SeqNo": 12, "Terminal": 0, "DistrictId": 1, "Latitude": 22.6698, "Longitude": 120.2964, "IVRNo": 5620, "EXTVoiceNo": 8965, "traveltime": 0, "holidayTraveltime": 0}, {"Id": "5621", "pgp": 0, "GoBack": 1, "SID": 4152, "NameZh": "Huarong Rd.", "RouteId": 161, "SeqNo": 13, "Terminal": 0, "DistrictId": 1, "Latitude": 22.6677, "Longitude": 120.29587, "IVRNo": 5621, "EXTVoiceNo": 5621, "traveltime": 0, "holidayTraveltime": 0}, {"Id": "5622", "pgp": 0, "GoBack": 1, "SID": 4155, "NameZh": "Yucheng Rd. Intersection (Huarong Rd.)", "RouteId": 161, "SeqNo": 14, "Terminal": 0, "DistrictId": 1, "Latitude": 22.666246, "Longitude": 120.296905, "IVRNo": 5622, "EXTVoiceNo": 5622, "traveltime": 0, "holidayTraveltime": 0}, {"Id": "5063", "pgp": 0, "GoBack": 1, "SID": 5772, "NameZh": "Wunsin Rd. Intersection", "RouteId": 161, "SeqNo": 15, "Terminal": 0, "DistrictId": 1, "Latitude": 22.664512, "Longitude": 120.299987, "IVRNo": 5063, "EXTVoiceNo": 5063, "traveltime": 0, "holidayTraveltime": 0}, {"Id": "0032", "pgp": 0, "GoBack": 1, "SID": 5710, "NameZh": "MRT Kaohsiung Arena Station (Dujing Rd. Intersection)", "RouteId": 161, "SeqNo": 16, "Terminal": 0, "DistrictId": 1, "Latitude": 22.66453, "Longitude": 120.30276, "IVRNo": 8607, "EXTVoiceNo": 32, "traveltime": 0, "holidayTraveltime": 0}, {"Id": "0033", "pgp": 0, "GoBack": 1, "SID": 17857, "NameZh": "Liwen Rd.", "RouteId": 161, "SeqNo": 17, "Terminal": 0, "DistrictId": 1, "Latitude": 22.664468, "Longitude": 120.30586, "IVRNo": 7620, "EXTVoiceNo": 33, "traveltime": 0, "holidayTraveltime": 0}, {"Id": "8969", "pgp": 0, "GoBack": 1, "SID": 4169, "NameZh": "Fuguo Rd. Intersection", "RouteId": 161, "SeqNo": 18, "Terminal": 0, "DistrictId": 1, "Latitude": 22.665358, "Longitude": 120.307093, "IVRNo": 2218, "EXTVoiceNo": 8969, "traveltime": 0, "holidayTraveltime": 0}, {"Id": "0398", "pgp": 0, "GoBack": 1, "SID": 4420, "NameZh": "Zihyou 2nd Rd. Intersection", "RouteId": 161, "SeqNo": 19, "Terminal": 0, "DistrictId": 1, "Latitude": 22.6647, "Longitude": 120.30931, "IVRNo": 2217, "EXTVoiceNo": 20398, "traveltime": 0, "holidayTraveltime": 0}, {"Id": "0483", "pgp": 0, "GoBack": 1, "SID": 5677, "NameZh": "Mingji Rd.", "RouteId": 161, "SeqNo": 20, "Terminal": 0, "DistrictId": 1, "Latitude": 22.66319, "Longitude": 120.313608, "IVRNo": 8728, "EXTVoiceNo": 20483, "traveltime": 0, "holidayTraveltime": 0}, {"Id": "0485", "pgp": 0, "GoBack": 1, "SID": 5678, "NameZh": "Mingjhe Rd. Intersection", "RouteId": 161, "SeqNo": 21, "Terminal": 0, "DistrictId": 1, "Latitude": 22.660554, "Longitude": 120.314012, "IVRNo": 8727, "EXTVoiceNo": 20485, "traveltime": 0, "holidayTraveltime": 0}, {"Id": "0113", "pgp": 0, "GoBack": 1, "SID": 5298, "NameZh": "Dollars Mall (Minzu Store)", "RouteId": 161, "SeqNo": 22, "Terminal": 0, "DistrictId": 1, "Latitude": 22.659685, "Longitude": 120.314431, "IVRNo": 7705, "EXTVoiceNo": 20113, "traveltime": 0, "holidayTraveltime": 0}, {"Id": "5911", "pgp": 0, "GoBack": 1, "SID": 4422, "NameZh": "Dingjhong Intersection", "RouteId": 161, "SeqNo": 23, "Terminal": 0, "DistrictId": 1, "Latitude": 22.6599, "Longitude": 120.31958, "IVRNo": 5907, "EXTVoiceNo": 5911, "traveltime": 0, "holidayTraveltime": 0}, {"Id": "5908", "pgp": 0, "GoBack": 1, "SID": 4423, "NameZh": "Dingshan St.", "RouteId": 161, "SeqNo": 24, "Terminal": 0, "DistrictId": 1, "Latitude": 22.6592, "Longitude": 120.32194, "IVRNo": 5908, "EXTVoiceNo": 5908, "traveltime": 0, "holidayTraveltime": 0}, {"Id": "5412", "pgp": 0, "GoBack": 1, "SID": 4033, "NameZh": "Jhuangjing Primary School", "RouteId": 161, "SeqNo": 25, "Terminal": 0, "DistrictId": 1, "Latitude": 22.656, "Longitude": 120.32301, "IVRNo": 5412, "EXTVoiceNo": 5412, "traveltime": 0, "holidayTraveltime": 0}, {"Id": "5413", "pgp": 0, "GoBack": 1, "SID": 4036, "NameZh": "Lichih Industrial and Commercial School", "RouteId": 161, "SeqNo": 26, "Terminal": 0, "DistrictId": 1, "Latitude": 22.6537, "Longitude": 120.32614, "IVRNo": 5413, "EXTVoiceNo": 5413, "traveltime": 0, "holidayTraveltime": 0}, {"Id": "0227", "pgp": 0, "GoBack": 1, "SID": 1405, "NameZh": "National Kaohsiung University of Science and Technology(Jiangong)", "RouteId": 161, "SeqNo": 27, "Terminal": 0, "DistrictId": 1, "Latitude": 22.6517, "Longitude": 120.3283, "IVRNo": 227, "EXTVoiceNo": 227, "traveltime": 0, "holidayTraveltime": 0}, {"Id": "0228", "pgp": 0, "GoBack": 1, "SID": 1406, "NameZh": "Kaohsiung Municipal Industrial High School", "RouteId": 161, "SeqNo": 28, "Terminal": 0, "DistrictId": 1, "Latitude": 22.6508, "Longitude": 120.32602, "IVRNo": 228, "EXTVoiceNo": 228, "traveltime": 0, "holidayTraveltime": 0}, {"Id": "4068", "pgp": 0, "GoBack": 1, "SID": 2695, "NameZh": "Dashun 2nd Rd.", "RouteId": 161, "SeqNo": 29, "Terminal": 0, "DistrictId": 1, "Latitude": 22.6509, "Longitude": 120.32266, "IVRNo": 4027, "EXTVoiceNo": 4068, "traveltime": 0, "holidayTraveltime": 0}, {"Id": "4067", "pgp": 0, "GoBack": 1, "SID": 2703, "NameZh": "Dingshan St. Intersection", "RouteId": 161, "SeqNo": 30, "Terminal": 0, "DistrictId": 1, "Latitude": 22.652445, "Longitude": 120.320589, "IVRNo": 4028, "EXTVoiceNo": 4067, "traveltime": 0, "holidayTraveltime": 0}, {"Id": "5111", "pgp": 0, "GoBack": 1, "SID": 3824, "NameZh": "Dingjin Junior High School", "RouteId": 161, "SeqNo": 31, "Terminal": 0, "DistrictId": 1, "Latitude": 22.6548, "Longitude": 120.31971, "IVRNo": 5111, "EXTVoiceNo": 5111, "traveltime": 0, "holidayTraveltime": 0}, {"Id": "5110", "pgp": 0, "GoBack": 1, "SID": 3825, "NameZh": "Dingjin Elementary School", "RouteId": 161, "SeqNo": 32, "Terminal": 1, "DistrictId": 1, "Latitude": 22.656789, "Longitude": 120.321102, "IVRNo": 5110, "EXTVoiceNo": 5110, "traveltime": 0, "holidayTraveltime": 0}, {"Id": "5110", "pgp": 0, "GoBack": 2, "SID": 3826, "NameZh": "Dingjin Elementary School", "RouteId": 161, "SeqNo": 1, "Terminal": 0, "DistrictId": 1, "Latitude": 22.657103, "Longitude": 120.321402, "IVRNo": 5110, "EXTVoiceNo": 5110, "traveltime": 0, "holidayTraveltime": 0}, {"Id": "5908", "pgp": 0, "GoBack": 2, "SID": 4425, "NameZh": "Dingshan St.", "RouteId": 161, "SeqNo": 2, "Terminal": 0, "DistrictId": 1, "Latitude": 22.659398, "Longitude": 120.322025, "IVRNo": 5908, "EXTVoiceNo": 5908, "traveltime": 0, "holidayTraveltime": 0}, {"Id": "5911", "pgp": 0, "GoBack": 2, "SID": 4427, "NameZh": "Dingjhong Intersection", "RouteId": 161, "SeqNo": 3, "Terminal": 0, "DistrictId": 1, "Latitude": 22.6602, "Longitude": 120.31954, "IVRNo": 5907, "EXTVoiceNo": 5911, "traveltime": 0, "holidayTraveltime": 0}, {"Id": "0113", "pgp": 0, "GoBack": 2, "SID": 5270, "NameZh": "Dollars Mall (Minzu Store)", "RouteId": 161, "SeqNo": 4, "Terminal": 0, "DistrictId": 1, "Latitude": 22.659776, "Longitude": 120.314781, "IVRNo": 7705, "EXTVoiceNo": 20113, "traveltime": 0, "holidayTraveltime": 0}, {"Id": "0485", "pgp": 0, "GoBack": 2, "SID": 5675, "NameZh": "Mingjhe Rd. Intersection", "RouteId": 161, "SeqNo": 5, "Terminal": 0, "DistrictId": 1, "Latitude": 22.660795, "Longitude": 120.314221, "IVRNo": 8727, "EXTVoiceNo": 20485, "traveltime": 0, "holidayTraveltime": 0}, {"Id": "0483", "pgp": 0, "GoBack": 2, "SID": 5676, "NameZh": "Mingji Rd.", "RouteId": 161, "SeqNo": 6, "Terminal": 0, "DistrictId": 1, "Latitude": 22.66301, "Longitude": 120.31368, "IVRNo": 8728, "EXTVoiceNo": 20483, "traveltime": 0, "holidayTraveltime": 0}, {"Id": "0398", "pgp": 0, "GoBack": 2, "SID": 4429, "NameZh": "Zihyou 2nd Rd. Intersection", "RouteId": 161, "SeqNo": 7, "Terminal": 0, "DistrictId": 1, "Latitude": 22.6648, "Longitude": 120.30942, "IVRNo": 2217, "EXTVoiceNo": 20398, "traveltime": 0, "holidayTraveltime": 0}, {"Id": "8969", "pgp": 0, "GoBack": 2, "SID": 4210, "NameZh": "Fuguo Rd. Intersection", "RouteId": 161, "SeqNo": 8, "Terminal": 0, "DistrictId": 1, "Latitude": 22.665442, "Longitude": 120.307288, "IVRNo": 2218, "EXTVoiceNo": 8969, "traveltime": 0, "holidayTraveltime": 0}, {"Id": "0033", "pgp": 0, "GoBack": 2, "SID": 17858, "NameZh": "Liwen Rd.", "RouteId": 161, "SeqNo": 9, "Terminal": 0, "DistrictId": 1, "Latitude": 22.664468, "Longitude": 120.30586, "IVRNo": 7620, "EXTVoiceNo": 33, "traveltime": 0, "holidayTraveltime": 0}, {"Id": "0032", "pgp": 0, "GoBack": 2, "SID": 5706, "NameZh": "MRT Kaohsiung Arena Station (Dujing Rd. Intersection)", "RouteId": 161, "SeqNo": 10, "Terminal": 0, "DistrictId": 1, "Latitude": 22.66459, "Longitude": 120.30296, "IVRNo": 8607, "EXTVoiceNo": 32, "traveltime": 0, "holidayTraveltime": 0}, {"Id": "5063", "pgp": 0, "GoBack": 2, "SID": 5773, "NameZh": "Wunsin Rd. Intersection", "RouteId": 161, "SeqNo": 11, "Terminal": 0, "DistrictId": 1, "Latitude": 22.664626, "Longitude": 120.299183, "IVRNo": 5063, "EXTVoiceNo": 5063, "traveltime": 0, "holidayTraveltime": 0}, {"Id": "5622", "pgp": 0, "GoBack": 2, "SID": 4222, "NameZh": "Yucheng Rd. Intersection (Huarong Rd.)", "RouteId": 161, "SeqNo": 12, "Terminal": 0, "DistrictId": 1, "Latitude": 22.6662, "Longitude": 120.29675, "IVRNo": 5622, "EXTVoiceNo": 5622, "traveltime": 0, "holidayTraveltime": 0}, {"Id": "5621", "pgp": 0, "GoBack": 2, "SID": 4226, "NameZh": "Huarong Rd.", "RouteId": 161, "SeqNo": 13, "Terminal": 0, "DistrictId": 1, "Latitude": 22.6676, "Longitude": 120.296046, "IVRNo": 5621, "EXTVoiceNo": 5621, "traveltime": 0, "holidayTraveltime": 0}, {"Id": "8965", "pgp": 0, "GoBack": 2, "SID": 4228, "NameZh": "Nanbing Rd. Intersection", "RouteId": 161, "SeqNo": 14, "Terminal": 0, "DistrictId": 1, "Latitude": 22.6698, "Longitude": 120.29649, "IVRNo": 5620, "EXTVoiceNo": 8965, "traveltime": 0, "holidayTraveltime": 0}, {"Id": "8964", "pgp": 0, "GoBack": 2, "SID": 12286, "NameZh": "Sinjhuang Rd. Intersection", "RouteId": 161, "SeqNo": 15, "Terminal": 0, "DistrictId": 1, "Latitude": 22.67206, "Longitude": 120.29785, "IVRNo": 5685, "EXTVoiceNo": 8964, "traveltime": 0, "holidayTraveltime": 0}, {"Id": "9012", "pgp": 0, "GoBack": 2, "SID": 5906, "NameZh": "Tongsin New Village", "RouteId": 161, "SeqNo": 16, "Terminal": 0, "DistrictId": 1, "Latitude": 22.6741, "Longitude": 120.29905, "IVRNo": 9012, "EXTVoiceNo": 9012, "traveltime": 0, "holidayTraveltime": 0}, {"Id": "9011", "pgp": 0, "GoBack": 2, "SID": 5909, "NameZh": "Chongde Rd. Intersection (Huasia Rd.)", "RouteId": 161, "SeqNo": 17, "Terminal": 0, "DistrictId": 1, "Latitude": 22.6765, "Longitude": 120.30091, "IVRNo": 9011, "EXTVoiceNo": 9011, "traveltime": 0, "holidayTraveltime": 0}, {"Id": "5904", "pgp": 0, "GoBack": 2, "SID": 4430, "NameZh": "Mengzih Rd. Intersection", "RouteId": 161, "SeqNo": 18, "Terminal": 0, "DistrictId": 1, "Latitude": 22.6783, "Longitude": 120.30234, "IVRNo": 5904, "EXTVoiceNo": 5904, "traveltime": 0, "holidayTraveltime": 0}, {"Id": "5903", "pgp": 0, "GoBack": 2, "SID": 4434, "NameZh": "Shin Kuang Elementary School", "RouteId": 161, "SeqNo": 19, "Terminal": 0, "DistrictId": 1, "Latitude": 22.680612, "Longitude": 120.30465, "IVRNo": 5903, "EXTVoiceNo": 5903, "traveltime": 0, "holidayTraveltime": 0}, {"Id": "1074", "pgp": 0, "GoBack": 2, "SID": 4450, "NameZh": "Dajhong Rd. Intersection (Huasia Rd.)", "RouteId": 161, "SeqNo": 20, "Terminal": 0, "DistrictId": 1, "Latitude": 22.682654, "Longitude": 120.307041, "IVRNo": 1074, "EXTVoiceNo": 1074, "traveltime": 0, "holidayTraveltime": 0}, {"Id": "0063", "pgp": 0, "GoBack": 2, "SID": 4435, "NameZh": "Dajhong Rd. Intersection I (Huasia Rd.)", "RouteId": 161, "SeqNo": 21, "Terminal": 0, "DistrictId": 1, "Latitude": 22.683514, "Longitude": 120.308263, "IVRNo": 5916, "EXTVoiceNo": 20063, "traveltime": 0, "holidayTraveltime": 0}, {"Id": "5917", "pgp": 0, "GoBack": 2, "SID": 4439, "NameZh": "Jhongping Rd. Intersection", "RouteId": 161, "SeqNo": 22, "Terminal": 0, "DistrictId": 1, "Latitude": 22.685401, "Longitude": 120.311056, "IVRNo": 5759, "EXTVoiceNo": 5917, "traveltime": 0, "holidayTraveltime": 0}, {"Id": "1008", "pgp": 0, "GoBack": 2, "SID": 11306, "NameZh": "HSR Gaotie Rd. Intersection(Zuoying Shin Kong Mitsukoshi Department Store)", "RouteId": 161, "SeqNo": 23, "Terminal": 0, "DistrictId": 1, "Latitude": 22.68896, "Longitude": 120.31158, "IVRNo": 5069, "EXTVoiceNo": 1008, "traveltime": 0, "holidayTraveltime": 0}, {"Id": "5069", "pgp": 0, "GoBack": 2, "SID": 11307, "NameZh": "Shin Kong Mitsukoshi Department Store (Kaohsiung Zuoying)", "RouteId": 161, "SeqNo": 24, "Terminal": 0, "DistrictId": 1, "Latitude": 22.68908, "Longitude": 120.31086, "IVRNo": 111, "EXTVoiceNo": 5069, "traveltime": 0, "holidayTraveltime": 0}, {"Id": "5026", "pgp": 0, "GoBack": 2, "SID": 4446, "NameZh": "THSR Zuoying Station", "RouteId": 161, "SeqNo": 25, "Terminal": 0, "DistrictId": 1, "Latitude": 22.687215, "Longitude": 120.309019, "IVRNo": 5026, "EXTVoiceNo": 5026, "traveltime": 0, "holidayTraveltime": 0}, {"Id": "2374", "pgp": 0, "GoBack": 2, "SID": 18368, "NameZh": "Jhongsin Rd. Intersection", "RouteId": 161, "SeqNo": 26, "Terminal": 0, "DistrictId": 1, "Latitude": 22.683056, "Longitude": 120.312249, "IVRNo": 9819, "EXTVoiceNo": 32374, "traveltime": 0, "holidayTraveltime": 0}, {"Id": "7701", "pgp": 0, "GoBack": 2, "SID": 5256, "NameZh": "Police Radio Station (Chongjhong Rd.)", "RouteId": 161, "SeqNo": 27, "Terminal": 1, "DistrictId": 1, "Latitude": 22.68824, "Longitude": 120.316609, "IVRNo": 5010, "EXTVoiceNo": 7701, "traveltime": 0, "holidayTraveltime": 0}], "zh": [{"Id": "7701", "pgp": 0, "GoBack": 1, "SID": 5258, "NameZh": "\u8b66\u5ee3\u7ad9(\u91cd\u5fe0\u8def)", "RouteId": 161, "SeqNo": 1, "Terminal": 0, "DistrictId": 1, "Latitude": 22.688284, "Longitude": 120.316807, "IVRNo": 5010, "EXTVoiceNo": 7701, "traveltime": 0, "holidayTraveltime": 0}, {"Id": "0226", "pgp": 0, "GoBack": 1, "SID": 4443, "NameZh": "\u6587\u5e9c\u570b\u5c0f", "RouteId": 161, "SeqNo": 2, "Terminal": 0, "DistrictId": 1, "Latitude": 22.69107, "Longitude": 120.31432, "IVRNo": 5918, "EXTVoiceNo": 20226, "traveltime": 0, "holidayTraveltime": 0}, {"Id": "5069", "pgp": 0, "GoBack": 1, "SID": 5328, "NameZh": "\u5de6\u71df\u65b0\u5149\u4e09\u8d8a", "RouteId": 161, "SeqNo": 3, "Terminal": 0, "DistrictId": 1, "Latitude": 22.688903, "Longitude": 120.310605, "IVRNo": 111, "EXTVoiceNo": 5069, "traveltime": 0, "holidayTraveltime": 0}, {"Id": "5026", "pgp": 0, "GoBack": 1, "SID": 3633, "NameZh": "\u9ad8\u9435\u5de6\u71df\u7ad9", "RouteId": 161, "SeqNo": 4, "Terminal": 0, "DistrictId": 1, "Latitude": 22.686962, "Longitude": 120.308698, "IVRNo": 5026, "EXTVoiceNo": 5026, "traveltime": 0, "holidayTraveltime": 0}, {"Id": "0063", "pgp": 0, "GoBack": 1, "SID": 4415, "NameZh": "\u5927\u4e2d\u8def\u53e3\u4e00(\u83ef\u590f\u8def)", "RouteId": 161, "SeqNo": 5, "Terminal": 0, "DistrictId": 1, "Latitude": 22.683738, "Longitude": 120.308409, "IVRNo": 5916, "EXTVoiceNo": 20063, "traveltime": 0, "holidayTraveltime": 0}, {"Id": "1074", "pgp": 0, "GoBack": 1, "SID": 4452, "NameZh": "\u5927\u4e2d\u8def\u53e3(\u83ef\u590f\u8def)", "RouteId": 161, "SeqNo": 6, "Terminal": 0, "DistrictId": 1, "Latitude": 22.681798, "Longitude": 120.305906, "IVRNo": 1074, "EXTVoiceNo": 1074, "traveltime": 0, "holidayTraveltime": 0}, {"Id": "5903", "pgp": 0, "GoBack": 1, "SID": 4416, "NameZh": "\u65b0\u5149\u570b\u5c0f", "RouteId": 161, "SeqNo": 7, "Terminal": 0, "DistrictId": 1, "Latitude": 22.68071, "Longitude": 120.304509, "IVRNo": 5903, "EXTVoiceNo": 5903, "traveltime": 0, "holidayTraveltime": 0}, {"Id": "5904", "pgp": 0, "GoBack": 1, "SID": 4419, "NameZh": "\u5b5f\u5b50\u8def\u53e3", "RouteId": 161, "SeqNo": 8, "Terminal": 0, "DistrictId": 1, "Latitude": 22.6785, "Longitude": 120.30235, "IVRNo": 5904, "EXTVoiceNo": 5904, "traveltime": 0, "holidayTraveltime": 0}, {"Id": "9011", "pgp": 0, "GoBack": 1, "SID": 5902, "NameZh": "\u5d07\u5fb7\u8def\u53e3(\u83ef\u590f\u8def)", "RouteId": 161, "SeqNo": 9, "Terminal": 0, "DistrictId": 1, "Latitude": 22.6765, "Longitude": 120.30069, "IVRNo": 9011, "EXTVoiceNo": 9011, "traveltime": 0, "holidayTraveltime": 0}, {"Id": "9012", "pgp": 0, "GoBack": 1, "SID": 5905, "NameZh": "\u540c\u5fc3\u65b0\u6751", "RouteId": 161, "SeqNo": 10, "Terminal": 0, "DistrictId": 1, "Latitude": 22.6742, "Longitude": 120.29905, "IVRNo": 9012, "EXTVoiceNo": 9012, "traveltime": 0, "holidayTraveltime": 0}, {"Id": "8964", "pgp": 0, "GoBack": 1, "SID": 12285, "NameZh": "\u65b0\u838a\u8def\u53e3", "RouteId": 161, "SeqNo": 11, "Terminal": 0, "DistrictId": 1, "Latitude": 22.67216, "Longitude": 120.29778, "IVRNo": 5685, "EXTVoiceNo": 8964, "traveltime": 0, "holidayTraveltime": 0}, {"Id": "8965", "pgp": 0, "GoBack": 1, "SID": 4148, "NameZh": "\u5357\u5c4f\u8def\u53e3", "RouteId": 161, "SeqNo": 12, "Terminal": 0, "DistrictId": 1, "Latitude": 22.6698, "Longitude": 120.2964, "IVRNo": 5620, "EXTVoiceNo": 8965, "traveltime": 0, "holidayTraveltime": 0}, {"Id": "5621", "pgp": 0, "GoBack": 1, "SID": 4152, "NameZh": "\u83ef\u69ae\u8def", "RouteId": 161, "SeqNo": 13, "Terminal": 0, "DistrictId": 1, "Latitude": 22.6677, "Longitude": 120.29587, "IVRNo": 5621, "EXTVoiceNo": 5621, "traveltime": 0, "holidayTraveltime": 0}, {"Id": "5622", "pgp": 0, "GoBack": 1, "SID": 4155, "NameZh": "\u88d5\u8aa0\u8def\u53e3(\u83ef\u69ae\u8def)", "RouteId": 161, "SeqNo": 14, "Terminal": 0, "DistrictId": 1, "Latitude": 22.666246, "Longitude": 120.296905, "IVRNo": 5622, "EXTVoiceNo": 5622, "traveltime": 0, "holidayTraveltime": 0}, {"Id": "5063", "pgp": 0, "GoBack": 1, "SID": 5772, "NameZh": "\u6587\u4fe1\u8def\u53e3", "RouteId": 161, "SeqNo": 15, "Terminal": 0, "DistrictId": 1, "Latitude": 22.664512, "Longitude": 120.299987, "IVRNo": 5063, "EXTVoiceNo": 5063, "traveltime": 0, "holidayTraveltime": 0}, {"Id": "0032", "pgp": 0, "GoBack": 1, "SID": 5710, "NameZh": "\u6377\u904b\u5de8\u86cb\u7ad9(\u7be4\u656c\u8def\u53e3)", "RouteId": 161, "SeqNo": 16, "Terminal": 0, "DistrictId": 1, "Latitude": 22.66453, "Longitude": 120.30276, "IVRNo": 8607, "EXTVoiceNo": 32, "traveltime": 0, "holidayTraveltime": 0}, {"Id": "0033", "pgp": 0, "GoBack": 1, "SID": 17857, "NameZh": "\u7acb\u6587\u8def", "RouteId": 161, "SeqNo": 17, "Terminal": 0, "DistrictId": 1, "Latitude": 22.664468, "Longitude": 120.30586, "IVRNo": 7620, "EXTVoiceNo": 33, "traveltime": 0, "holidayTraveltime": 0}, {"Id": "8969", "pgp": 0, "GoBack": 1, "SID": 4169, "NameZh": "\u5bcc\u570b\u8def\u53e3", "RouteId": 161, "SeqNo": 18, "Terminal": 0, "DistrictId": 1, "Latitude": 22.665358, "Longitude": 120.307093, "IVRNo": 2218, "EXTVoiceNo": 8969, "traveltime": 0, "holidayTraveltime": 0}, {"Id": "0398", "pgp": 0, "GoBack": 1, "SID": 4420, "NameZh": "\u81ea\u7531\u4e8c\u8def\u53e3", "RouteId": 161, "SeqNo": 19, "Terminal": 0, "DistrictId": 1, "Latitude": 22.6647, "Longitude": 120.30931, "IVRNo": 2217, "EXTVoiceNo": 20398, "traveltime": 0, "holidayTraveltime": 0}, {"Id": "0483", "pgp": 0, "GoBack": 1, "SID": 5677, "NameZh": "\u660e\u5409\u8def", "RouteId": 161, "SeqNo": 20, "Terminal": 0, "DistrictId": 1, "Latitude": 22.66319, "Longitude": 120.313608, "IVRNo": 8728, "EXTVoiceNo": 20483, "traveltime": 0, "holidayTraveltime": 0}, {"Id": "0485", "pgp": 0, "GoBack": 1, "SID": 5678, "NameZh": "\u660e\u54f2\u8def\u53e3", "RouteId": 161, "SeqNo": 21, "Terminal": 0, "DistrictId": 1, "Latitude": 22.660554, "Longitude": 120.314012, "IVRNo": 8727, "EXTVoiceNo": 20485, "traveltime": 0, "holidayTraveltime": 0}, {"Id": "0113", "pgp": 0, "GoBack": 1, "SID": 5298, "NameZh": "\u5927\u6a02\u6c11\u65cf\u5e97", "RouteId": 161, "SeqNo": 22, "Terminal": 0, "DistrictId": 1, "Latitude": 22.659685, "Longitude": 120.314431, "IVRNo": 7705, "EXTVoiceNo": 20113, "traveltime": 0, "holidayTraveltime": 0}, {"Id": "5911", "pgp": 0, "GoBack": 1, "SID": 4422, "NameZh": "\u9f0e\u4e2d\u8def\u53e3", "RouteId": 161, "SeqNo": 23, "Terminal": 0, "DistrictId": 1, "Latitude": 22.6599, "Longitude": 120.31958, "IVRNo": 5907, "EXTVoiceNo": 5911, "traveltime": 0, "holidayTraveltime": 0}, {"Id": "5908", "pgp": 0, "GoBack": 1, "SID": 4423, "NameZh": "\u9f0e\u5c71\u8857", "RouteId": 161, "SeqNo": 24, "Terminal": 0, "DistrictId": 1, "Latitude": 22.6592, "Longitude": 120.32194, "IVRNo": 5908, "EXTVoiceNo": 5908, "traveltime": 0, "holidayTraveltime": 0}, {"Id": "5412", "pgp": 0, "GoBack": 1, "SID": 4033, "NameZh": "\u838a\u656c\u570b\u5c0f", "RouteId": 161, "SeqNo": 25, "Terminal": 0, "DistrictId": 1, "Latitude": 22.656, "Longitude": 120.32301, "IVRNo": 5412, "EXTVoiceNo": 5412, "traveltime": 0, "holidayTraveltime": 0}, {"Id": "5413", "pgp": 0, "GoBack": 1, "SID": 4036, "NameZh": "\u7acb\u5fd7\u5de5\u5546", "RouteId": 161, "SeqNo": 26, "Terminal": 0, "DistrictId": 1, "Latitude": 22.6537, "Longitude": 120.32614, "IVRNo": 5413, "EXTVoiceNo": 5413, "traveltime": 0, "holidayTraveltime": 0}, {"Id": "0227", "pgp": 0, "GoBack": 1, "SID": 1405, "NameZh": "\u9ad8\u96c4\u79d1\u5927(\u5efa\u5de5)", "RouteId": 161, "SeqNo": 27, "Terminal": 0, "DistrictId": 1, "Latitude": 22.6517, "Longitude": 120.3283, "IVRNo": 227, "EXTVoiceNo": 227, "traveltime": 0, "holidayTraveltime": 0}, {"Id": "0228", "pgp": 0, "GoBack": 1, "SID": 1406, "NameZh": "\u9ad8\u96c4\u5de5\u8077", "RouteId": 161, "SeqNo": 28, "Terminal": 0, "DistrictId": 1, "Latitude": 22.6508, "Longitude": 120.32602, "IVRNo": 228, "EXTVoiceNo": 228, "traveltime": 0, "holidayTraveltime": 0}, {"Id": "4068", "pgp": 0, "GoBack": 1, "SID": 2695, "NameZh": "\u5927\u9806\u4e8c\u8def", "RouteId": 161, "SeqNo": 29, "Terminal": 0, "DistrictId": 1, "Latitude": 22.6509, "Longitude": 120.32266, "IVRNo": 4027, "EXTVoiceNo": 4068, "traveltime": 0, "holidayTraveltime": 0}, {"Id": "4067", "pgp": 0, "GoBack": 1, "SID": 2703, "NameZh": "\u9f0e\u5c71\u8857\u53e3", "RouteId": 161, "SeqNo": 30, "Terminal": 0, "DistrictId": 1, "Latitude": 22.652445, "Longitude": 120.320589, "IVRNo": 4028, "EXTVoiceNo": 4067, "traveltime": 0, "holidayTraveltime": 0}, {"Id": "5111", "pgp": 0, "GoBack": 1, "SID": 3824, "NameZh": "\u9f0e\u91d1\u570b\u4e2d", "RouteId": 161, "SeqNo": 31, "Terminal": 0, "DistrictId": 1, "Latitude": 22.6548, "Longitude": 120.31971, "IVRNo": 5111, "EXTVoiceNo": 5111, "traveltime": 0, "holidayTraveltime": 0}, {"Id": "5110", "pgp": 0, "GoBack": 1, "SID": 3825, "NameZh": "\u9f0e\u91d1\u570b\u5c0f", "RouteId": 161, "SeqNo": 32, "Terminal": 1, "DistrictId": 1, "Latitude": 22.656789, "Longitude": 120.321102, "IVRNo": 5110, "EXTVoiceNo": 5110, "traveltime": 0, "holidayTraveltime": 0}, {"Id": "5110", "pgp": 0, "GoBack": 2, "SID": 3826, "NameZh": "\u9f0e\u91d1\u570b\u5c0f", "RouteId": 161, "SeqNo": 1, "Terminal": 0, "DistrictId": 1, "Latitude": 22.657103, "Longitude": 120.321402, "IVRNo": 5110, "EXTVoiceNo": 5110, "traveltime": 0, "holidayTraveltime": 0}, {"Id": "5908", "pgp": 0, "GoBack": 2, "SID": 4425, "NameZh": "\u9f0e\u5c71\u8857", "RouteId": 161, "SeqNo": 2, "Terminal": 0, "DistrictId": 1, "Latitude": 22.659398, "Longitude": 120.322025, "IVRNo": 5908, "EXTVoiceNo": 5908, "traveltime": 0, "holidayTraveltime": 0}, {"Id": "5911", "pgp": 0, "GoBack": 2, "SID": 4427, "NameZh": "\u9f0e\u4e2d\u8def\u53e3", "RouteId": 161, "SeqNo": 3, "Terminal": 0, "DistrictId": 1, "Latitude": 22.6602, "Longitude": 120.31954, "IVRNo": 5907, "EXTVoiceNo": 5911, "traveltime": 0, "holidayTraveltime": 0}, {"Id": "0113", "pgp": 0, "GoBack": 2, "SID": 5270, "NameZh": "\u5927\u6a02\u6c11\u65cf\u5e97", "RouteId": 161, "SeqNo": 4, "Terminal": 0, "DistrictId": 1, "Latitude": 22.659776, "Longitude": 120.314781, "IVRNo": 7705, "EXTVoiceNo": 20113, "traveltime": 0, "holidayTraveltime": 0}, {"Id": "0485", "pgp": 0, "GoBack": 2, "SID": 5675, "NameZh": "\u660e\u54f2\u8def\u53e3", "RouteId": 161, "SeqNo": 5, "Terminal": 0, "DistrictId": 1, "Latitude": 22.660795, "Longitude": 120.314221, "IVRNo": 8727, "EXTVoiceNo": 20485, "traveltime": 0, "holidayTraveltime": 0}, {"Id": "0483", "pgp": 0, "GoBack": 2, "SID": 5676, "NameZh": "\u660e\u5409\u8def", "RouteId": 161, "SeqNo": 6, "Terminal": 0, "DistrictId": 1, "Latitude": 22.66301, "Longitude": 120.31368, "IVRNo": 8728, "EXTVoiceNo": 20483, "traveltime": 0, "holidayTraveltime": 0}, {"Id": "0398", "pgp": 0, "GoBack": 2, "SID": 4429, "NameZh": "\u81ea\u7531\u4e8c\u8def\u53e3", "RouteId": 161, "SeqNo": 7, "Terminal": 0, "DistrictId": 1, "Latitude": 22.6648, "Longitude": 120.30942, "IVRNo": 2217, "EXTVoiceNo": 20398, "traveltime": 0, "holidayTraveltime": 0}, {"Id": "8969", "pgp": 0, "GoBack": 2, "SID": 4210, "NameZh": "\u5bcc\u570b\u8def\u53e3", "RouteId": 161, "SeqNo": 8, "Terminal": 0, "DistrictId": 1, "Latitude": 22.665442, "Longitude": 120.307288, "IVRNo": 2218, "EXTVoiceNo": 8969, "traveltime": 0, "holidayTraveltime": 0}, {"Id": "0033", "pgp": 0, "GoBack": 2, "SID": 17858, "NameZh": "\u7acb\u6587\u8def", "RouteId": 161, "SeqNo": 9, "Terminal": 0, "DistrictId": 1, "Latitude": 22.664468, "Longitude": 120.30586, "IVRNo": 7620, "EXTVoiceNo": 33, "traveltime": 0, "holidayTraveltime": 0}, {"Id": "0032", "pgp": 0, "GoBack": 2, "SID": 5706, "NameZh": "\u6377\u904b\u5de8\u86cb\u7ad9(\u7be4\u656c\u8def\u53e3)", "RouteId": 161, "SeqNo": 10, "Terminal": 0, "DistrictId": 1, "Latitude": 22.66459, "Longitude": 120.30296, "IVRNo": 8607, "EXTVoiceNo": 32, "traveltime": 0, "holidayTraveltime": 0}, {"Id": "5063", "pgp": 0, "GoBack": 2, "SID": 5773, "NameZh": "\u6587\u4fe1\u8def\u53e3", "RouteId": 161, "SeqNo": 11, "Terminal": 0, "DistrictId": 1, "Latitude": 22.664626, "Longitude": 120.299183, "IVRNo": 5063, "EXTVoiceNo": 5063, "traveltime": 0, "holidayTraveltime": 0}, {"Id": "5622", "pgp": 0, "GoBack": 2, "SID": 4222, "NameZh": "\u88d5\u8aa0\u8def\u53e3(\u83ef\u69ae\u8def)", "RouteId": 161, "SeqNo": 12, "Terminal": 0, "DistrictId": 1, "Latitude": 22.6662, "Longitude": 120.29675, "IVRNo": 5622, "EXTVoiceNo": 5622, "traveltime": 0, "holidayTraveltime": 0}, {"Id": "5621", "pgp": 0, "GoBack": 2, "SID": 4226, "NameZh": "\u83ef\u69ae\u8def", "RouteId": 161, "SeqNo": 13, "Terminal": 0, "DistrictId": 1, "Latitude": 22.6676, "Longitude": 120.296046, "IVRNo": 5621, "EXTVoiceNo": 5621, "traveltime": 0, "holidayTraveltime": 0}, {"Id": "8965", "pgp": 0, "GoBack": 2, "SID": 4228, "NameZh": "\u5357\u5c4f\u8def\u53e3", "RouteId": 161, "SeqNo": 14, "Terminal": 0, "DistrictId": 1, "Latitude": 22.6698, "Longitude": 120.29649, "IVRNo": 5620, "EXTVoiceNo": 8965, "traveltime": 0, "holidayTraveltime": 0}, {"Id": "8964", "pgp": 0, "GoBack": 2, "SID": 12286, "NameZh": "\u65b0\u838a\u8def\u53e3", "RouteId": 161, "SeqNo": 15, "Terminal": 0, "DistrictId": 1, "Latitude": 22.67206, "Longitude": 120.29785, "IVRNo": 5685, "EXTVoiceNo": 8964, "traveltime": 0, "holidayTraveltime": 0}, {"Id": "9012", "pgp": 0, "GoBack": 2, "SID": 5906, "NameZh": "\u540c\u5fc3\u65b0\u6751", "RouteId": 161, "SeqNo": 16, "Terminal": 0, "DistrictId": 1, "Latitude": 22.6741, "Longitude": 120.29905, "IVRNo": 9012, "EXTVoiceNo": 9012, "traveltime": 0, "holidayTraveltime": 0}, {"Id": "9011", "pgp": 0, "GoBack": 2, "SID": 5909, "NameZh": "\u5d07\u5fb7\u8def\u53e3(\u83ef\u590f\u8def)", "RouteId": 161, "SeqNo": 17, "Terminal": 0, "DistrictId": 1, "Latitude": 22.6765, "Longitude": 120.30091, "IVRNo": 9011, "EXTVoiceNo": 9011, "traveltime": 0, "holidayTraveltime": 0}, {"Id": "5904", "pgp": 0, "GoBack": 2, "SID": 4430, "NameZh": "\u5b5f\u5b50\u8def\u53e3", "RouteId": 161, "SeqNo": 18, "Terminal": 0, "DistrictId": 1, "Latitude": 22.6783, "Longitude": 120.30234, "IVRNo": 5904, "EXTVoiceNo": 5904, "traveltime": 0, "holidayTraveltime": 0}, {"Id": "5903", "pgp": 0, "GoBack": 2, "SID": 4434, "NameZh": "\u65b0\u5149\u570b\u5c0f", "RouteId": 161, "SeqNo": 19, "Terminal": 0, "DistrictId": 1, "Latitude": 22.680612, "Longitude": 120.30465, "IVRNo": 5903, "EXTVoiceNo": 5903, "traveltime": 0, "holidayTraveltime": 0}, {"Id": "1074", "pgp": 0, "GoBack": 2, "SID": 4450, "NameZh": "\u5927\u4e2d\u8def\u53e3(\u83ef\u590f\u8def)", "RouteId": 161, "SeqNo": 20, "Terminal": 0, "DistrictId": 1, "Latitude": 22.682654, "Longitude": 120.307041, "IVRNo": 1074, "EXTVoiceNo": 1074, "traveltime": 0, "holidayTraveltime": 0}, {"Id": "0063", "pgp": 0, "GoBack": 2, "SID": 4435, "NameZh": "\u5927\u4e2d\u8def\u53e3\u4e00(\u83ef\u590f\u8def)", "RouteId": 161, "SeqNo": 21, "Terminal": 0, "DistrictId": 1, "Latitude": 22.683514, "Longitude": 120.308263, "IVRNo": 5916, "EXTVoiceNo": 20063, "traveltime": 0, "holidayTraveltime": 0}, {"Id": "5917", "pgp": 0, "GoBack": 2, "SID": 4439, "NameZh": "\u91cd\u5e73\u8def\u53e3", "RouteId": 161, "SeqNo": 22, "Terminal": 0, "DistrictId": 1, "Latitude": 22.685401, "Longitude": 120.311056, "IVRNo": 5759, "EXTVoiceNo": 5917, "traveltime": 0, "holidayTraveltime": 0}, {"Id": "1008", "pgp": 0, "GoBack": 2, "SID": 11306, "NameZh": "\u9ad8\u9435\u8def\u53e3(\u5de6\u71df\u65b0\u5149\u4e09\u8d8a)", "RouteId": 161, "SeqNo": 23, "Terminal": 0, "DistrictId": 1, "Latitude": 22.68896, "Longitude": 120.31158, "IVRNo": 5069, "EXTVoiceNo": 1008, "traveltime": 0, "holidayTraveltime": 0}, {"Id": "5069", "pgp": 0, "GoBack": 2, "SID": 11307, "NameZh": "\u5de6\u71df\u65b0\u5149\u4e09\u8d8a", "RouteId": 161, "SeqNo": 24, "Terminal": 0, "DistrictId": 1, "Latitude": 22.68908, "Longitude": 120.31086, "IVRNo": 111, "EXTVoiceNo": 5069, "traveltime": 0, "holidayTraveltime": 0}, {"Id": "5026", "pgp": 0, "GoBack": 2, "SID": 4446, "NameZh": "\u9ad8\u9435\u5de6\u71df\u7ad9", "RouteId": 161, "SeqNo": 25, "Terminal": 0, "DistrictId": 1, "Latitude": 22.687215, "Longitude": 120.309019, "IVRNo": 5026, "EXTVoiceNo": 5026, "traveltime": 0, "holidayTraveltime": 0}, {"Id": "2374", "pgp": 0, "GoBack": 2, "SID": 18368, "NameZh": "\u91cd\u4fe1\u8def\u53e3", "RouteId": 161, "SeqNo": 26, "Terminal": 0, "DistrictId": 1, "Latitude": 22.683056, "Longitude": 120.312249, "IVRNo": 9819, "EXTVoiceNo": 32374, "traveltime": 0, "holidayTraveltime": 0}, {"Id": "7701", "pgp": 0, "GoBack": 2, "SID": 5256, "NameZh": "\u8b66\u5ee3\u7ad9(\u91cd\u5fe0\u8def)", "RouteId": 161, "SeqNo": 27, "Terminal": 1, "DistrictId": 1, "Latitude": 22.68824, "Longitude": 120.316609, "IVRNo": 5010, "EXTVoiceNo": 7701, "traveltime": 0, "holidayTraveltime": 0}]}