{"en": [{"Id": "2001", "pgp": 0, "GoBack": 1, "SID": 1085, "NameZh": "Siaogang Station", "RouteId": 2113, "SeqNo": 1, "Terminal": 0, "DistrictId": 1, "Latitude": 22.56537, "Longitude": 120.3412, "IVRNo": 2000, "EXTVoiceNo": 2001, "traveltime": 0, "holidayTraveltime": 0}, {"Id": "2002", "pgp": 0, "GoBack": 1, "SID": 1086, "NameZh": "Siaogang Precinct", "RouteId": 2113, "SeqNo": 2, "Terminal": 0, "DistrictId": 1, "Latitude": 22.565553, "Longitude": 120.343961, "IVRNo": 2002, "EXTVoiceNo": 2002, "traveltime": 0, "holidayTraveltime": 0}, {"Id": "2003", "pgp": 0, "GoBack": 1, "SID": 1722, "NameZh": "Erling (Daye N. Rd.)", "RouteId": 2113, "SeqNo": 3, "Terminal": 0, "DistrictId": 1, "Latitude": 22.564839, "Longitude": 120.346382, "IVRNo": 2052, "EXTVoiceNo": 2003, "traveltime": 0, "holidayTraveltime": 0}, {"Id": "2570", "pgp": 0, "GoBack": 1, "SID": 1725, "NameZh": "Daye N. Rd.", "RouteId": 2113, "SeqNo": 4, "Terminal": 0, "DistrictId": 1, "Latitude": 22.562976, "Longitude": 120.348092, "IVRNo": 2504, "EXTVoiceNo": 2570, "traveltime": 0, "holidayTraveltime": 0}, {"Id": "2504", "pgp": 0, "GoBack": 1, "SID": 1728, "NameZh": "Dianbei Rd. Intersection", "RouteId": 2113, "SeqNo": 5, "Terminal": 0, "DistrictId": 1, "Latitude": 22.563612, "Longitude": 120.350301, "IVRNo": 2505, "EXTVoiceNo": 2504, "traveltime": 0, "holidayTraveltime": 0}, {"Id": "2305", "pgp": 0, "GoBack": 1, "SID": 1433, "NameZh": "Erling Elementary School (MRT Siaogang Station)", "RouteId": 2113, "SeqNo": 6, "Terminal": 0, "DistrictId": 1, "Latitude": 22.565594, "Longitude": 120.351747, "IVRNo": 2339, "EXTVoiceNo": 2305, "traveltime": 0, "holidayTraveltime": 0}, {"Id": "6028", "pgp": 0, "GoBack": 1, "SID": 4482, "NameZh": "MRT Siaogang Station", "RouteId": 2113, "SeqNo": 7, "Terminal": 0, "DistrictId": 1, "Latitude": 22.564926, "Longitude": 120.353538, "IVRNo": 2040, "EXTVoiceNo": 6028, "traveltime": 0, "holidayTraveltime": 0}, {"Id": "6052", "pgp": 0, "GoBack": 1, "SID": 4496, "NameZh": "Licyun Rd. Intersection", "RouteId": 2113, "SeqNo": 8, "Terminal": 0, "DistrictId": 1, "Latitude": 22.563016, "Longitude": 120.355181, "IVRNo": 6052, "EXTVoiceNo": 6052, "traveltime": 0, "holidayTraveltime": 0}, {"Id": "6030", "pgp": 0, "GoBack": 1, "SID": 4488, "NameZh": "Yanhai 1st Rd.", "RouteId": 2113, "SeqNo": 9, "Terminal": 0, "DistrictId": 1, "Latitude": 22.562101, "Longitude": 120.355949, "IVRNo": 6030, "EXTVoiceNo": 6030, "traveltime": 0, "holidayTraveltime": 0}, {"Id": "6035", "pgp": 0, "GoBack": 1, "SID": 4490, "NameZh": "Tang Eng Iron Works Co., Ltd.", "RouteId": 2113, "SeqNo": 10, "Terminal": 0, "DistrictId": 1, "Latitude": 22.544921, "Longitude": 120.369228, "IVRNo": 6035, "EXTVoiceNo": 6035, "traveltime": 0, "holidayTraveltime": 0}, {"Id": "2536", "pgp": 0, "GoBack": 1, "SID": 1585, "NameZh": "Fongbitou (Yanhai Rd.)", "RouteId": 2113, "SeqNo": 11, "Terminal": 0, "DistrictId": 1, "Latitude": 22.512551, "Longitude": 120.36175, "IVRNo": 2536, "EXTVoiceNo": 2536, "traveltime": 0, "holidayTraveltime": 0}, {"Id": "2358", "pgp": 0, "GoBack": 1, "SID": 1558, "NameZh": "Daan Forest", "RouteId": 2113, "SeqNo": 12, "Terminal": 0, "DistrictId": 1, "Latitude": 22.508752, "Longitude": 120.366323, "IVRNo": 2358, "EXTVoiceNo": 2358, "traveltime": 0, "holidayTraveltime": 0}, {"Id": "2492", "pgp": 0, "GoBack": 1, "SID": 1708, "NameZh": "Haician Rd. Intersection", "RouteId": 2113, "SeqNo": 13, "Terminal": 0, "DistrictId": 1, "Latitude": 22.507485, "Longitude": 120.368163, "IVRNo": 2492, "EXTVoiceNo": 2492, "traveltime": 0, "holidayTraveltime": 0}, {"Id": "2359", "pgp": 0, "GoBack": 1, "SID": 1559, "NameZh": "Jhongmen 7-11 Station", "RouteId": 2113, "SeqNo": 14, "Terminal": 0, "DistrictId": 1, "Latitude": 22.504951, "Longitude": 120.371831, "IVRNo": 2359, "EXTVoiceNo": 2359, "traveltime": 0, "holidayTraveltime": 0}, {"Id": "2360", "pgp": 0, "GoBack": 1, "SID": 1565, "NameZh": "Gangpu Police Station", "RouteId": 2113, "SeqNo": 15, "Terminal": 0, "DistrictId": 1, "Latitude": 22.5041, "Longitude": 120.37648, "IVRNo": 2360, "EXTVoiceNo": 2360, "traveltime": 0, "holidayTraveltime": 0}, {"Id": "2361", "pgp": 0, "GoBack": 1, "SID": 1566, "NameZh": "Dingcuo Rd. Intersection", "RouteId": 2113, "SeqNo": 16, "Terminal": 0, "DistrictId": 1, "Latitude": 22.50351, "Longitude": 120.37981, "IVRNo": 2361, "EXTVoiceNo": 2361, "traveltime": 0, "holidayTraveltime": 0}, {"Id": "2490", "pgp": 0, "GoBack": 1, "SID": 1706, "NameZh": "Guoguo Lane Intersection", "RouteId": 2113, "SeqNo": 17, "Terminal": 0, "DistrictId": 1, "Latitude": 22.50126, "Longitude": 120.38418, "IVRNo": 2490, "EXTVoiceNo": 2490, "traveltime": 0, "holidayTraveltime": 0}, {"Id": "2362", "pgp": 0, "GoBack": 1, "SID": 1567, "NameZh": "Tiancuo Rd. Intersection", "RouteId": 2113, "SeqNo": 18, "Terminal": 0, "DistrictId": 1, "Latitude": 22.50005, "Longitude": 120.3871, "IVRNo": 2362, "EXTVoiceNo": 2362, "traveltime": 0, "holidayTraveltime": 0}, {"Id": "2363", "pgp": 0, "GoBack": 1, "SID": 1568, "NameZh": "Shin Kong Life Insurance", "RouteId": 2113, "SeqNo": 19, "Terminal": 0, "DistrictId": 1, "Latitude": 22.50006, "Longitude": 120.39275, "IVRNo": 2363, "EXTVoiceNo": 2363, "traveltime": 0, "holidayTraveltime": 0}, {"Id": "2365", "pgp": 0, "GoBack": 1, "SID": 1570, "NameZh": "Cathay Life Insurance Co., Ltd.", "RouteId": 2113, "SeqNo": 20, "Terminal": 0, "DistrictId": 1, "Latitude": 22.501521, "Longitude": 120.397878, "IVRNo": 2365, "EXTVoiceNo": 2365, "traveltime": 0, "holidayTraveltime": 0}, {"Id": "2487", "pgp": 0, "GoBack": 1, "SID": 1701, "NameZh": "Fonglin Rd. Sec. 1", "RouteId": 2113, "SeqNo": 21, "Terminal": 0, "DistrictId": 1, "Latitude": 22.506882, "Longitude": 120.396605, "IVRNo": 2487, "EXTVoiceNo": 2487, "traveltime": 0, "holidayTraveltime": 0}, {"Id": "2488", "pgp": 0, "GoBack": 1, "SID": 1702, "NameZh": "Linyuan Senior High School", "RouteId": 2113, "SeqNo": 22, "Terminal": 1, "DistrictId": 1, "Latitude": 22.51268, "Longitude": 120.39488, "IVRNo": 359, "EXTVoiceNo": 2488, "traveltime": 0, "holidayTraveltime": 0}, {"Id": "9386", "pgp": 0, "GoBack": 2, "SID": 12240, "NameZh": "Linyuan District Office", "RouteId": 2113, "SeqNo": 1, "Terminal": 0, "DistrictId": 1, "Latitude": 22.5076, "Longitude": 120.394877, "IVRNo": 2366, "EXTVoiceNo": 9386, "traveltime": 0, "holidayTraveltime": 0}, {"Id": "2487", "pgp": 0, "GoBack": 2, "SID": 1703, "NameZh": "Fonglin Rd. Sec. 1", "RouteId": 2113, "SeqNo": 2, "Terminal": 0, "DistrictId": 1, "Latitude": 22.5061, "Longitude": 120.39668, "IVRNo": 2487, "EXTVoiceNo": 2487, "traveltime": 0, "holidayTraveltime": 0}, {"Id": "2365", "pgp": 0, "GoBack": 2, "SID": 1572, "NameZh": "Cathay Life Insurance Co., Ltd.", "RouteId": 2113, "SeqNo": 3, "Terminal": 0, "DistrictId": 1, "Latitude": 22.50156, "Longitude": 120.39771, "IVRNo": 2365, "EXTVoiceNo": 2365, "traveltime": 0, "holidayTraveltime": 0}, {"Id": "0802", "pgp": 0, "GoBack": 2, "SID": 13344, "NameZh": "No.10 Park", "RouteId": 2113, "SeqNo": 4, "Terminal": 0, "DistrictId": 1, "Latitude": 22.500418, "Longitude": 120.394989, "IVRNo": 802, "EXTVoiceNo": 802, "traveltime": 0, "holidayTraveltime": 0}, {"Id": "2363", "pgp": 0, "GoBack": 2, "SID": 1573, "NameZh": "Shin Kong Life Insurance", "RouteId": 2113, "SeqNo": 5, "Terminal": 0, "DistrictId": 1, "Latitude": 22.50016, "Longitude": 120.39288, "IVRNo": 2363, "EXTVoiceNo": 2363, "traveltime": 0, "holidayTraveltime": 0}, {"Id": "2362", "pgp": 0, "GoBack": 2, "SID": 1576, "NameZh": "Tiancuo Rd. Intersection", "RouteId": 2113, "SeqNo": 6, "Terminal": 0, "DistrictId": 1, "Latitude": 22.50015, "Longitude": 120.38708, "IVRNo": 2362, "EXTVoiceNo": 2362, "traveltime": 0, "holidayTraveltime": 0}, {"Id": "2490", "pgp": 0, "GoBack": 2, "SID": 1707, "NameZh": "Guoguo Lane Intersection", "RouteId": 2113, "SeqNo": 7, "Terminal": 0, "DistrictId": 1, "Latitude": 22.500913, "Longitude": 120.385136, "IVRNo": 2490, "EXTVoiceNo": 2490, "traveltime": 0, "holidayTraveltime": 0}, {"Id": "2361", "pgp": 0, "GoBack": 2, "SID": 1577, "NameZh": "Dingcuo Rd. Intersection", "RouteId": 2113, "SeqNo": 8, "Terminal": 0, "DistrictId": 1, "Latitude": 22.503589, "Longitude": 120.379801, "IVRNo": 2361, "EXTVoiceNo": 2361, "traveltime": 0, "holidayTraveltime": 0}, {"Id": "2360", "pgp": 0, "GoBack": 2, "SID": 1578, "NameZh": "Gangpu Police Station", "RouteId": 2113, "SeqNo": 9, "Terminal": 0, "DistrictId": 1, "Latitude": 22.504196, "Longitude": 120.376493, "IVRNo": 2360, "EXTVoiceNo": 2360, "traveltime": 0, "holidayTraveltime": 0}, {"Id": "2359", "pgp": 0, "GoBack": 2, "SID": 1579, "NameZh": "Jhongmen 7-11 Station", "RouteId": 2113, "SeqNo": 10, "Terminal": 0, "DistrictId": 1, "Latitude": 22.505023, "Longitude": 120.372022, "IVRNo": 2359, "EXTVoiceNo": 2359, "traveltime": 0, "holidayTraveltime": 0}, {"Id": "2492", "pgp": 0, "GoBack": 2, "SID": 1709, "NameZh": "Haician Rd. Intersection", "RouteId": 2113, "SeqNo": 11, "Terminal": 0, "DistrictId": 1, "Latitude": 22.506745, "Longitude": 120.369258, "IVRNo": 2492, "EXTVoiceNo": 2492, "traveltime": 0, "holidayTraveltime": 0}, {"Id": "2358", "pgp": 0, "GoBack": 2, "SID": 1580, "NameZh": "Daan Forest", "RouteId": 2113, "SeqNo": 12, "Terminal": 0, "DistrictId": 1, "Latitude": 22.508879, "Longitude": 120.36626, "IVRNo": 2358, "EXTVoiceNo": 2358, "traveltime": 0, "holidayTraveltime": 0}, {"Id": "2536", "pgp": 0, "GoBack": 2, "SID": 1586, "NameZh": "Fongbitou (Yanhai Rd.)", "RouteId": 2113, "SeqNo": 13, "Terminal": 0, "DistrictId": 1, "Latitude": 22.512432, "Longitude": 120.362085, "IVRNo": 2536, "EXTVoiceNo": 2536, "traveltime": 0, "holidayTraveltime": 0}, {"Id": "6035", "pgp": 0, "GoBack": 2, "SID": 4498, "NameZh": "Tang Eng Iron Works Co., Ltd.", "RouteId": 2113, "SeqNo": 14, "Terminal": 0, "DistrictId": 1, "Latitude": 22.544661, "Longitude": 120.369593, "IVRNo": 6035, "EXTVoiceNo": 6035, "traveltime": 0, "holidayTraveltime": 0}, {"Id": "6030", "pgp": 0, "GoBack": 2, "SID": 4489, "NameZh": "Yanhai 1st Rd.", "RouteId": 2113, "SeqNo": 15, "Terminal": 0, "DistrictId": 1, "Latitude": 22.561722, "Longitude": 120.35661, "IVRNo": 6030, "EXTVoiceNo": 6030, "traveltime": 0, "holidayTraveltime": 0}, {"Id": "6052", "pgp": 0, "GoBack": 2, "SID": 4497, "NameZh": "Licyun Rd. Intersection", "RouteId": 2113, "SeqNo": 16, "Terminal": 0, "DistrictId": 1, "Latitude": 22.562975, "Longitude": 120.355539, "IVRNo": 6052, "EXTVoiceNo": 6052, "traveltime": 0, "holidayTraveltime": 0}, {"Id": "6028", "pgp": 0, "GoBack": 2, "SID": 4487, "NameZh": "MRT Siaogang Station", "RouteId": 2113, "SeqNo": 17, "Terminal": 0, "DistrictId": 1, "Latitude": 22.564664, "Longitude": 120.354048, "IVRNo": 2040, "EXTVoiceNo": 6028, "traveltime": 0, "holidayTraveltime": 0}, {"Id": "2002", "pgp": 0, "GoBack": 2, "SID": 1089, "NameZh": "Siaogang Precinct", "RouteId": 2113, "SeqNo": 18, "Terminal": 0, "DistrictId": 1, "Latitude": 22.565731, "Longitude": 120.344228, "IVRNo": 2002, "EXTVoiceNo": 2002, "traveltime": 0, "holidayTraveltime": 0}, {"Id": "2001", "pgp": 0, "GoBack": 2, "SID": 1081, "NameZh": "Siaogang Station", "RouteId": 2113, "SeqNo": 19, "Terminal": 1, "DistrictId": 1, "Latitude": 22.565309, "Longitude": 120.340961, "IVRNo": 2000, "EXTVoiceNo": 2001, "traveltime": 0, "holidayTraveltime": 0}], "zh": [{"Id": "2001", "pgp": 0, "GoBack": 1, "SID": 1085, "NameZh": "\u5c0f\u6e2f\u7ad9", "RouteId": 2113, "SeqNo": 1, "Terminal": 0, "DistrictId": 1, "Latitude": 22.56537, "Longitude": 120.3412, "IVRNo": 2000, "EXTVoiceNo": 2001, "traveltime": 0, "holidayTraveltime": 0}, {"Id": "2002", "pgp": 0, "GoBack": 1, "SID": 1086, "NameZh": "\u5c0f\u6e2f\u5206\u5c40", "RouteId": 2113, "SeqNo": 2, "Terminal": 0, "DistrictId": 1, "Latitude": 22.565553, "Longitude": 120.343961, "IVRNo": 2002, "EXTVoiceNo": 2002, "traveltime": 0, "holidayTraveltime": 0}, {"Id": "2003", "pgp": 0, "GoBack": 1, "SID": 1722, "NameZh": "\u4e8c\u82d3(\u5927\u696d\u5317\u8def)", "RouteId": 2113, "SeqNo": 3, "Terminal": 0, "DistrictId": 1, "Latitude": 22.564839, "Longitude": 120.346382, "IVRNo": 2052, "EXTVoiceNo": 2003, "traveltime": 0, "holidayTraveltime": 0}, {"Id": "2570", "pgp": 0, "GoBack": 1, "SID": 1725, "NameZh": "\u5927\u696d\u5317\u8def", "RouteId": 2113, "SeqNo": 4, "Terminal": 0, "DistrictId": 1, "Latitude": 22.562976, "Longitude": 120.348092, "IVRNo": 2504, "EXTVoiceNo": 2570, "traveltime": 0, "holidayTraveltime": 0}, {"Id": "2504", "pgp": 0, "GoBack": 1, "SID": 1728, "NameZh": "\u5e97\u5317\u8def\u53e3", "RouteId": 2113, "SeqNo": 5, "Terminal": 0, "DistrictId": 1, "Latitude": 22.563612, "Longitude": 120.350301, "IVRNo": 2505, "EXTVoiceNo": 2504, "traveltime": 0, "holidayTraveltime": 0}, {"Id": "2305", "pgp": 0, "GoBack": 1, "SID": 1433, "NameZh": "\u4e8c\u82d3\u570b\u5c0f(\u6377\u904b\u5c0f\u6e2f\u7ad9)", "RouteId": 2113, "SeqNo": 6, "Terminal": 0, "DistrictId": 1, "Latitude": 22.565594, "Longitude": 120.351747, "IVRNo": 2339, "EXTVoiceNo": 2305, "traveltime": 0, "holidayTraveltime": 0}, {"Id": "6028", "pgp": 0, "GoBack": 1, "SID": 4482, "NameZh": "\u6377\u904b\u5c0f\u6e2f\u7ad9", "RouteId": 2113, "SeqNo": 7, "Terminal": 0, "DistrictId": 1, "Latitude": 22.564926, "Longitude": 120.353538, "IVRNo": 2040, "EXTVoiceNo": 6028, "traveltime": 0, "holidayTraveltime": 0}, {"Id": "6052", "pgp": 0, "GoBack": 1, "SID": 4496, "NameZh": "\u7acb\u7fa4\u8def\u53e3", "RouteId": 2113, "SeqNo": 8, "Terminal": 0, "DistrictId": 1, "Latitude": 22.563016, "Longitude": 120.355181, "IVRNo": 6052, "EXTVoiceNo": 6052, "traveltime": 0, "holidayTraveltime": 0}, {"Id": "6030", "pgp": 0, "GoBack": 1, "SID": 4488, "NameZh": "\u6cbf\u6d77\u4e00\u8def", "RouteId": 2113, "SeqNo": 9, "Terminal": 0, "DistrictId": 1, "Latitude": 22.562101, "Longitude": 120.355949, "IVRNo": 6030, "EXTVoiceNo": 6030, "traveltime": 0, "holidayTraveltime": 0}, {"Id": "6035", "pgp": 0, "GoBack": 1, "SID": 4490, "NameZh": "\u5510\u69ae\u516c\u53f8", "RouteId": 2113, "SeqNo": 10, "Terminal": 0, "DistrictId": 1, "Latitude": 22.544921, "Longitude": 120.369228, "IVRNo": 6035, "EXTVoiceNo": 6035, "traveltime": 0, "holidayTraveltime": 0}, {"Id": "2536", "pgp": 0, "GoBack": 1, "SID": 1585, "NameZh": "\u9cf3\u9f3b\u982d(\u6cbf\u6d77\u8def)", "RouteId": 2113, "SeqNo": 11, "Terminal": 0, "DistrictId": 1, "Latitude": 22.512551, "Longitude": 120.36175, "IVRNo": 2536, "EXTVoiceNo": 2536, "traveltime": 0, "holidayTraveltime": 0}, {"Id": "2358", "pgp": 0, "GoBack": 1, "SID": 1558, "NameZh": "\u5927\u5b89\u68ee\u6797", "RouteId": 2113, "SeqNo": 12, "Terminal": 0, "DistrictId": 1, "Latitude": 22.508752, "Longitude": 120.366323, "IVRNo": 2358, "EXTVoiceNo": 2358, "traveltime": 0, "holidayTraveltime": 0}, {"Id": "2492", "pgp": 0, "GoBack": 1, "SID": 1708, "NameZh": "\u6d77\u5898\u8def\u53e3", "RouteId": 2113, "SeqNo": 13, "Terminal": 0, "DistrictId": 1, "Latitude": 22.507485, "Longitude": 120.368163, "IVRNo": 2492, "EXTVoiceNo": 2492, "traveltime": 0, "holidayTraveltime": 0}, {"Id": "2359", "pgp": 0, "GoBack": 1, "SID": 1559, "NameZh": "\u4e2d\u95807-11\u7ad9", "RouteId": 2113, "SeqNo": 14, "Terminal": 0, "DistrictId": 1, "Latitude": 22.504951, "Longitude": 120.371831, "IVRNo": 2359, "EXTVoiceNo": 2359, "traveltime": 0, "holidayTraveltime": 0}, {"Id": "2360", "pgp": 0, "GoBack": 1, "SID": 1565, "NameZh": "\u6e2f\u57d4\u6d3e\u51fa\u6240", "RouteId": 2113, "SeqNo": 15, "Terminal": 0, "DistrictId": 1, "Latitude": 22.5041, "Longitude": 120.37648, "IVRNo": 2360, "EXTVoiceNo": 2360, "traveltime": 0, "holidayTraveltime": 0}, {"Id": "2361", "pgp": 0, "GoBack": 1, "SID": 1566, "NameZh": "\u9802\u539d\u8def\u53e3", "RouteId": 2113, "SeqNo": 16, "Terminal": 0, "DistrictId": 1, "Latitude": 22.50351, "Longitude": 120.37981, "IVRNo": 2361, "EXTVoiceNo": 2361, "traveltime": 0, "holidayTraveltime": 0}, {"Id": "2490", "pgp": 0, "GoBack": 1, "SID": 1706, "NameZh": "\u904e\u6e9d\u5df7\u53e3", "RouteId": 2113, "SeqNo": 17, "Terminal": 0, "DistrictId": 1, "Latitude": 22.50126, "Longitude": 120.38418, "IVRNo": 2490, "EXTVoiceNo": 2490, "traveltime": 0, "holidayTraveltime": 0}, {"Id": "2362", "pgp": 0, "GoBack": 1, "SID": 1567, "NameZh": "\u7530\u539d\u8def\u53e3", "RouteId": 2113, "SeqNo": 18, "Terminal": 0, "DistrictId": 1, "Latitude": 22.50005, "Longitude": 120.3871, "IVRNo": 2362, "EXTVoiceNo": 2362, "traveltime": 0, "holidayTraveltime": 0}, {"Id": "2363", "pgp": 0, "GoBack": 1, "SID": 1568, "NameZh": "\u65b0\u5149\u4eba\u58fd", "RouteId": 2113, "SeqNo": 19, "Terminal": 0, "DistrictId": 1, "Latitude": 22.50006, "Longitude": 120.39275, "IVRNo": 2363, "EXTVoiceNo": 2363, "traveltime": 0, "holidayTraveltime": 0}, {"Id": "2365", "pgp": 0, "GoBack": 1, "SID": 1570, "NameZh": "\u570b\u6cf0\u4eba\u58fd", "RouteId": 2113, "SeqNo": 20, "Terminal": 0, "DistrictId": 1, "Latitude": 22.501521, "Longitude": 120.397878, "IVRNo": 2365, "EXTVoiceNo": 2365, "traveltime": 0, "holidayTraveltime": 0}, {"Id": "2487", "pgp": 0, "GoBack": 1, "SID": 1701, "NameZh": "\u9cf3\u6797\u8def\u4e00\u6bb5", "RouteId": 2113, "SeqNo": 21, "Terminal": 0, "DistrictId": 1, "Latitude": 22.506882, "Longitude": 120.396605, "IVRNo": 2487, "EXTVoiceNo": 2487, "traveltime": 0, "holidayTraveltime": 0}, {"Id": "2488", "pgp": 0, "GoBack": 1, "SID": 1702, "NameZh": "\u6797\u5712\u9ad8\u4e2d", "RouteId": 2113, "SeqNo": 22, "Terminal": 1, "DistrictId": 1, "Latitude": 22.51268, "Longitude": 120.39488, "IVRNo": 359, "EXTVoiceNo": 2488, "traveltime": 0, "holidayTraveltime": 0}, {"Id": "9386", "pgp": 0, "GoBack": 2, "SID": 12240, "NameZh": "\u6797\u5712\u5340\u516c\u6240", "RouteId": 2113, "SeqNo": 1, "Terminal": 0, "DistrictId": 1, "Latitude": 22.5076, "Longitude": 120.394877, "IVRNo": 2366, "EXTVoiceNo": 9386, "traveltime": 0, "holidayTraveltime": 0}, {"Id": "2487", "pgp": 0, "GoBack": 2, "SID": 1703, "NameZh": "\u9cf3\u6797\u8def\u4e00\u6bb5", "RouteId": 2113, "SeqNo": 2, "Terminal": 0, "DistrictId": 1, "Latitude": 22.5061, "Longitude": 120.39668, "IVRNo": 2487, "EXTVoiceNo": 2487, "traveltime": 0, "holidayTraveltime": 0}, {"Id": "2365", "pgp": 0, "GoBack": 2, "SID": 1572, "NameZh": "\u570b\u6cf0\u4eba\u58fd", "RouteId": 2113, "SeqNo": 3, "Terminal": 0, "DistrictId": 1, "Latitude": 22.50156, "Longitude": 120.39771, "IVRNo": 2365, "EXTVoiceNo": 2365, "traveltime": 0, "holidayTraveltime": 0}, {"Id": "0802", "pgp": 0, "GoBack": 2, "SID": 13344, "NameZh": "\u5341\u865f\u516c\u5712", "RouteId": 2113, "SeqNo": 4, "Terminal": 0, "DistrictId": 1, "Latitude": 22.500418, "Longitude": 120.394989, "IVRNo": 802, "EXTVoiceNo": 802, "traveltime": 0, "holidayTraveltime": 0}, {"Id": "2363", "pgp": 0, "GoBack": 2, "SID": 1573, "NameZh": "\u65b0\u5149\u4eba\u58fd", "RouteId": 2113, "SeqNo": 5, "Terminal": 0, "DistrictId": 1, "Latitude": 22.50016, "Longitude": 120.39288, "IVRNo": 2363, "EXTVoiceNo": 2363, "traveltime": 0, "holidayTraveltime": 0}, {"Id": "2362", "pgp": 0, "GoBack": 2, "SID": 1576, "NameZh": "\u7530\u539d\u8def\u53e3", "RouteId": 2113, "SeqNo": 6, "Terminal": 0, "DistrictId": 1, "Latitude": 22.50015, "Longitude": 120.38708, "IVRNo": 2362, "EXTVoiceNo": 2362, "traveltime": 0, "holidayTraveltime": 0}, {"Id": "2490", "pgp": 0, "GoBack": 2, "SID": 1707, "NameZh": "\u904e\u6e9d\u5df7\u53e3", "RouteId": 2113, "SeqNo": 7, "Terminal": 0, "DistrictId": 1, "Latitude": 22.500913, "Longitude": 120.385136, "IVRNo": 2490, "EXTVoiceNo": 2490, "traveltime": 0, "holidayTraveltime": 0}, {"Id": "2361", "pgp": 0, "GoBack": 2, "SID": 1577, "NameZh": "\u9802\u539d\u8def\u53e3", "RouteId": 2113, "SeqNo": 8, "Terminal": 0, "DistrictId": 1, "Latitude": 22.503589, "Longitude": 120.379801, "IVRNo": 2361, "EXTVoiceNo": 2361, "traveltime": 0, "holidayTraveltime": 0}, {"Id": "2360", "pgp": 0, "GoBack": 2, "SID": 1578, "NameZh": "\u6e2f\u57d4\u6d3e\u51fa\u6240", "RouteId": 2113, "SeqNo": 9, "Terminal": 0, "DistrictId": 1, "Latitude": 22.504196, "Longitude": 120.376493, "IVRNo": 2360, "EXTVoiceNo": 2360, "traveltime": 0, "holidayTraveltime": 0}, {"Id": "2359", "pgp": 0, "GoBack": 2, "SID": 1579, "NameZh": "\u4e2d\u95807-11\u7ad9", "RouteId": 2113, "SeqNo": 10, "Terminal": 0, "DistrictId": 1, "Latitude": 22.505023, "Longitude": 120.372022, "IVRNo": 2359, "EXTVoiceNo": 2359, "traveltime": 0, "holidayTraveltime": 0}, {"Id": "2492", "pgp": 0, "GoBack": 2, "SID": 1709, "NameZh": "\u6d77\u5898\u8def\u53e3", "RouteId": 2113, "SeqNo": 11, "Terminal": 0, "DistrictId": 1, "Latitude": 22.506745, "Longitude": 120.369258, "IVRNo": 2492, "EXTVoiceNo": 2492, "traveltime": 0, "holidayTraveltime": 0}, {"Id": "2358", "pgp": 0, "GoBack": 2, "SID": 1580, "NameZh": "\u5927\u5b89\u68ee\u6797", "RouteId": 2113, "SeqNo": 12, "Terminal": 0, "DistrictId": 1, "Latitude": 22.508879, "Longitude": 120.36626, "IVRNo": 2358, "EXTVoiceNo": 2358, "traveltime": 0, "holidayTraveltime": 0}, {"Id": "2536", "pgp": 0, "GoBack": 2, "SID": 1586, "NameZh": "\u9cf3\u9f3b\u982d(\u6cbf\u6d77\u8def)", "RouteId": 2113, "SeqNo": 13, "Terminal": 0, "DistrictId": 1, "Latitude": 22.512432, "Longitude": 120.362085, "IVRNo": 2536, "EXTVoiceNo": 2536, "traveltime": 0, "holidayTraveltime": 0}, {"Id": "6035", "pgp": 0, "GoBack": 2, "SID": 4498, "NameZh": "\u5510\u69ae\u516c\u53f8", "RouteId": 2113, "SeqNo": 14, "Terminal": 0, "DistrictId": 1, "Latitude": 22.544661, "Longitude": 120.369593, "IVRNo": 6035, "EXTVoiceNo": 6035, "traveltime": 0, "holidayTraveltime": 0}, {"Id": "6030", "pgp": 0, "GoBack": 2, "SID": 4489, "NameZh": "\u6cbf\u6d77\u4e00\u8def", "RouteId": 2113, "SeqNo": 15, "Terminal": 0, "DistrictId": 1, "Latitude": 22.561722, "Longitude": 120.35661, "IVRNo": 6030, "EXTVoiceNo": 6030, "traveltime": 0, "holidayTraveltime": 0}, {"Id": "6052", "pgp": 0, "GoBack": 2, "SID": 4497, "NameZh": "\u7acb\u7fa4\u8def\u53e3", "RouteId": 2113, "SeqNo": 16, "Terminal": 0, "DistrictId": 1, "Latitude": 22.562975, "Longitude": 120.355539, "IVRNo": 6052, "EXTVoiceNo": 6052, "traveltime": 0, "holidayTraveltime": 0}, {"Id": "6028", "pgp": 0, "GoBack": 2, "SID": 4487, "NameZh": "\u6377\u904b\u5c0f\u6e2f\u7ad9", "RouteId": 2113, "SeqNo": 17, "Terminal": 0, "DistrictId": 1, "Latitude": 22.564664, "Longitude": 120.354048, "IVRNo": 2040, "EXTVoiceNo": 6028, "traveltime": 0, "holidayTraveltime": 0}, {"Id": "2002", "pgp": 0, "GoBack": 2, "SID": 1089, "NameZh": "\u5c0f\u6e2f\u5206\u5c40", "RouteId": 2113, "SeqNo": 18, "Terminal": 0, "DistrictId": 1, "Latitude": 22.565731, "Longitude": 120.344228, "IVRNo": 2002, "EXTVoiceNo": 2002, "traveltime": 0, "holidayTraveltime": 0}, {"Id": "2001", "pgp": 0, "GoBack": 2, "SID": 1081, "NameZh": "\u5c0f\u6e2f\u7ad9", "RouteId": 2113, "SeqNo": 19, "Terminal": 1, "DistrictId": 1, "Latitude": 22.565309, "Longitude": 120.340961, "IVRNo": 2000, "EXTVoiceNo": 2001, "traveltime": 0, "holidayTraveltime": 0}]}