{"en": [{"Id": "9202", "pgp": 0, "GoBack": 1, "SID": 17319, "NameZh": "TRA Fengshan Station", "RouteId": 9161, "SeqNo": 1, "Terminal": 0, "DistrictId": 1, "Latitude": 22.631224, "Longitude": 120.357718, "IVRNo": 9709, "EXTVoiceNo": 9202, "traveltime": 0, "holidayTraveltime": 0}, {"Id": "9276", "pgp": 0, "GoBack": 1, "SID": 1978, "NameZh": "Guangfu Rd.", "RouteId": 9161, "SeqNo": 2, "Terminal": 0, "DistrictId": 1, "Latitude": 22.628953, "Longitude": 120.359062, "IVRNo": 9867, "EXTVoiceNo": 9276, "traveltime": 0, "holidayTraveltime": 0}, {"Id": "2099", "pgp": 0, "GoBack": 1, "SID": 14508, "NameZh": "Fongshan Transfer Station (MRT Dadong Station)", "RouteId": 9161, "SeqNo": 3, "Terminal": 0, "DistrictId": 1, "Latitude": 22.625829, "Longitude": 120.363337, "IVRNo": 2099, "EXTVoiceNo": 2099, "traveltime": 0, "holidayTraveltime": 0}, {"Id": "7126", "pgp": 0, "GoBack": 1, "SID": 7062, "NameZh": "North Gate", "RouteId": 9161, "SeqNo": 4, "Terminal": 0, "DistrictId": 1, "Latitude": 22.63342, "Longitude": 120.36147, "IVRNo": 149, "EXTVoiceNo": 17126, "traveltime": 0, "holidayTraveltime": 0}, {"Id": "0101", "pgp": 0, "GoBack": 1, "SID": 7063, "NameZh": "Jianguo Rd. Intersection (Fongsong Rd.)", "RouteId": 9161, "SeqNo": 5, "Terminal": 0, "DistrictId": 1, "Latitude": 22.63606, "Longitude": 120.36238, "IVRNo": 1071, "EXTVoiceNo": 101, "traveltime": 0, "holidayTraveltime": 0}, {"Id": "1571", "pgp": 0, "GoBack": 1, "SID": 7064, "NameZh": "Horticultural Experiment Branch", "RouteId": 9161, "SeqNo": 6, "Terminal": 0, "DistrictId": 1, "Latitude": 22.6396, "Longitude": 120.36337, "IVRNo": 11571, "EXTVoiceNo": 11571, "traveltime": 0, "holidayTraveltime": 0}, {"Id": "0516", "pgp": 0, "GoBack": 1, "SID": 7065, "NameZh": "Niouchoupu (Fongshan)", "RouteId": 9161, "SeqNo": 7, "Terminal": 0, "DistrictId": 1, "Latitude": 22.64393, "Longitude": 120.36467, "IVRNo": 516, "EXTVoiceNo": 516, "traveltime": 0, "holidayTraveltime": 0}, {"Id": "1132", "pgp": 0, "GoBack": 1, "SID": 7066, "NameZh": "Sancongzhu", "RouteId": 9161, "SeqNo": 8, "Terminal": 0, "DistrictId": 1, "Latitude": 22.6496, "Longitude": 120.36548, "IVRNo": 517, "EXTVoiceNo": 21132, "traveltime": 0, "holidayTraveltime": 0}, {"Id": "3537", "pgp": 0, "GoBack": 1, "SID": 2594, "NameZh": "Jhongcheng Rd.", "RouteId": 9161, "SeqNo": 9, "Terminal": 0, "DistrictId": 1, "Latitude": 22.654179, "Longitude": 120.364099, "IVRNo": 3537, "EXTVoiceNo": 3537, "traveltime": 0, "holidayTraveltime": 0}, {"Id": "1912", "pgp": 0, "GoBack": 1, "SID": 12546, "NameZh": "Chengcing Lake Baseball Field", "RouteId": 9161, "SeqNo": 10, "Terminal": 0, "DistrictId": 1, "Latitude": 22.655697, "Longitude": 120.359808, "IVRNo": 11912, "EXTVoiceNo": 11912, "traveltime": 0, "holidayTraveltime": 0}, {"Id": "8941", "pgp": 0, "GoBack": 1, "SID": 6039, "NameZh": "The Labor Recreation Center", "RouteId": 9161, "SeqNo": 11, "Terminal": 0, "DistrictId": 1, "Latitude": 22.652948, "Longitude": 120.35972, "IVRNo": 9411, "EXTVoiceNo": 8941, "traveltime": 0, "holidayTraveltime": 0}, {"Id": "3534", "pgp": 0, "GoBack": 1, "SID": 2556, "NameZh": "Chang Gung Memorial Hospital", "RouteId": 9161, "SeqNo": 12, "Terminal": 0, "DistrictId": 1, "Latitude": 22.650933, "Longitude": 120.356409, "IVRNo": 3534, "EXTVoiceNo": 3534, "traveltime": 0, "holidayTraveltime": 0}, {"Id": "7114", "pgp": 0, "GoBack": 1, "SID": 12307, "NameZh": "Niaosong District Office (Jhongjheng Rd.)", "RouteId": 9161, "SeqNo": 13, "Terminal": 0, "DistrictId": 1, "Latitude": 22.659809, "Longitude": 120.364124, "IVRNo": 4332, "EXTVoiceNo": 17114, "traveltime": 0, "holidayTraveltime": 0}, {"Id": "0020", "pgp": 0, "GoBack": 1, "SID": 5787, "NameZh": "Dajhih Rd. Intersection (Daren N. Rd.)", "RouteId": 9161, "SeqNo": 14, "Terminal": 0, "DistrictId": 1, "Latitude": 22.664539, "Longitude": 120.362169, "IVRNo": 20, "EXTVoiceNo": 20, "traveltime": 0, "holidayTraveltime": 0}, {"Id": "0064", "pgp": 0, "GoBack": 1, "SID": 6185, "NameZh": "Daren N. Rd.", "RouteId": 9161, "SeqNo": 15, "Terminal": 0, "DistrictId": 1, "Latitude": 22.666655, "Longitude": 120.361749, "IVRNo": 2196, "EXTVoiceNo": 20064, "traveltime": 0, "holidayTraveltime": 0}, {"Id": "9862", "pgp": 0, "GoBack": 1, "SID": 6053, "NameZh": "Cihyu St. Intersection", "RouteId": 9161, "SeqNo": 16, "Terminal": 0, "DistrictId": 1, "Latitude": 22.669666, "Longitude": 120.360383, "IVRNo": 2197, "EXTVoiceNo": 9862, "traveltime": 0, "holidayTraveltime": 0}, {"Id": "0186", "pgp": 0, "GoBack": 1, "SID": 10540, "NameZh": "Rencih Park", "RouteId": 9161, "SeqNo": 17, "Terminal": 0, "DistrictId": 1, "Latitude": 22.672858, "Longitude": 120.358568, "IVRNo": 2198, "EXTVoiceNo": 20186, "traveltime": 0, "holidayTraveltime": 0}, {"Id": "0182", "pgp": 0, "GoBack": 1, "SID": 8449, "NameZh": "Renjhong Rd. Intersection", "RouteId": 9161, "SeqNo": 18, "Terminal": 0, "DistrictId": 1, "Latitude": 22.675799, "Longitude": 120.357001, "IVRNo": 2199, "EXTVoiceNo": 20182, "traveltime": 0, "holidayTraveltime": 0}, {"Id": "0778", "pgp": 0, "GoBack": 1, "SID": 10542, "NameZh": "Dengfa Elementary School", "RouteId": 9161, "SeqNo": 19, "Terminal": 0, "DistrictId": 1, "Latitude": 22.67964, "Longitude": 120.354677, "IVRNo": 2200, "EXTVoiceNo": 20778, "traveltime": 0, "holidayTraveltime": 0}, {"Id": "5272", "pgp": 0, "GoBack": 1, "SID": 10605, "NameZh": "Wanzihnei (Renwu)", "RouteId": 9161, "SeqNo": 20, "Terminal": 0, "DistrictId": 1, "Latitude": 22.682282, "Longitude": 120.355031, "IVRNo": 5272, "EXTVoiceNo": 5272, "traveltime": 0, "holidayTraveltime": 0}, {"Id": "0371", "pgp": 0, "GoBack": 1, "SID": 10606, "NameZh": "Minghu Community", "RouteId": 9161, "SeqNo": 21, "Terminal": 0, "DistrictId": 1, "Latitude": 22.68668, "Longitude": 120.35276, "IVRNo": 8961, "EXTVoiceNo": 20371, "traveltime": 0, "holidayTraveltime": 0}, {"Id": "1096", "pgp": 0, "GoBack": 1, "SID": 10607, "NameZh": "Sinjhuang (Fongren Rd.)", "RouteId": 9161, "SeqNo": 22, "Terminal": 0, "DistrictId": 1, "Latitude": 22.692814, "Longitude": 120.349721, "IVRNo": 1096, "EXTVoiceNo": 1096, "traveltime": 0, "holidayTraveltime": 0}, {"Id": "7935", "pgp": 0, "GoBack": 1, "SID": 10609, "NameZh": "Tongfa Temple", "RouteId": 9161, "SeqNo": 23, "Terminal": 0, "DistrictId": 1, "Latitude": 22.69886, "Longitude": 120.34681, "IVRNo": 986, "EXTVoiceNo": 7935, "traveltime": 0, "holidayTraveltime": 0}, {"Id": "7934", "pgp": 0, "GoBack": 1, "SID": 5380, "NameZh": "Renwu District Office (Police Office)", "RouteId": 9161, "SeqNo": 24, "Terminal": 0, "DistrictId": 1, "Latitude": 22.701505, "Longitude": 120.348306, "IVRNo": 7934, "EXTVoiceNo": 7934, "traveltime": 0, "holidayTraveltime": 0}, {"Id": "7933", "pgp": 0, "GoBack": 1, "SID": 5394, "NameZh": "Renwu Village", "RouteId": 9161, "SeqNo": 25, "Terminal": 0, "DistrictId": 1, "Latitude": 22.702368, "Longitude": 120.352187, "IVRNo": 7948, "EXTVoiceNo": 7933, "traveltime": 0, "holidayTraveltime": 0}, {"Id": "8984", "pgp": 0, "GoBack": 1, "SID": 6086, "NameZh": "Wunwu Village", "RouteId": 9161, "SeqNo": 26, "Terminal": 0, "DistrictId": 1, "Latitude": 22.703856, "Longitude": 120.353843, "IVRNo": 447, "EXTVoiceNo": 8984, "traveltime": 0, "holidayTraveltime": 0}, {"Id": "8983", "pgp": 0, "GoBack": 1, "SID": 6087, "NameZh": "Wunan 2nd St. Intersection", "RouteId": 9161, "SeqNo": 27, "Terminal": 0, "DistrictId": 1, "Latitude": 22.706038, "Longitude": 120.353578, "IVRNo": 9478, "EXTVoiceNo": 8983, "traveltime": 0, "holidayTraveltime": 0}, {"Id": "1303", "pgp": 0, "GoBack": 1, "SID": 5395, "NameZh": "Anle 1st St. Intersection", "RouteId": 9161, "SeqNo": 28, "Terminal": 0, "DistrictId": 1, "Latitude": 22.709251, "Longitude": 120.3531, "IVRNo": 1303, "EXTVoiceNo": 1303, "traveltime": 0, "holidayTraveltime": 0}, {"Id": "7950", "pgp": 0, "GoBack": 1, "SID": 5396, "NameZh": "Houjhuang (Jhongjheng Rd.)", "RouteId": 9161, "SeqNo": 29, "Terminal": 0, "DistrictId": 1, "Latitude": 22.71267, "Longitude": 120.352643, "IVRNo": 471, "EXTVoiceNo": 7950, "traveltime": 0, "holidayTraveltime": 0}, {"Id": "7930", "pgp": 0, "GoBack": 1, "SID": 5397, "NameZh": "Linzihbian", "RouteId": 9161, "SeqNo": 30, "Terminal": 0, "DistrictId": 1, "Latitude": 22.72248, "Longitude": 120.35045, "IVRNo": 968, "EXTVoiceNo": 7930, "traveltime": 0, "holidayTraveltime": 0}, {"Id": "0029", "pgp": 0, "GoBack": 1, "SID": 8582, "NameZh": "Sanmin Rd.", "RouteId": 9161, "SeqNo": 31, "Terminal": 0, "DistrictId": 1, "Latitude": 22.724134, "Longitude": 120.349185, "IVRNo": 74, "EXTVoiceNo": 20029, "traveltime": 0, "holidayTraveltime": 0}, {"Id": "7929", "pgp": 0, "GoBack": 1, "SID": 5398, "NameZh": "Sannai Village", "RouteId": 9161, "SeqNo": 32, "Terminal": 0, "DistrictId": 1, "Latitude": 22.726902, "Longitude": 120.348395, "IVRNo": 842, "EXTVoiceNo": 7929, "traveltime": 0, "holidayTraveltime": 0}, {"Id": "7927", "pgp": 0, "GoBack": 1, "SID": 13787, "NameZh": "Dashe District Office", "RouteId": 9161, "SeqNo": 33, "Terminal": 1, "DistrictId": 1, "Latitude": 22.730376, "Longitude": 120.346882, "IVRNo": 7927, "EXTVoiceNo": 7927, "traveltime": 0, "holidayTraveltime": 0}, {"Id": "7927", "pgp": 0, "GoBack": 2, "SID": 13957, "NameZh": "Dashe District Office", "RouteId": 9161, "SeqNo": 1, "Terminal": 0, "DistrictId": 1, "Latitude": 22.730376, "Longitude": 120.346882, "IVRNo": 7927, "EXTVoiceNo": 7927, "traveltime": 0, "holidayTraveltime": 0}, {"Id": "7928", "pgp": 0, "GoBack": 2, "SID": 5370, "NameZh": "Cueibing Rd. Intersection (Jhongshan Rd.)", "RouteId": 9161, "SeqNo": 2, "Terminal": 0, "DistrictId": 1, "Latitude": 22.731576, "Longitude": 120.350397, "IVRNo": 7928, "EXTVoiceNo": 7928, "traveltime": 0, "holidayTraveltime": 0}, {"Id": "1217", "pgp": 0, "GoBack": 2, "SID": 18375, "NameZh": "Cueibing Rd.", "RouteId": 9161, "SeqNo": 3, "Terminal": 0, "DistrictId": 1, "Latitude": 22.729214, "Longitude": 120.349706, "IVRNo": 11217, "EXTVoiceNo": 11217, "traveltime": 0, "holidayTraveltime": 0}, {"Id": "7929", "pgp": 0, "GoBack": 2, "SID": 5373, "NameZh": "Sannai Village", "RouteId": 9161, "SeqNo": 4, "Terminal": 0, "DistrictId": 1, "Latitude": 22.726904, "Longitude": 120.348382, "IVRNo": 842, "EXTVoiceNo": 7929, "traveltime": 0, "holidayTraveltime": 0}, {"Id": "0029", "pgp": 0, "GoBack": 2, "SID": 10620, "NameZh": "Sanmin Rd.", "RouteId": 9161, "SeqNo": 5, "Terminal": 0, "DistrictId": 1, "Latitude": 22.72404, "Longitude": 120.349191, "IVRNo": 74, "EXTVoiceNo": 20029, "traveltime": 0, "holidayTraveltime": 0}, {"Id": "7930", "pgp": 0, "GoBack": 2, "SID": 5374, "NameZh": "Linzihbian", "RouteId": 9161, "SeqNo": 6, "Terminal": 0, "DistrictId": 1, "Latitude": 22.722331, "Longitude": 120.35044, "IVRNo": 968, "EXTVoiceNo": 7930, "traveltime": 0, "holidayTraveltime": 0}, {"Id": "7950", "pgp": 0, "GoBack": 2, "SID": 5377, "NameZh": "Houjhuang (Jhongjheng Rd.)", "RouteId": 9161, "SeqNo": 7, "Terminal": 0, "DistrictId": 1, "Latitude": 22.712632, "Longitude": 120.352591, "IVRNo": 471, "EXTVoiceNo": 7950, "traveltime": 0, "holidayTraveltime": 0}, {"Id": "1303", "pgp": 0, "GoBack": 2, "SID": 5378, "NameZh": "Anle 1st St. Intersection", "RouteId": 9161, "SeqNo": 8, "Terminal": 0, "DistrictId": 1, "Latitude": 22.70925, "Longitude": 120.353057, "IVRNo": 1303, "EXTVoiceNo": 1303, "traveltime": 0, "holidayTraveltime": 0}, {"Id": "8983", "pgp": 0, "GoBack": 2, "SID": 6076, "NameZh": "Wunan 2nd St. Intersection", "RouteId": 9161, "SeqNo": 9, "Terminal": 0, "DistrictId": 1, "Latitude": 22.705951, "Longitude": 120.35353, "IVRNo": 9478, "EXTVoiceNo": 8983, "traveltime": 0, "holidayTraveltime": 0}, {"Id": "8984", "pgp": 0, "GoBack": 2, "SID": 6077, "NameZh": "Wunwu Village", "RouteId": 9161, "SeqNo": 10, "Terminal": 0, "DistrictId": 1, "Latitude": 22.703769, "Longitude": 120.353802, "IVRNo": 447, "EXTVoiceNo": 8984, "traveltime": 0, "holidayTraveltime": 0}, {"Id": "0060", "pgp": 0, "GoBack": 2, "SID": 18229, "NameZh": "Ren-Wu Senior High School", "RouteId": 9161, "SeqNo": 11, "Terminal": 0, "DistrictId": 1, "Latitude": 22.702732, "Longitude": 120.354107, "IVRNo": 1010, "EXTVoiceNo": 60, "traveltime": 0, "holidayTraveltime": 0}, {"Id": "1061", "pgp": 0, "GoBack": 2, "SID": 8261, "NameZh": "Rende St. Intersection (Jhonghua Rd.)", "RouteId": 9161, "SeqNo": 12, "Terminal": 0, "DistrictId": 1, "Latitude": 22.699954, "Longitude": 120.350872, "IVRNo": 1061, "EXTVoiceNo": 1061, "traveltime": 0, "holidayTraveltime": 0}, {"Id": "7935", "pgp": 0, "GoBack": 2, "SID": 5392, "NameZh": "Tongfa Temple", "RouteId": 9161, "SeqNo": 13, "Terminal": 0, "DistrictId": 1, "Latitude": 22.698925, "Longitude": 120.346652, "IVRNo": 986, "EXTVoiceNo": 7935, "traveltime": 0, "holidayTraveltime": 0}, {"Id": "1096", "pgp": 0, "GoBack": 2, "SID": 5382, "NameZh": "Sinjhuang (Fongren Rd.)", "RouteId": 9161, "SeqNo": 14, "Terminal": 0, "DistrictId": 1, "Latitude": 22.69251, "Longitude": 120.34965, "IVRNo": 1096, "EXTVoiceNo": 1096, "traveltime": 0, "holidayTraveltime": 0}, {"Id": "0371", "pgp": 0, "GoBack": 2, "SID": 8568, "NameZh": "Minghu Community", "RouteId": 9161, "SeqNo": 15, "Terminal": 0, "DistrictId": 1, "Latitude": 22.68668, "Longitude": 120.35276, "IVRNo": 8961, "EXTVoiceNo": 20371, "traveltime": 0, "holidayTraveltime": 0}, {"Id": "5272", "pgp": 0, "GoBack": 2, "SID": 6237, "NameZh": "Wanzihnei (Renwu)", "RouteId": 9161, "SeqNo": 16, "Terminal": 0, "DistrictId": 1, "Latitude": 22.682282, "Longitude": 120.355031, "IVRNo": 5272, "EXTVoiceNo": 5272, "traveltime": 0, "holidayTraveltime": 0}, {"Id": "0778", "pgp": 0, "GoBack": 2, "SID": 8450, "NameZh": "Dengfa Elementary School", "RouteId": 9161, "SeqNo": 17, "Terminal": 0, "DistrictId": 1, "Latitude": 22.67964, "Longitude": 120.354677, "IVRNo": 2200, "EXTVoiceNo": 20778, "traveltime": 0, "holidayTraveltime": 0}, {"Id": "0182", "pgp": 0, "GoBack": 2, "SID": 10541, "NameZh": "Renjhong Rd. Intersection", "RouteId": 9161, "SeqNo": 18, "Terminal": 0, "DistrictId": 1, "Latitude": 22.675799, "Longitude": 120.357001, "IVRNo": 2199, "EXTVoiceNo": 20182, "traveltime": 0, "holidayTraveltime": 0}, {"Id": "0186", "pgp": 0, "GoBack": 2, "SID": 11381, "NameZh": "Rencih Park", "RouteId": 9161, "SeqNo": 19, "Terminal": 0, "DistrictId": 1, "Latitude": 22.672353, "Longitude": 120.358838, "IVRNo": 2198, "EXTVoiceNo": 20186, "traveltime": 0, "holidayTraveltime": 0}, {"Id": "9862", "pgp": 0, "GoBack": 2, "SID": 10539, "NameZh": "Cihyu St. Intersection", "RouteId": 9161, "SeqNo": 20, "Terminal": 0, "DistrictId": 1, "Latitude": 22.669514, "Longitude": 120.360593, "IVRNo": 2197, "EXTVoiceNo": 9862, "traveltime": 0, "holidayTraveltime": 0}, {"Id": "0064", "pgp": 0, "GoBack": 2, "SID": 10538, "NameZh": "Daren N. Rd.", "RouteId": 9161, "SeqNo": 21, "Terminal": 0, "DistrictId": 1, "Latitude": 22.666655, "Longitude": 120.361749, "IVRNo": 2196, "EXTVoiceNo": 20064, "traveltime": 0, "holidayTraveltime": 0}, {"Id": "0020", "pgp": 0, "GoBack": 2, "SID": 11378, "NameZh": "Dajhih Rd. Intersection (Daren N. Rd.)", "RouteId": 9161, "SeqNo": 22, "Terminal": 0, "DistrictId": 1, "Latitude": 22.664493, "Longitude": 120.362152, "IVRNo": 20, "EXTVoiceNo": 20, "traveltime": 0, "holidayTraveltime": 0}, {"Id": "3370", "pgp": 0, "GoBack": 2, "SID": 8407, "NameZh": "Niaosong", "RouteId": 9161, "SeqNo": 23, "Terminal": 0, "DistrictId": 1, "Latitude": 22.66166, "Longitude": 120.36358, "IVRNo": 1463, "EXTVoiceNo": 13370, "traveltime": 0, "holidayTraveltime": 0}, {"Id": "7114", "pgp": 0, "GoBack": 2, "SID": 3001, "NameZh": "Niaosong District Office (Jhongjheng Rd.)", "RouteId": 9161, "SeqNo": 24, "Terminal": 0, "DistrictId": 1, "Latitude": 22.660443, "Longitude": 120.364022, "IVRNo": 4332, "EXTVoiceNo": 17114, "traveltime": 0, "holidayTraveltime": 0}, {"Id": "3534", "pgp": 0, "GoBack": 2, "SID": 2528, "NameZh": "Chang Gung Memorial Hospital", "RouteId": 9161, "SeqNo": 25, "Terminal": 0, "DistrictId": 1, "Latitude": 22.65068, "Longitude": 120.35691, "IVRNo": 3534, "EXTVoiceNo": 3534, "traveltime": 0, "holidayTraveltime": 0}, {"Id": "8941", "pgp": 0, "GoBack": 2, "SID": 6040, "NameZh": "The Labor Recreation Center", "RouteId": 9161, "SeqNo": 26, "Terminal": 0, "DistrictId": 1, "Latitude": 22.652809, "Longitude": 120.359709, "IVRNo": 9411, "EXTVoiceNo": 8941, "traveltime": 0, "holidayTraveltime": 0}, {"Id": "1912", "pgp": 0, "GoBack": 2, "SID": 12511, "NameZh": "Chengcing Lake Baseball Field", "RouteId": 9161, "SeqNo": 27, "Terminal": 0, "DistrictId": 1, "Latitude": 22.65573, "Longitude": 120.35998, "IVRNo": 11912, "EXTVoiceNo": 11912, "traveltime": 0, "holidayTraveltime": 0}, {"Id": "3537", "pgp": 0, "GoBack": 2, "SID": 2537, "NameZh": "Jhongcheng Rd.", "RouteId": 9161, "SeqNo": 28, "Terminal": 0, "DistrictId": 1, "Latitude": 22.654173, "Longitude": 120.363974, "IVRNo": 3537, "EXTVoiceNo": 3537, "traveltime": 0, "holidayTraveltime": 0}, {"Id": "1132", "pgp": 0, "GoBack": 2, "SID": 7177, "NameZh": "Sancongzhu", "RouteId": 9161, "SeqNo": 29, "Terminal": 0, "DistrictId": 1, "Latitude": 22.649581, "Longitude": 120.365239, "IVRNo": 517, "EXTVoiceNo": 21132, "traveltime": 0, "holidayTraveltime": 0}, {"Id": "0516", "pgp": 0, "GoBack": 2, "SID": 7178, "NameZh": "Niouchoupu (Fongshan)", "RouteId": 9161, "SeqNo": 30, "Terminal": 0, "DistrictId": 1, "Latitude": 22.643549, "Longitude": 120.364465, "IVRNo": 516, "EXTVoiceNo": 516, "traveltime": 0, "holidayTraveltime": 0}, {"Id": "1571", "pgp": 0, "GoBack": 2, "SID": 7179, "NameZh": "Horticultural Experiment Branch", "RouteId": 9161, "SeqNo": 31, "Terminal": 0, "DistrictId": 1, "Latitude": 22.63968, "Longitude": 120.36319, "IVRNo": 11571, "EXTVoiceNo": 11571, "traveltime": 0, "holidayTraveltime": 0}, {"Id": "0101", "pgp": 0, "GoBack": 2, "SID": 7180, "NameZh": "Jianguo Rd. Intersection (Fongsong Rd.)", "RouteId": 9161, "SeqNo": 32, "Terminal": 0, "DistrictId": 1, "Latitude": 22.63661, "Longitude": 120.36224, "IVRNo": 1071, "EXTVoiceNo": 101, "traveltime": 0, "holidayTraveltime": 0}, {"Id": "7126", "pgp": 0, "GoBack": 2, "SID": 7181, "NameZh": "North Gate", "RouteId": 9161, "SeqNo": 33, "Terminal": 0, "DistrictId": 1, "Latitude": 22.6335, "Longitude": 120.36137, "IVRNo": 149, "EXTVoiceNo": 17126, "traveltime": 0, "holidayTraveltime": 0}, {"Id": "2099", "pgp": 0, "GoBack": 2, "SID": 14619, "NameZh": "Fongshan Transfer Station (MRT Dadong Station)", "RouteId": 9161, "SeqNo": 34, "Terminal": 0, "DistrictId": 1, "Latitude": 22.625829, "Longitude": 120.363337, "IVRNo": 2099, "EXTVoiceNo": 2099, "traveltime": 0, "holidayTraveltime": 0}, {"Id": "9276", "pgp": 0, "GoBack": 2, "SID": 1992, "NameZh": "Guangfu Rd.", "RouteId": 9161, "SeqNo": 35, "Terminal": 0, "DistrictId": 1, "Latitude": 22.629106, "Longitude": 120.359163, "IVRNo": 9867, "EXTVoiceNo": 9276, "traveltime": 0, "holidayTraveltime": 0}, {"Id": "9202", "pgp": 0, "GoBack": 2, "SID": 17428, "NameZh": "TRA Fengshan Station", "RouteId": 9161, "SeqNo": 36, "Terminal": 1, "DistrictId": 1, "Latitude": 22.631224, "Longitude": 120.357718, "IVRNo": 9709, "EXTVoiceNo": 9202, "traveltime": 0, "holidayTraveltime": 0}], "zh": [{"Id": "9202", "pgp": 0, "GoBack": 1, "SID": 17319, "NameZh": "\u81fa\u9435\u9cf3\u5c71\u7ad9", "RouteId": 9161, "SeqNo": 1, "Terminal": 0, "DistrictId": 1, "Latitude": 22.631224, "Longitude": 120.357718, "IVRNo": 9709, "EXTVoiceNo": 9202, "traveltime": 0, "holidayTraveltime": 0}, {"Id": "9276", "pgp": 0, "GoBack": 1, "SID": 1978, "NameZh": "\u5149\u5fa9\u8def", "RouteId": 9161, "SeqNo": 2, "Terminal": 0, "DistrictId": 1, "Latitude": 22.628953, "Longitude": 120.359062, "IVRNo": 9867, "EXTVoiceNo": 9276, "traveltime": 0, "holidayTraveltime": 0}, {"Id": "2099", "pgp": 0, "GoBack": 1, "SID": 14508, "NameZh": "\u9cf3\u5c71\u8f49\u904b\u7ad9(\u6377\u904b\u5927\u6771\u7ad9)", "RouteId": 9161, "SeqNo": 3, "Terminal": 0, "DistrictId": 1, "Latitude": 22.625829, "Longitude": 120.363337, "IVRNo": 2099, "EXTVoiceNo": 2099, "traveltime": 0, "holidayTraveltime": 0}, {"Id": "7126", "pgp": 0, "GoBack": 1, "SID": 7062, "NameZh": "\u5317\u9580", "RouteId": 9161, "SeqNo": 4, "Terminal": 0, "DistrictId": 1, "Latitude": 22.63342, "Longitude": 120.36147, "IVRNo": 149, "EXTVoiceNo": 17126, "traveltime": 0, "holidayTraveltime": 0}, {"Id": "0101", "pgp": 0, "GoBack": 1, "SID": 7063, "NameZh": "\u5efa\u570b\u8def\u53e3(\u9cf3\u677e\u8def)", "RouteId": 9161, "SeqNo": 5, "Terminal": 0, "DistrictId": 1, "Latitude": 22.63606, "Longitude": 120.36238, "IVRNo": 1071, "EXTVoiceNo": 101, "traveltime": 0, "holidayTraveltime": 0}, {"Id": "1571", "pgp": 0, "GoBack": 1, "SID": 7064, "NameZh": "\u5712\u85dd\u8a66\u9a57\u6240", "RouteId": 9161, "SeqNo": 6, "Terminal": 0, "DistrictId": 1, "Latitude": 22.6396, "Longitude": 120.36337, "IVRNo": 11571, "EXTVoiceNo": 11571, "traveltime": 0, "holidayTraveltime": 0}, {"Id": "0516", "pgp": 0, "GoBack": 1, "SID": 7065, "NameZh": "\u725b\u7a20\u57d4(\u9cf3\u5c71)", "RouteId": 9161, "SeqNo": 7, "Terminal": 0, "DistrictId": 1, "Latitude": 22.64393, "Longitude": 120.36467, "IVRNo": 516, "EXTVoiceNo": 516, "traveltime": 0, "holidayTraveltime": 0}, {"Id": "1132", "pgp": 0, "GoBack": 1, "SID": 7066, "NameZh": "\u4e09\u53e2\u7af9", "RouteId": 9161, "SeqNo": 8, "Terminal": 0, "DistrictId": 1, "Latitude": 22.6496, "Longitude": 120.36548, "IVRNo": 517, "EXTVoiceNo": 21132, "traveltime": 0, "holidayTraveltime": 0}, {"Id": "3537", "pgp": 0, "GoBack": 1, "SID": 2594, "NameZh": "\u5fe0\u8aa0\u8def", "RouteId": 9161, "SeqNo": 9, "Terminal": 0, "DistrictId": 1, "Latitude": 22.654179, "Longitude": 120.364099, "IVRNo": 3537, "EXTVoiceNo": 3537, "traveltime": 0, "holidayTraveltime": 0}, {"Id": "1912", "pgp": 0, "GoBack": 1, "SID": 12546, "NameZh": "\u6f84\u6e05\u6e56\u68d2\u7403\u5834", "RouteId": 9161, "SeqNo": 10, "Terminal": 0, "DistrictId": 1, "Latitude": 22.655697, "Longitude": 120.359808, "IVRNo": 11912, "EXTVoiceNo": 11912, "traveltime": 0, "holidayTraveltime": 0}, {"Id": "8941", "pgp": 0, "GoBack": 1, "SID": 6039, "NameZh": "\u52de\u5de5\u80b2\u6a02\u4e2d\u5fc3", "RouteId": 9161, "SeqNo": 11, "Terminal": 0, "DistrictId": 1, "Latitude": 22.652948, "Longitude": 120.35972, "IVRNo": 9411, "EXTVoiceNo": 8941, "traveltime": 0, "holidayTraveltime": 0}, {"Id": "3534", "pgp": 0, "GoBack": 1, "SID": 2556, "NameZh": "\u9577\u5e9a\u91ab\u9662", "RouteId": 9161, "SeqNo": 12, "Terminal": 0, "DistrictId": 1, "Latitude": 22.650933, "Longitude": 120.356409, "IVRNo": 3534, "EXTVoiceNo": 3534, "traveltime": 0, "holidayTraveltime": 0}, {"Id": "7114", "pgp": 0, "GoBack": 1, "SID": 12307, "NameZh": "\u9ce5\u677e\u5340\u516c\u6240(\u4e2d\u6b63\u8def)", "RouteId": 9161, "SeqNo": 13, "Terminal": 0, "DistrictId": 1, "Latitude": 22.659809, "Longitude": 120.364124, "IVRNo": 4332, "EXTVoiceNo": 17114, "traveltime": 0, "holidayTraveltime": 0}, {"Id": "0020", "pgp": 0, "GoBack": 1, "SID": 5787, "NameZh": "\u5927\u667a\u8def\u53e3(\u5927\u4ec1\u5317\u8def)", "RouteId": 9161, "SeqNo": 14, "Terminal": 0, "DistrictId": 1, "Latitude": 22.664539, "Longitude": 120.362169, "IVRNo": 20, "EXTVoiceNo": 20, "traveltime": 0, "holidayTraveltime": 0}, {"Id": "0064", "pgp": 0, "GoBack": 1, "SID": 6185, "NameZh": "\u5927\u4ec1\u5317\u8def", "RouteId": 9161, "SeqNo": 15, "Terminal": 0, "DistrictId": 1, "Latitude": 22.666655, "Longitude": 120.361749, "IVRNo": 2196, "EXTVoiceNo": 20064, "traveltime": 0, "holidayTraveltime": 0}, {"Id": "9862", "pgp": 0, "GoBack": 1, "SID": 6053, "NameZh": "\u6148\u80b2\u8857\u53e3", "RouteId": 9161, "SeqNo": 16, "Terminal": 0, "DistrictId": 1, "Latitude": 22.669666, "Longitude": 120.360383, "IVRNo": 2197, "EXTVoiceNo": 9862, "traveltime": 0, "holidayTraveltime": 0}, {"Id": "0186", "pgp": 0, "GoBack": 1, "SID": 10540, "NameZh": "\u4ec1\u6148\u516c\u5712", "RouteId": 9161, "SeqNo": 17, "Terminal": 0, "DistrictId": 1, "Latitude": 22.672858, "Longitude": 120.358568, "IVRNo": 2198, "EXTVoiceNo": 20186, "traveltime": 0, "holidayTraveltime": 0}, {"Id": "0182", "pgp": 0, "GoBack": 1, "SID": 8449, "NameZh": "\u4ec1\u5fe0\u8def\u53e3", "RouteId": 9161, "SeqNo": 18, "Terminal": 0, "DistrictId": 1, "Latitude": 22.675799, "Longitude": 120.357001, "IVRNo": 2199, "EXTVoiceNo": 20182, "traveltime": 0, "holidayTraveltime": 0}, {"Id": "0778", "pgp": 0, "GoBack": 1, "SID": 10542, "NameZh": "\u767b\u767c\u570b\u5c0f", "RouteId": 9161, "SeqNo": 19, "Terminal": 0, "DistrictId": 1, "Latitude": 22.67964, "Longitude": 120.354677, "IVRNo": 2200, "EXTVoiceNo": 20778, "traveltime": 0, "holidayTraveltime": 0}, {"Id": "5272", "pgp": 0, "GoBack": 1, "SID": 10605, "NameZh": "\u7063\u5b50\u5167(\u4ec1\u6b66)", "RouteId": 9161, "SeqNo": 20, "Terminal": 0, "DistrictId": 1, "Latitude": 22.682282, "Longitude": 120.355031, "IVRNo": 5272, "EXTVoiceNo": 5272, "traveltime": 0, "holidayTraveltime": 0}, {"Id": "0371", "pgp": 0, "GoBack": 1, "SID": 10606, "NameZh": "\u540d\u6e56\u793e\u5340", "RouteId": 9161, "SeqNo": 21, "Terminal": 0, "DistrictId": 1, "Latitude": 22.68668, "Longitude": 120.35276, "IVRNo": 8961, "EXTVoiceNo": 20371, "traveltime": 0, "holidayTraveltime": 0}, {"Id": "1096", "pgp": 0, "GoBack": 1, "SID": 10607, "NameZh": "\u65b0\u5e84(\u9cf3\u4ec1\u8def)", "RouteId": 9161, "SeqNo": 22, "Terminal": 0, "DistrictId": 1, "Latitude": 22.692814, "Longitude": 120.349721, "IVRNo": 1096, "EXTVoiceNo": 1096, "traveltime": 0, "holidayTraveltime": 0}, {"Id": "7935", "pgp": 0, "GoBack": 1, "SID": 10609, "NameZh": "\u901a\u6cd5\u5bfa", "RouteId": 9161, "SeqNo": 23, "Terminal": 0, "DistrictId": 1, "Latitude": 22.69886, "Longitude": 120.34681, "IVRNo": 986, "EXTVoiceNo": 7935, "traveltime": 0, "holidayTraveltime": 0}, {"Id": "7934", "pgp": 0, "GoBack": 1, "SID": 5380, "NameZh": "\u4ec1\u6b66\u5340\u516c\u6240(\u6d3e\u51fa\u6240)", "RouteId": 9161, "SeqNo": 24, "Terminal": 0, "DistrictId": 1, "Latitude": 22.701505, "Longitude": 120.348306, "IVRNo": 7934, "EXTVoiceNo": 7934, "traveltime": 0, "holidayTraveltime": 0}, {"Id": "7933", "pgp": 0, "GoBack": 1, "SID": 5394, "NameZh": "\u4ec1\u6b66\u91cc", "RouteId": 9161, "SeqNo": 25, "Terminal": 0, "DistrictId": 1, "Latitude": 22.702368, "Longitude": 120.352187, "IVRNo": 7948, "EXTVoiceNo": 7933, "traveltime": 0, "holidayTraveltime": 0}, {"Id": "8984", "pgp": 0, "GoBack": 1, "SID": 6086, "NameZh": "\u6587\u6b66\u91cc", "RouteId": 9161, "SeqNo": 26, "Terminal": 0, "DistrictId": 1, "Latitude": 22.703856, "Longitude": 120.353843, "IVRNo": 447, "EXTVoiceNo": 8984, "traveltime": 0, "holidayTraveltime": 0}, {"Id": "8983", "pgp": 0, "GoBack": 1, "SID": 6087, "NameZh": "\u6587\u5b89\u4e8c\u8857\u53e3", "RouteId": 9161, "SeqNo": 27, "Terminal": 0, "DistrictId": 1, "Latitude": 22.706038, "Longitude": 120.353578, "IVRNo": 9478, "EXTVoiceNo": 8983, "traveltime": 0, "holidayTraveltime": 0}, {"Id": "1303", "pgp": 0, "GoBack": 1, "SID": 5395, "NameZh": "\u5b89\u6a02\u4e00\u8857\u53e3", "RouteId": 9161, "SeqNo": 28, "Terminal": 0, "DistrictId": 1, "Latitude": 22.709251, "Longitude": 120.3531, "IVRNo": 1303, "EXTVoiceNo": 1303, "traveltime": 0, "holidayTraveltime": 0}, {"Id": "7950", "pgp": 0, "GoBack": 1, "SID": 5396, "NameZh": "\u5f8c\u5e84(\u4e2d\u6b63\u8def)", "RouteId": 9161, "SeqNo": 29, "Terminal": 0, "DistrictId": 1, "Latitude": 22.71267, "Longitude": 120.352643, "IVRNo": 471, "EXTVoiceNo": 7950, "traveltime": 0, "holidayTraveltime": 0}, {"Id": "7930", "pgp": 0, "GoBack": 1, "SID": 5397, "NameZh": "\u6797\u5b50\u908a", "RouteId": 9161, "SeqNo": 30, "Terminal": 0, "DistrictId": 1, "Latitude": 22.72248, "Longitude": 120.35045, "IVRNo": 968, "EXTVoiceNo": 7930, "traveltime": 0, "holidayTraveltime": 0}, {"Id": "0029", "pgp": 0, "GoBack": 1, "SID": 8582, "NameZh": "\u4e09\u6c11\u8def", "RouteId": 9161, "SeqNo": 31, "Terminal": 0, "DistrictId": 1, "Latitude": 22.724134, "Longitude": 120.349185, "IVRNo": 74, "EXTVoiceNo": 20029, "traveltime": 0, "holidayTraveltime": 0}, {"Id": "7929", "pgp": 0, "GoBack": 1, "SID": 5398, "NameZh": "\u4e09\u5976\u91cc", "RouteId": 9161, "SeqNo": 32, "Terminal": 0, "DistrictId": 1, "Latitude": 22.726902, "Longitude": 120.348395, "IVRNo": 842, "EXTVoiceNo": 7929, "traveltime": 0, "holidayTraveltime": 0}, {"Id": "7927", "pgp": 0, "GoBack": 1, "SID": 13787, "NameZh": "\u5927\u793e\u5340\u516c\u6240", "RouteId": 9161, "SeqNo": 33, "Terminal": 1, "DistrictId": 1, "Latitude": 22.730376, "Longitude": 120.346882, "IVRNo": 7927, "EXTVoiceNo": 7927, "traveltime": 0, "holidayTraveltime": 0}, {"Id": "7927", "pgp": 0, "GoBack": 2, "SID": 13957, "NameZh": "\u5927\u793e\u5340\u516c\u6240", "RouteId": 9161, "SeqNo": 1, "Terminal": 0, "DistrictId": 1, "Latitude": 22.730376, "Longitude": 120.346882, "IVRNo": 7927, "EXTVoiceNo": 7927, "traveltime": 0, "holidayTraveltime": 0}, {"Id": "7928", "pgp": 0, "GoBack": 2, "SID": 5370, "NameZh": "\u7fe0\u5c4f\u8def\u53e3(\u4e2d\u5c71\u8def)", "RouteId": 9161, "SeqNo": 2, "Terminal": 0, "DistrictId": 1, "Latitude": 22.731576, "Longitude": 120.350397, "IVRNo": 7928, "EXTVoiceNo": 7928, "traveltime": 0, "holidayTraveltime": 0}, {"Id": "1217", "pgp": 0, "GoBack": 2, "SID": 18375, "NameZh": "\u7fe0\u5c4f\u8def", "RouteId": 9161, "SeqNo": 3, "Terminal": 0, "DistrictId": 1, "Latitude": 22.729214, "Longitude": 120.349706, "IVRNo": 11217, "EXTVoiceNo": 11217, "traveltime": 0, "holidayTraveltime": 0}, {"Id": "7929", "pgp": 0, "GoBack": 2, "SID": 5373, "NameZh": "\u4e09\u5976\u91cc", "RouteId": 9161, "SeqNo": 4, "Terminal": 0, "DistrictId": 1, "Latitude": 22.726904, "Longitude": 120.348382, "IVRNo": 842, "EXTVoiceNo": 7929, "traveltime": 0, "holidayTraveltime": 0}, {"Id": "0029", "pgp": 0, "GoBack": 2, "SID": 10620, "NameZh": "\u4e09\u6c11\u8def", "RouteId": 9161, "SeqNo": 5, "Terminal": 0, "DistrictId": 1, "Latitude": 22.72404, "Longitude": 120.349191, "IVRNo": 74, "EXTVoiceNo": 20029, "traveltime": 0, "holidayTraveltime": 0}, {"Id": "7930", "pgp": 0, "GoBack": 2, "SID": 5374, "NameZh": "\u6797\u5b50\u908a", "RouteId": 9161, "SeqNo": 6, "Terminal": 0, "DistrictId": 1, "Latitude": 22.722331, "Longitude": 120.35044, "IVRNo": 968, "EXTVoiceNo": 7930, "traveltime": 0, "holidayTraveltime": 0}, {"Id": "7950", "pgp": 0, "GoBack": 2, "SID": 5377, "NameZh": "\u5f8c\u5e84(\u4e2d\u6b63\u8def)", "RouteId": 9161, "SeqNo": 7, "Terminal": 0, "DistrictId": 1, "Latitude": 22.712632, "Longitude": 120.352591, "IVRNo": 471, "EXTVoiceNo": 7950, "traveltime": 0, "holidayTraveltime": 0}, {"Id": "1303", "pgp": 0, "GoBack": 2, "SID": 5378, "NameZh": "\u5b89\u6a02\u4e00\u8857\u53e3", "RouteId": 9161, "SeqNo": 8, "Terminal": 0, "DistrictId": 1, "Latitude": 22.70925, "Longitude": 120.353057, "IVRNo": 1303, "EXTVoiceNo": 1303, "traveltime": 0, "holidayTraveltime": 0}, {"Id": "8983", "pgp": 0, "GoBack": 2, "SID": 6076, "NameZh": "\u6587\u5b89\u4e8c\u8857\u53e3", "RouteId": 9161, "SeqNo": 9, "Terminal": 0, "DistrictId": 1, "Latitude": 22.705951, "Longitude": 120.35353, "IVRNo": 9478, "EXTVoiceNo": 8983, "traveltime": 0, "holidayTraveltime": 0}, {"Id": "8984", "pgp": 0, "GoBack": 2, "SID": 6077, "NameZh": "\u6587\u6b66\u91cc", "RouteId": 9161, "SeqNo": 10, "Terminal": 0, "DistrictId": 1, "Latitude": 22.703769, "Longitude": 120.353802, "IVRNo": 447, "EXTVoiceNo": 8984, "traveltime": 0, "holidayTraveltime": 0}, {"Id": "0060", "pgp": 0, "GoBack": 2, "SID": 18229, "NameZh": "\u4ec1\u6b66\u9ad8\u4e2d", "RouteId": 9161, "SeqNo": 11, "Terminal": 0, "DistrictId": 1, "Latitude": 22.702732, "Longitude": 120.354107, "IVRNo": 1010, "EXTVoiceNo": 60, "traveltime": 0, "holidayTraveltime": 0}, {"Id": "1061", "pgp": 0, "GoBack": 2, "SID": 8261, "NameZh": "\u4ec1\u5fb7\u8857\u53e3(\u4e2d\u83ef\u8def)", "RouteId": 9161, "SeqNo": 12, "Terminal": 0, "DistrictId": 1, "Latitude": 22.699954, "Longitude": 120.350872, "IVRNo": 1061, "EXTVoiceNo": 1061, "traveltime": 0, "holidayTraveltime": 0}, {"Id": "7935", "pgp": 0, "GoBack": 2, "SID": 5392, "NameZh": "\u901a\u6cd5\u5bfa", "RouteId": 9161, "SeqNo": 13, "Terminal": 0, "DistrictId": 1, "Latitude": 22.698925, "Longitude": 120.346652, "IVRNo": 986, "EXTVoiceNo": 7935, "traveltime": 0, "holidayTraveltime": 0}, {"Id": "1096", "pgp": 0, "GoBack": 2, "SID": 5382, "NameZh": "\u65b0\u5e84(\u9cf3\u4ec1\u8def)", "RouteId": 9161, "SeqNo": 14, "Terminal": 0, "DistrictId": 1, "Latitude": 22.69251, "Longitude": 120.34965, "IVRNo": 1096, "EXTVoiceNo": 1096, "traveltime": 0, "holidayTraveltime": 0}, {"Id": "0371", "pgp": 0, "GoBack": 2, "SID": 8568, "NameZh": "\u540d\u6e56\u793e\u5340", "RouteId": 9161, "SeqNo": 15, "Terminal": 0, "DistrictId": 1, "Latitude": 22.68668, "Longitude": 120.35276, "IVRNo": 8961, "EXTVoiceNo": 20371, "traveltime": 0, "holidayTraveltime": 0}, {"Id": "5272", "pgp": 0, "GoBack": 2, "SID": 6237, "NameZh": "\u7063\u5b50\u5167(\u4ec1\u6b66)", "RouteId": 9161, "SeqNo": 16, "Terminal": 0, "DistrictId": 1, "Latitude": 22.682282, "Longitude": 120.355031, "IVRNo": 5272, "EXTVoiceNo": 5272, "traveltime": 0, "holidayTraveltime": 0}, {"Id": "0778", "pgp": 0, "GoBack": 2, "SID": 8450, "NameZh": "\u767b\u767c\u570b\u5c0f", "RouteId": 9161, "SeqNo": 17, "Terminal": 0, "DistrictId": 1, "Latitude": 22.67964, "Longitude": 120.354677, "IVRNo": 2200, "EXTVoiceNo": 20778, "traveltime": 0, "holidayTraveltime": 0}, {"Id": "0182", "pgp": 0, "GoBack": 2, "SID": 10541, "NameZh": "\u4ec1\u5fe0\u8def\u53e3", "RouteId": 9161, "SeqNo": 18, "Terminal": 0, "DistrictId": 1, "Latitude": 22.675799, "Longitude": 120.357001, "IVRNo": 2199, "EXTVoiceNo": 20182, "traveltime": 0, "holidayTraveltime": 0}, {"Id": "0186", "pgp": 0, "GoBack": 2, "SID": 11381, "NameZh": "\u4ec1\u6148\u516c\u5712", "RouteId": 9161, "SeqNo": 19, "Terminal": 0, "DistrictId": 1, "Latitude": 22.672353, "Longitude": 120.358838, "IVRNo": 2198, "EXTVoiceNo": 20186, "traveltime": 0, "holidayTraveltime": 0}, {"Id": "9862", "pgp": 0, "GoBack": 2, "SID": 10539, "NameZh": "\u6148\u80b2\u8857\u53e3", "RouteId": 9161, "SeqNo": 20, "Terminal": 0, "DistrictId": 1, "Latitude": 22.669514, "Longitude": 120.360593, "IVRNo": 2197, "EXTVoiceNo": 9862, "traveltime": 0, "holidayTraveltime": 0}, {"Id": "0064", "pgp": 0, "GoBack": 2, "SID": 10538, "NameZh": "\u5927\u4ec1\u5317\u8def", "RouteId": 9161, "SeqNo": 21, "Terminal": 0, "DistrictId": 1, "Latitude": 22.666655, "Longitude": 120.361749, "IVRNo": 2196, "EXTVoiceNo": 20064, "traveltime": 0, "holidayTraveltime": 0}, {"Id": "0020", "pgp": 0, "GoBack": 2, "SID": 11378, "NameZh": "\u5927\u667a\u8def\u53e3(\u5927\u4ec1\u5317\u8def)", "RouteId": 9161, "SeqNo": 22, "Terminal": 0, "DistrictId": 1, "Latitude": 22.664493, "Longitude": 120.362152, "IVRNo": 20, "EXTVoiceNo": 20, "traveltime": 0, "holidayTraveltime": 0}, {"Id": "3370", "pgp": 0, "GoBack": 2, "SID": 8407, "NameZh": "\u9ce5\u677e", "RouteId": 9161, "SeqNo": 23, "Terminal": 0, "DistrictId": 1, "Latitude": 22.66166, "Longitude": 120.36358, "IVRNo": 1463, "EXTVoiceNo": 13370, "traveltime": 0, "holidayTraveltime": 0}, {"Id": "7114", "pgp": 0, "GoBack": 2, "SID": 3001, "NameZh": "\u9ce5\u677e\u5340\u516c\u6240(\u4e2d\u6b63\u8def)", "RouteId": 9161, "SeqNo": 24, "Terminal": 0, "DistrictId": 1, "Latitude": 22.660443, "Longitude": 120.364022, "IVRNo": 4332, "EXTVoiceNo": 17114, "traveltime": 0, "holidayTraveltime": 0}, {"Id": "3534", "pgp": 0, "GoBack": 2, "SID": 2528, "NameZh": "\u9577\u5e9a\u91ab\u9662", "RouteId": 9161, "SeqNo": 25, "Terminal": 0, "DistrictId": 1, "Latitude": 22.65068, "Longitude": 120.35691, "IVRNo": 3534, "EXTVoiceNo": 3534, "traveltime": 0, "holidayTraveltime": 0}, {"Id": "8941", "pgp": 0, "GoBack": 2, "SID": 6040, "NameZh": "\u52de\u5de5\u80b2\u6a02\u4e2d\u5fc3", "RouteId": 9161, "SeqNo": 26, "Terminal": 0, "DistrictId": 1, "Latitude": 22.652809, "Longitude": 120.359709, "IVRNo": 9411, "EXTVoiceNo": 8941, "traveltime": 0, "holidayTraveltime": 0}, {"Id": "1912", "pgp": 0, "GoBack": 2, "SID": 12511, "NameZh": "\u6f84\u6e05\u6e56\u68d2\u7403\u5834", "RouteId": 9161, "SeqNo": 27, "Terminal": 0, "DistrictId": 1, "Latitude": 22.65573, "Longitude": 120.35998, "IVRNo": 11912, "EXTVoiceNo": 11912, "traveltime": 0, "holidayTraveltime": 0}, {"Id": "3537", "pgp": 0, "GoBack": 2, "SID": 2537, "NameZh": "\u5fe0\u8aa0\u8def", "RouteId": 9161, "SeqNo": 28, "Terminal": 0, "DistrictId": 1, "Latitude": 22.654173, "Longitude": 120.363974, "IVRNo": 3537, "EXTVoiceNo": 3537, "traveltime": 0, "holidayTraveltime": 0}, {"Id": "1132", "pgp": 0, "GoBack": 2, "SID": 7177, "NameZh": "\u4e09\u53e2\u7af9", "RouteId": 9161, "SeqNo": 29, "Terminal": 0, "DistrictId": 1, "Latitude": 22.649581, "Longitude": 120.365239, "IVRNo": 517, "EXTVoiceNo": 21132, "traveltime": 0, "holidayTraveltime": 0}, {"Id": "0516", "pgp": 0, "GoBack": 2, "SID": 7178, "NameZh": "\u725b\u7a20\u57d4(\u9cf3\u5c71)", "RouteId": 9161, "SeqNo": 30, "Terminal": 0, "DistrictId": 1, "Latitude": 22.643549, "Longitude": 120.364465, "IVRNo": 516, "EXTVoiceNo": 516, "traveltime": 0, "holidayTraveltime": 0}, {"Id": "1571", "pgp": 0, "GoBack": 2, "SID": 7179, "NameZh": "\u5712\u85dd\u8a66\u9a57\u6240", "RouteId": 9161, "SeqNo": 31, "Terminal": 0, "DistrictId": 1, "Latitude": 22.63968, "Longitude": 120.36319, "IVRNo": 11571, "EXTVoiceNo": 11571, "traveltime": 0, "holidayTraveltime": 0}, {"Id": "0101", "pgp": 0, "GoBack": 2, "SID": 7180, "NameZh": "\u5efa\u570b\u8def\u53e3(\u9cf3\u677e\u8def)", "RouteId": 9161, "SeqNo": 32, "Terminal": 0, "DistrictId": 1, "Latitude": 22.63661, "Longitude": 120.36224, "IVRNo": 1071, "EXTVoiceNo": 101, "traveltime": 0, "holidayTraveltime": 0}, {"Id": "7126", "pgp": 0, "GoBack": 2, "SID": 7181, "NameZh": "\u5317\u9580", "RouteId": 9161, "SeqNo": 33, "Terminal": 0, "DistrictId": 1, "Latitude": 22.6335, "Longitude": 120.36137, "IVRNo": 149, "EXTVoiceNo": 17126, "traveltime": 0, "holidayTraveltime": 0}, {"Id": "2099", "pgp": 0, "GoBack": 2, "SID": 14619, "NameZh": "\u9cf3\u5c71\u8f49\u904b\u7ad9(\u6377\u904b\u5927\u6771\u7ad9)", "RouteId": 9161, "SeqNo": 34, "Terminal": 0, "DistrictId": 1, "Latitude": 22.625829, "Longitude": 120.363337, "IVRNo": 2099, "EXTVoiceNo": 2099, "traveltime": 0, "holidayTraveltime": 0}, {"Id": "9276", "pgp": 0, "GoBack": 2, "SID": 1992, "NameZh": "\u5149\u5fa9\u8def", "RouteId": 9161, "SeqNo": 35, "Terminal": 0, "DistrictId": 1, "Latitude": 22.629106, "Longitude": 120.359163, "IVRNo": 9867, "EXTVoiceNo": 9276, "traveltime": 0, "holidayTraveltime": 0}, {"Id": "9202", "pgp": 0, "GoBack": 2, "SID": 17428, "NameZh": "\u81fa\u9435\u9cf3\u5c71\u7ad9", "RouteId": 9161, "SeqNo": 36, "Terminal": 1, "DistrictId": 1, "Latitude": 22.631224, "Longitude": 120.357718, "IVRNo": 9709, "EXTVoiceNo": 9202, "traveltime": 0, "holidayTraveltime": 0}]}