{"en": [{"Id": "1283", "pgp": 0, "GoBack": 1, "SID": 5132, "NameZh": "MRT Metropolitan Park Station", "RouteId": 8048, "SeqNo": 1, "Terminal": 0, "DistrictId": 1, "Latitude": 22.729596, "Longitude": 120.320741, "IVRNo": 1283, "EXTVoiceNo": 1283, "traveltime": 0, "holidayTraveltime": 0}, {"Id": "1678", "pgp": 0, "GoBack": 1, "SID": 11843, "NameZh": "Nanzih Station", "RouteId": 8048, "SeqNo": 2, "Terminal": 0, "DistrictId": 1, "Latitude": 22.72666, "Longitude": 120.32506, "IVRNo": 39, "EXTVoiceNo": 1678, "traveltime": 0, "holidayTraveltime": 0}, {"Id": "8046", "pgp": 0, "GoBack": 1, "SID": 11844, "NameZh": "Nanzih Rd. Intersection", "RouteId": 8048, "SeqNo": 3, "Terminal": 0, "DistrictId": 1, "Latitude": 22.72816, "Longitude": 120.33033, "IVRNo": 32360, "EXTVoiceNo": 8046, "traveltime": 0, "holidayTraveltime": 0}, {"Id": "7111", "pgp": 0, "GoBack": 1, "SID": 11845, "NameZh": "Kaohsiung Juvenile Court", "RouteId": 8048, "SeqNo": 4, "Terminal": 0, "DistrictId": 1, "Latitude": 22.73071, "Longitude": 120.33554, "IVRNo": 7111, "EXTVoiceNo": 7111, "traveltime": 0, "holidayTraveltime": 0}, {"Id": "0318", "pgp": 0, "GoBack": 1, "SID": 11846, "NameZh": "Waipu (Nanzih)", "RouteId": 8048, "SeqNo": 5, "Terminal": 0, "DistrictId": 1, "Latitude": 22.73123, "Longitude": 120.33742, "IVRNo": 318, "EXTVoiceNo": 318, "traveltime": 0, "holidayTraveltime": 0}, {"Id": "1139", "pgp": 0, "GoBack": 1, "SID": 11847, "NameZh": "Sanjhong Rd. Intersection (Sanmin Rd.)", "RouteId": 8048, "SeqNo": 6, "Terminal": 0, "DistrictId": 1, "Latitude": 22.73073, "Longitude": 120.34312, "IVRNo": 1139, "EXTVoiceNo": 1139, "traveltime": 0, "holidayTraveltime": 0}, {"Id": "0088", "pgp": 0, "GoBack": 1, "SID": 11848, "NameZh": "Dashe Farmers` Association", "RouteId": 8048, "SeqNo": 7, "Terminal": 0, "DistrictId": 1, "Latitude": 22.72951, "Longitude": 120.34685, "IVRNo": 173, "EXTVoiceNo": 20088, "traveltime": 0, "holidayTraveltime": 0}, {"Id": "7929", "pgp": 0, "GoBack": 1, "SID": 11849, "NameZh": "Sannai Village", "RouteId": 8048, "SeqNo": 8, "Terminal": 0, "DistrictId": 1, "Latitude": 22.72721, "Longitude": 120.34846, "IVRNo": 842, "EXTVoiceNo": 7929, "traveltime": 0, "holidayTraveltime": 0}, {"Id": "7930", "pgp": 0, "GoBack": 1, "SID": 11850, "NameZh": "Linzihbian", "RouteId": 8048, "SeqNo": 9, "Terminal": 0, "DistrictId": 1, "Latitude": 22.722312, "Longitude": 120.350326, "IVRNo": 968, "EXTVoiceNo": 7930, "traveltime": 0, "holidayTraveltime": 0}, {"Id": "2613", "pgp": 0, "GoBack": 1, "SID": 1860, "NameZh": "Jhongren Rd. Intersection", "RouteId": 8048, "SeqNo": 10, "Terminal": 0, "DistrictId": 1, "Latitude": 22.718457, "Longitude": 120.350927, "IVRNo": 7913, "EXTVoiceNo": 2613, "traveltime": 0, "holidayTraveltime": 0}, {"Id": "7950", "pgp": 0, "GoBack": 1, "SID": 11852, "NameZh": "Houjhuang (Jhongjheng Rd.)", "RouteId": 8048, "SeqNo": 11, "Terminal": 0, "DistrictId": 1, "Latitude": 22.71502, "Longitude": 120.35194, "IVRNo": 471, "EXTVoiceNo": 7950, "traveltime": 0, "holidayTraveltime": 0}, {"Id": "1303", "pgp": 0, "GoBack": 1, "SID": 11853, "NameZh": "Anle 1st St. Intersection", "RouteId": 8048, "SeqNo": 12, "Terminal": 0, "DistrictId": 1, "Latitude": 22.7093, "Longitude": 120.35303, "IVRNo": 1303, "EXTVoiceNo": 1303, "traveltime": 0, "holidayTraveltime": 0}, {"Id": "8984", "pgp": 0, "GoBack": 1, "SID": 10613, "NameZh": "Wunwu Village", "RouteId": 8048, "SeqNo": 13, "Terminal": 0, "DistrictId": 1, "Latitude": 22.70375, "Longitude": 120.35382, "IVRNo": 447, "EXTVoiceNo": 8984, "traveltime": 0, "holidayTraveltime": 0}, {"Id": "0183", "pgp": 0, "GoBack": 1, "SID": 11855, "NameZh": "Renwu Village", "RouteId": 8048, "SeqNo": 14, "Terminal": 0, "DistrictId": 1, "Latitude": 22.702511, "Longitude": 120.352165, "IVRNo": 7948, "EXTVoiceNo": 20183, "traveltime": 0, "holidayTraveltime": 0}, {"Id": "7934", "pgp": 0, "GoBack": 1, "SID": 11856, "NameZh": "Renwu District Office (Police Office)", "RouteId": 8048, "SeqNo": 15, "Terminal": 0, "DistrictId": 1, "Latitude": 22.701663, "Longitude": 120.348439, "IVRNo": 7934, "EXTVoiceNo": 7934, "traveltime": 0, "holidayTraveltime": 0}, {"Id": "7935", "pgp": 0, "GoBack": 1, "SID": 11858, "NameZh": "Tongfa Temple", "RouteId": 8048, "SeqNo": 16, "Terminal": 0, "DistrictId": 1, "Latitude": 22.69887, "Longitude": 120.34652, "IVRNo": 986, "EXTVoiceNo": 7935, "traveltime": 0, "holidayTraveltime": 0}, {"Id": "0021", "pgp": 0, "GoBack": 1, "SID": 11859, "NameZh": "Bagua Liao", "RouteId": 8048, "SeqNo": 17, "Terminal": 0, "DistrictId": 1, "Latitude": 22.69632, "Longitude": 120.34789, "IVRNo": 837, "EXTVoiceNo": 20021, "traveltime": 0, "holidayTraveltime": 0}, {"Id": "1096", "pgp": 0, "GoBack": 1, "SID": 11860, "NameZh": "Sinjhuang (Fongren Rd.)", "RouteId": 8048, "SeqNo": 18, "Terminal": 0, "DistrictId": 1, "Latitude": 22.69255, "Longitude": 120.34959, "IVRNo": 1096, "EXTVoiceNo": 1096, "traveltime": 0, "holidayTraveltime": 0}, {"Id": "0371", "pgp": 0, "GoBack": 1, "SID": 11861, "NameZh": "Minghu Community", "RouteId": 8048, "SeqNo": 19, "Terminal": 0, "DistrictId": 1, "Latitude": 22.6866, "Longitude": 120.35266, "IVRNo": 8961, "EXTVoiceNo": 20371, "traveltime": 0, "holidayTraveltime": 0}, {"Id": "5272", "pgp": 0, "GoBack": 1, "SID": 11862, "NameZh": "Wanzihnei (Renwu)", "RouteId": 8048, "SeqNo": 20, "Terminal": 0, "DistrictId": 1, "Latitude": 22.68112, "Longitude": 120.35545, "IVRNo": 5272, "EXTVoiceNo": 5272, "traveltime": 0, "holidayTraveltime": 0}, {"Id": "3335", "pgp": 0, "GoBack": 1, "SID": 11863, "NameZh": "Kaotan", "RouteId": 8048, "SeqNo": 21, "Terminal": 0, "DistrictId": 1, "Latitude": 22.67684, "Longitude": 120.35789, "IVRNo": 8938, "EXTVoiceNo": 13335, "traveltime": 0, "holidayTraveltime": 0}, {"Id": "0024", "pgp": 0, "GoBack": 1, "SID": 11864, "NameZh": "Shihjiouwan", "RouteId": 8048, "SeqNo": 22, "Terminal": 0, "DistrictId": 1, "Latitude": 22.67089, "Longitude": 120.3611, "IVRNo": 4835, "EXTVoiceNo": 20024, "traveltime": 0, "holidayTraveltime": 0}, {"Id": "9246", "pgp": 0, "GoBack": 1, "SID": 8406, "NameZh": "Mengli Village", "RouteId": 8048, "SeqNo": 23, "Terminal": 0, "DistrictId": 1, "Latitude": 22.66741, "Longitude": 120.36263, "IVRNo": 9245, "EXTVoiceNo": 9246, "traveltime": 0, "holidayTraveltime": 0}, {"Id": "3370", "pgp": 0, "GoBack": 1, "SID": 8407, "NameZh": "Niaosong", "RouteId": 8048, "SeqNo": 24, "Terminal": 0, "DistrictId": 1, "Latitude": 22.66166, "Longitude": 120.36358, "IVRNo": 1463, "EXTVoiceNo": 13370, "traveltime": 0, "holidayTraveltime": 0}, {"Id": "7114", "pgp": 0, "GoBack": 1, "SID": 11867, "NameZh": "Niaosong District Office (Jhongjheng Rd.)", "RouteId": 8048, "SeqNo": 25, "Terminal": 0, "DistrictId": 1, "Latitude": 22.66013, "Longitude": 120.36381, "IVRNo": 4332, "EXTVoiceNo": 17114, "traveltime": 0, "holidayTraveltime": 0}, {"Id": "3537", "pgp": 0, "GoBack": 1, "SID": 2592, "NameZh": "Jhongcheng Rd. Intersection", "RouteId": 8048, "SeqNo": 26, "Terminal": 0, "DistrictId": 1, "Latitude": 22.658, "Longitude": 120.3609, "IVRNo": 864, "EXTVoiceNo": 3537, "traveltime": 0, "holidayTraveltime": 0}, {"Id": "1912", "pgp": 0, "GoBack": 1, "SID": 11868, "NameZh": "Chengcing Lake Baseball Field", "RouteId": 8048, "SeqNo": 27, "Terminal": 0, "DistrictId": 1, "Latitude": 22.65516, "Longitude": 120.35994, "IVRNo": 11912, "EXTVoiceNo": 11912, "traveltime": 0, "holidayTraveltime": 0}, {"Id": "3534", "pgp": 0, "GoBack": 1, "SID": 11869, "NameZh": "Chang Gung Memorial Hospital", "RouteId": 8048, "SeqNo": 28, "Terminal": 0, "DistrictId": 1, "Latitude": 22.650933, "Longitude": 120.356409, "IVRNo": 3534, "EXTVoiceNo": 3534, "traveltime": 0, "holidayTraveltime": 0}, {"Id": "0636", "pgp": 0, "GoBack": 1, "SID": 11870, "NameZh": "Cheng Shiu University (Chengcing Lake)", "RouteId": 8048, "SeqNo": 29, "Terminal": 0, "DistrictId": 1, "Latitude": 22.65152, "Longitude": 120.3487, "IVRNo": 3533, "EXTVoiceNo": 10636, "traveltime": 0, "holidayTraveltime": 0}, {"Id": "3532", "pgp": 0, "GoBack": 1, "SID": 11872, "NameZh": "Dahua Village", "RouteId": 8048, "SeqNo": 30, "Terminal": 0, "DistrictId": 1, "Latitude": 22.64684, "Longitude": 120.34701, "IVRNo": 3532, "EXTVoiceNo": 3532, "traveltime": 0, "holidayTraveltime": 0}, {"Id": "3531", "pgp": 0, "GoBack": 1, "SID": 11873, "NameZh": "Chengcing Rd.", "RouteId": 8048, "SeqNo": 31, "Terminal": 0, "DistrictId": 1, "Latitude": 22.64259, "Longitude": 120.34582, "IVRNo": 3531, "EXTVoiceNo": 3531, "traveltime": 0, "holidayTraveltime": 0}, {"Id": "9237", "pgp": 0, "GoBack": 1, "SID": 11874, "NameZh": "Jyuemin Rd. Intersection (Chengcing Rd)", "RouteId": 8048, "SeqNo": 32, "Terminal": 0, "DistrictId": 1, "Latitude": 22.63794, "Longitude": 120.34452, "IVRNo": 1015, "EXTVoiceNo": 9237, "traveltime": 0, "holidayTraveltime": 0}, {"Id": "2498", "pgp": 0, "GoBack": 1, "SID": 17044, "NameZh": "Fongshan Administration Center (Chengcing Rd.)", "RouteId": 8048, "SeqNo": 33, "Terminal": 0, "DistrictId": 1, "Latitude": 22.63021, "Longitude": 120.34461, "IVRNo": 2498, "EXTVoiceNo": 2498, "traveltime": 0, "holidayTraveltime": 0}, {"Id": "0503", "pgp": 0, "GoBack": 1, "SID": 11876, "NameZh": "Women and Children Center", "RouteId": 8048, "SeqNo": 34, "Terminal": 0, "DistrictId": 1, "Latitude": 22.62929, "Longitude": 120.34777, "IVRNo": 503, "EXTVoiceNo": 503, "traveltime": 0, "holidayTraveltime": 0}, {"Id": "4767", "pgp": 0, "GoBack": 1, "SID": 11877, "NameZh": "Chungshan Elementary School (Guangfu Rd.)", "RouteId": 8048, "SeqNo": 35, "Terminal": 0, "DistrictId": 1, "Latitude": 22.62931, "Longitude": 120.34975, "IVRNo": 523, "EXTVoiceNo": 4767, "traveltime": 0, "holidayTraveltime": 0}, {"Id": "0505", "pgp": 0, "GoBack": 1, "SID": 11878, "NameZh": "Tongyi Market", "RouteId": 8048, "SeqNo": 36, "Terminal": 0, "DistrictId": 1, "Latitude": 22.62922, "Longitude": 120.35308, "IVRNo": 505, "EXTVoiceNo": 505, "traveltime": 0, "holidayTraveltime": 0}, {"Id": "9201", "pgp": 0, "GoBack": 1, "SID": 11879, "NameZh": "Caogong Rd.", "RouteId": 8048, "SeqNo": 37, "Terminal": 0, "DistrictId": 1, "Latitude": 22.62841, "Longitude": 120.35716, "IVRNo": 506, "EXTVoiceNo": 9201, "traveltime": 0, "holidayTraveltime": 0}, {"Id": "0083", "pgp": 0, "GoBack": 1, "SID": 11880, "NameZh": "KBus Fongshan Station (Jhongshan Rd.)", "RouteId": 8048, "SeqNo": 38, "Terminal": 0, "DistrictId": 1, "Latitude": 22.62473, "Longitude": 120.356959, "IVRNo": 727, "EXTVoiceNo": 83, "traveltime": 0, "holidayTraveltime": 0}, {"Id": "0952", "pgp": 0, "GoBack": 1, "SID": 11881, "NameZh": "Fongshan Longshan Temple", "RouteId": 8048, "SeqNo": 39, "Terminal": 0, "DistrictId": 1, "Latitude": 22.62178, "Longitude": 120.35954, "IVRNo": 1183, "EXTVoiceNo": 20952, "traveltime": 0, "holidayTraveltime": 0}, {"Id": "1565", "pgp": 0, "GoBack": 1, "SID": 11882, "NameZh": "Huangpu New Village", "RouteId": 8048, "SeqNo": 40, "Terminal": 0, "DistrictId": 1, "Latitude": 22.62036, "Longitude": 120.36434, "IVRNo": 11565, "EXTVoiceNo": 11565, "traveltime": 0, "holidayTraveltime": 0}, {"Id": "0952", "pgp": 0, "GoBack": 1, "SID": 11883, "NameZh": "Dongmen", "RouteId": 8048, "SeqNo": 41, "Terminal": 0, "DistrictId": 1, "Latitude": 22.623736, "Longitude": 120.36943, "IVRNo": 159, "EXTVoiceNo": 10952, "traveltime": 0, "holidayTraveltime": 0}, {"Id": "4440", "pgp": 0, "GoBack": 1, "SID": 11884, "NameZh": "MRT Fongshan Junior High School Station (Chunghwa Post )", "RouteId": 8048, "SeqNo": 42, "Terminal": 0, "DistrictId": 1, "Latitude": 22.624426, "Longitude": 120.371579, "IVRNo": 158, "EXTVoiceNo": 4440, "traveltime": 0, "holidayTraveltime": 0}, {"Id": "0139", "pgp": 0, "GoBack": 1, "SID": 11885, "NameZh": "Jhongshan E. Rd.", "RouteId": 8048, "SeqNo": 43, "Terminal": 0, "DistrictId": 1, "Latitude": 22.62561, "Longitude": 120.37447, "IVRNo": 10264, "EXTVoiceNo": 20139, "traveltime": 0, "holidayTraveltime": 0}, {"Id": "0053", "pgp": 0, "GoBack": 1, "SID": 11886, "NameZh": "Shangbiding", "RouteId": 8048, "SeqNo": 44, "Terminal": 0, "DistrictId": 1, "Latitude": 22.626503, "Longitude": 120.376326, "IVRNo": 10116, "EXTVoiceNo": 20053, "traveltime": 0, "holidayTraveltime": 0}, {"Id": "1352", "pgp": 0, "GoBack": 1, "SID": 11887, "NameZh": "Biding", "RouteId": 8048, "SeqNo": 45, "Terminal": 0, "DistrictId": 1, "Latitude": 22.627618, "Longitude": 120.379142, "IVRNo": 11352, "EXTVoiceNo": 11352, "traveltime": 0, "holidayTraveltime": 0}, {"Id": "2398", "pgp": 0, "GoBack": 1, "SID": 19111, "NameZh": "Biding Police Station", "RouteId": 8048, "SeqNo": 46, "Terminal": 0, "DistrictId": 1, "Latitude": 22.628264, "Longitude": 120.380566, "IVRNo": 32398, "EXTVoiceNo": 32398, "traveltime": 0, "holidayTraveltime": 0}, {"Id": "0149", "pgp": 0, "GoBack": 1, "SID": 11888, "NameZh": "Jhongjhuang", "RouteId": 8048, "SeqNo": 47, "Terminal": 0, "DistrictId": 1, "Latitude": 22.63079, "Longitude": 120.38462, "IVRNo": 10290, "EXTVoiceNo": 20149, "traveltime": 0, "holidayTraveltime": 0}, {"Id": "0805", "pgp": 0, "GoBack": 1, "SID": 11889, "NameZh": "Sin Guang Senior High School (Fongbing 1st Rd.)", "RouteId": 8048, "SeqNo": 48, "Terminal": 0, "DistrictId": 1, "Latitude": 22.634611, "Longitude": 120.390272, "IVRNo": 41, "EXTVoiceNo": 805, "traveltime": 0, "holidayTraveltime": 0}, {"Id": "0472", "pgp": 0, "GoBack": 1, "SID": 11890, "NameZh": "Houjhuang Farmers` Association", "RouteId": 8048, "SeqNo": 49, "Terminal": 0, "DistrictId": 1, "Latitude": 22.63621, "Longitude": 120.392771, "IVRNo": 472, "EXTVoiceNo": 472, "traveltime": 0, "holidayTraveltime": 0}, {"Id": "1094", "pgp": 0, "GoBack": 1, "SID": 11891, "NameZh": "Houjhuang (Fongping 1st Rd.)", "RouteId": 8048, "SeqNo": 50, "Terminal": 0, "DistrictId": 1, "Latitude": 22.63744, "Longitude": 120.394841, "IVRNo": 1094, "EXTVoiceNo": 1094, "traveltime": 0, "holidayTraveltime": 0}, {"Id": "1594", "pgp": 0, "GoBack": 1, "SID": 11892, "NameZh": "Cihhuei Hospital", "RouteId": 8048, "SeqNo": 51, "Terminal": 0, "DistrictId": 1, "Latitude": 22.638634, "Longitude": 120.398732, "IVRNo": 981, "EXTVoiceNo": 11594, "traveltime": 0, "holidayTraveltime": 0}, {"Id": "0776", "pgp": 0, "GoBack": 1, "SID": 11893, "NameZh": "Jiangshan Village Intersection", "RouteId": 8048, "SeqNo": 52, "Terminal": 0, "DistrictId": 1, "Latitude": 22.640104, "Longitude": 120.405314, "IVRNo": 980, "EXTVoiceNo": 10776, "traveltime": 0, "holidayTraveltime": 0}, {"Id": "0049", "pgp": 0, "GoBack": 1, "SID": 14502, "NameZh": "Jiangshan Village (Fongbing 2nd Rd.)", "RouteId": 8048, "SeqNo": 53, "Terminal": 0, "DistrictId": 1, "Latitude": 22.6407, "Longitude": 120.40863, "IVRNo": 929, "EXTVoiceNo": 49, "traveltime": 0, "holidayTraveltime": 0}, {"Id": "1890", "pgp": 0, "GoBack": 1, "SID": 11895, "NameZh": "Fongping 2nd Rd.", "RouteId": 8048, "SeqNo": 54, "Terminal": 0, "DistrictId": 1, "Latitude": 22.64145, "Longitude": 120.41353, "IVRNo": 11890, "EXTVoiceNo": 11890, "traveltime": 0, "holidayTraveltime": 0}, {"Id": "1961", "pgp": 0, "GoBack": 1, "SID": 11896, "NameZh": "Brick Kiln", "RouteId": 8048, "SeqNo": 55, "Terminal": 0, "DistrictId": 1, "Latitude": 22.64191, "Longitude": 120.417571, "IVRNo": 11961, "EXTVoiceNo": 11961, "traveltime": 0, "holidayTraveltime": 0}, {"Id": "0826", "pgp": 0, "GoBack": 1, "SID": 11897, "NameZh": "Sibingdong", "RouteId": 8048, "SeqNo": 56, "Terminal": 0, "DistrictId": 1, "Latitude": 22.65434, "Longitude": 120.46358, "IVRNo": 10826, "EXTVoiceNo": 10826, "traveltime": 0, "holidayTraveltime": 0}, {"Id": "1132", "pgp": 0, "GoBack": 1, "SID": 11898, "NameZh": "Jianguo Rd.", "RouteId": 8048, "SeqNo": 57, "Terminal": 0, "DistrictId": 1, "Latitude": 22.65823, "Longitude": 120.46806, "IVRNo": 11132, "EXTVoiceNo": 11132, "traveltime": 0, "holidayTraveltime": 0}, {"Id": "1030", "pgp": 0, "GoBack": 1, "SID": 11899, "NameZh": "Cing Guo Fruits Society", "RouteId": 8048, "SeqNo": 58, "Terminal": 0, "DistrictId": 1, "Latitude": 22.66135, "Longitude": 120.46988, "IVRNo": 11030, "EXTVoiceNo": 11030, "traveltime": 0, "holidayTraveltime": 0}, {"Id": "1150", "pgp": 0, "GoBack": 1, "SID": 11900, "NameZh": "Datong Elementary School", "RouteId": 8048, "SeqNo": 59, "Terminal": 0, "DistrictId": 1, "Latitude": 22.66513, "Longitude": 120.47565, "IVRNo": 10149, "EXTVoiceNo": 21150, "traveltime": 0, "holidayTraveltime": 0}, {"Id": "0983", "pgp": 0, "GoBack": 1, "SID": 11901, "NameZh": "Public Health Center", "RouteId": 8048, "SeqNo": 60, "Terminal": 0, "DistrictId": 1, "Latitude": 22.66493, "Longitude": 120.48212, "IVRNo": 32351, "EXTVoiceNo": 20983, "traveltime": 0, "holidayTraveltime": 0}, {"Id": "9022", "pgp": 0, "GoBack": 1, "SID": 11902, "NameZh": "Zihyou Rd. (Jianhua 1st St. Intersection)", "RouteId": 8048, "SeqNo": 61, "Terminal": 0, "DistrictId": 1, "Latitude": 22.66674, "Longitude": 120.48687, "IVRNo": 9022, "EXTVoiceNo": 9022, "traveltime": 0, "holidayTraveltime": 0}, {"Id": "2639", "pgp": 0, "GoBack": 1, "SID": 11903, "NameZh": "BingdongTelecom Office", "RouteId": 8048, "SeqNo": 62, "Terminal": 0, "DistrictId": 1, "Latitude": 22.670624, "Longitude": 120.489523, "IVRNo": 2639, "EXTVoiceNo": 2639, "traveltime": 0, "holidayTraveltime": 0}, {"Id": "9333", "pgp": 0, "GoBack": 1, "SID": 11904, "NameZh": "Fongjia Rd.", "RouteId": 8048, "SeqNo": 63, "Terminal": 1, "DistrictId": 1, "Latitude": 22.670659, "Longitude": 120.487335, "IVRNo": 8529, "EXTVoiceNo": 9333, "traveltime": 0, "holidayTraveltime": 0}, {"Id": "9333", "pgp": 0, "GoBack": 2, "SID": 8269, "NameZh": "Fongjia Rd.", "RouteId": 8048, "SeqNo": 1, "Terminal": 0, "DistrictId": 1, "Latitude": 22.67073, "Longitude": 120.48786, "IVRNo": 8529, "EXTVoiceNo": 9333, "traveltime": 0, "holidayTraveltime": 0}, {"Id": "2639", "pgp": 0, "GoBack": 2, "SID": 8270, "NameZh": "BingdongTelecom Office", "RouteId": 8048, "SeqNo": 2, "Terminal": 0, "DistrictId": 1, "Latitude": 22.670624, "Longitude": 120.489663, "IVRNo": 2639, "EXTVoiceNo": 2639, "traveltime": 0, "holidayTraveltime": 0}, {"Id": "9022", "pgp": 0, "GoBack": 2, "SID": 8271, "NameZh": "Zihyou Rd. (Jianhua 1st St. Intersection)", "RouteId": 8048, "SeqNo": 3, "Terminal": 0, "DistrictId": 1, "Latitude": 22.66687, "Longitude": 120.48669, "IVRNo": 9022, "EXTVoiceNo": 9022, "traveltime": 0, "holidayTraveltime": 0}, {"Id": "0983", "pgp": 0, "GoBack": 2, "SID": 8272, "NameZh": "Public Health Center", "RouteId": 8048, "SeqNo": 4, "Terminal": 0, "DistrictId": 1, "Latitude": 22.665058, "Longitude": 120.482134, "IVRNo": 32351, "EXTVoiceNo": 20983, "traveltime": 0, "holidayTraveltime": 0}, {"Id": "1150", "pgp": 0, "GoBack": 2, "SID": 8273, "NameZh": "Datong Elementary School", "RouteId": 8048, "SeqNo": 5, "Terminal": 0, "DistrictId": 1, "Latitude": 22.66535, "Longitude": 120.47653, "IVRNo": 10149, "EXTVoiceNo": 21150, "traveltime": 0, "holidayTraveltime": 0}, {"Id": "1030", "pgp": 0, "GoBack": 2, "SID": 8274, "NameZh": "Cing Guo Fruits Society", "RouteId": 8048, "SeqNo": 6, "Terminal": 0, "DistrictId": 1, "Latitude": 22.661444, "Longitude": 120.469753, "IVRNo": 11030, "EXTVoiceNo": 11030, "traveltime": 0, "holidayTraveltime": 0}, {"Id": "1132", "pgp": 0, "GoBack": 2, "SID": 8279, "NameZh": "Jianguo Rd.", "RouteId": 8048, "SeqNo": 7, "Terminal": 0, "DistrictId": 1, "Latitude": 22.65835, "Longitude": 120.46792, "IVRNo": 11132, "EXTVoiceNo": 11132, "traveltime": 0, "holidayTraveltime": 0}, {"Id": "0826", "pgp": 0, "GoBack": 2, "SID": 8280, "NameZh": "Sibingdong", "RouteId": 8048, "SeqNo": 8, "Terminal": 0, "DistrictId": 1, "Latitude": 22.65452, "Longitude": 120.46307, "IVRNo": 10826, "EXTVoiceNo": 10826, "traveltime": 0, "holidayTraveltime": 0}, {"Id": "1961", "pgp": 0, "GoBack": 2, "SID": 8281, "NameZh": "Brick Kiln", "RouteId": 8048, "SeqNo": 9, "Terminal": 0, "DistrictId": 1, "Latitude": 22.64217, "Longitude": 120.417267, "IVRNo": 11961, "EXTVoiceNo": 11961, "traveltime": 0, "holidayTraveltime": 0}, {"Id": "1890", "pgp": 0, "GoBack": 2, "SID": 8282, "NameZh": "Fongping 2nd Rd.", "RouteId": 8048, "SeqNo": 10, "Terminal": 0, "DistrictId": 1, "Latitude": 22.64171, "Longitude": 120.41343, "IVRNo": 11890, "EXTVoiceNo": 11890, "traveltime": 0, "holidayTraveltime": 0}, {"Id": "0049", "pgp": 0, "GoBack": 2, "SID": 14625, "NameZh": "Jiangshan Village (Fongbing 2nd Rd.)", "RouteId": 8048, "SeqNo": 11, "Terminal": 0, "DistrictId": 1, "Latitude": 22.64098, "Longitude": 120.4087, "IVRNo": 929, "EXTVoiceNo": 49, "traveltime": 0, "holidayTraveltime": 0}, {"Id": "0776", "pgp": 0, "GoBack": 2, "SID": 8289, "NameZh": "Jiangshan Village Intersection", "RouteId": 8048, "SeqNo": 12, "Terminal": 0, "DistrictId": 1, "Latitude": 22.640236, "Longitude": 120.404729, "IVRNo": 980, "EXTVoiceNo": 10776, "traveltime": 0, "holidayTraveltime": 0}, {"Id": "1594", "pgp": 0, "GoBack": 2, "SID": 8290, "NameZh": "Cihhuei Hospital", "RouteId": 8048, "SeqNo": 13, "Terminal": 0, "DistrictId": 1, "Latitude": 22.63872, "Longitude": 120.39749, "IVRNo": 981, "EXTVoiceNo": 11594, "traveltime": 0, "holidayTraveltime": 0}, {"Id": "1094", "pgp": 0, "GoBack": 2, "SID": 8291, "NameZh": "Houjhuang (Fongping 1st Rd.)", "RouteId": 8048, "SeqNo": 14, "Terminal": 0, "DistrictId": 1, "Latitude": 22.6374, "Longitude": 120.394219, "IVRNo": 1094, "EXTVoiceNo": 1094, "traveltime": 0, "holidayTraveltime": 0}, {"Id": "0472", "pgp": 0, "GoBack": 2, "SID": 8297, "NameZh": "Houjhuang Farmers` Association", "RouteId": 8048, "SeqNo": 15, "Terminal": 0, "DistrictId": 1, "Latitude": 22.63639, "Longitude": 120.392369, "IVRNo": 472, "EXTVoiceNo": 472, "traveltime": 0, "holidayTraveltime": 0}, {"Id": "0805", "pgp": 0, "GoBack": 2, "SID": 8298, "NameZh": "Sin Guang Senior High School (Fongbing 1st Rd.)", "RouteId": 8048, "SeqNo": 16, "Terminal": 0, "DistrictId": 1, "Latitude": 22.634709, "Longitude": 120.389868, "IVRNo": 41, "EXTVoiceNo": 805, "traveltime": 0, "holidayTraveltime": 0}, {"Id": "0149", "pgp": 0, "GoBack": 2, "SID": 8299, "NameZh": "Jhongjhuang", "RouteId": 8048, "SeqNo": 17, "Terminal": 0, "DistrictId": 1, "Latitude": 22.630887, "Longitude": 120.384057, "IVRNo": 10290, "EXTVoiceNo": 20149, "traveltime": 0, "holidayTraveltime": 0}, {"Id": "2398", "pgp": 0, "GoBack": 2, "SID": 19112, "NameZh": "Biding Police Station", "RouteId": 8048, "SeqNo": 18, "Terminal": 0, "DistrictId": 1, "Latitude": 22.628503, "Longitude": 120.380583, "IVRNo": 32398, "EXTVoiceNo": 32398, "traveltime": 0, "holidayTraveltime": 0}, {"Id": "1352", "pgp": 0, "GoBack": 2, "SID": 8300, "NameZh": "Biding", "RouteId": 8048, "SeqNo": 19, "Terminal": 0, "DistrictId": 1, "Latitude": 22.627937, "Longitude": 120.379161, "IVRNo": 11352, "EXTVoiceNo": 11352, "traveltime": 0, "holidayTraveltime": 0}, {"Id": "0053", "pgp": 0, "GoBack": 2, "SID": 8301, "NameZh": "Shangbiding", "RouteId": 8048, "SeqNo": 20, "Terminal": 0, "DistrictId": 1, "Latitude": 22.62673, "Longitude": 120.37622, "IVRNo": 10116, "EXTVoiceNo": 20053, "traveltime": 0, "holidayTraveltime": 0}, {"Id": "0139", "pgp": 0, "GoBack": 2, "SID": 8302, "NameZh": "Jhongshan E. Rd.", "RouteId": 8048, "SeqNo": 21, "Terminal": 0, "DistrictId": 1, "Latitude": 22.6263, "Longitude": 120.37527, "IVRNo": 10264, "EXTVoiceNo": 20139, "traveltime": 0, "holidayTraveltime": 0}, {"Id": "4440", "pgp": 0, "GoBack": 2, "SID": 8303, "NameZh": "MRT Fongshan Junior High School Station (Chunghwa Post )", "RouteId": 8048, "SeqNo": 22, "Terminal": 0, "DistrictId": 1, "Latitude": 22.62451, "Longitude": 120.371346, "IVRNo": 158, "EXTVoiceNo": 4440, "traveltime": 0, "holidayTraveltime": 0}, {"Id": "0952", "pgp": 0, "GoBack": 2, "SID": 8304, "NameZh": "Dongmen", "RouteId": 8048, "SeqNo": 23, "Terminal": 0, "DistrictId": 1, "Latitude": 22.62362, "Longitude": 120.36919, "IVRNo": 159, "EXTVoiceNo": 10952, "traveltime": 0, "holidayTraveltime": 0}, {"Id": "1565", "pgp": 0, "GoBack": 2, "SID": 8305, "NameZh": "Huangpu New Village", "RouteId": 8048, "SeqNo": 24, "Terminal": 0, "DistrictId": 1, "Latitude": 22.62056, "Longitude": 120.36439, "IVRNo": 11565, "EXTVoiceNo": 11565, "traveltime": 0, "holidayTraveltime": 0}, {"Id": "0952", "pgp": 0, "GoBack": 2, "SID": 8306, "NameZh": "Fongshan Longshan Temple", "RouteId": 8048, "SeqNo": 25, "Terminal": 0, "DistrictId": 1, "Latitude": 22.621997, "Longitude": 120.359548, "IVRNo": 1183, "EXTVoiceNo": 20952, "traveltime": 0, "holidayTraveltime": 0}, {"Id": "0083", "pgp": 0, "GoBack": 2, "SID": 8307, "NameZh": "KBus Fongshan Station (Jhongshan Rd.)", "RouteId": 8048, "SeqNo": 26, "Terminal": 0, "DistrictId": 1, "Latitude": 22.624081, "Longitude": 120.356929, "IVRNo": 727, "EXTVoiceNo": 83, "traveltime": 0, "holidayTraveltime": 0}, {"Id": "9201", "pgp": 0, "GoBack": 2, "SID": 8308, "NameZh": "Caogong Rd.", "RouteId": 8048, "SeqNo": 27, "Terminal": 0, "DistrictId": 1, "Latitude": 22.628428, "Longitude": 120.357302, "IVRNo": 506, "EXTVoiceNo": 9201, "traveltime": 0, "holidayTraveltime": 0}, {"Id": "0505", "pgp": 0, "GoBack": 2, "SID": 8309, "NameZh": "Tongyi Market", "RouteId": 8048, "SeqNo": 28, "Terminal": 0, "DistrictId": 1, "Latitude": 22.62911, "Longitude": 120.35398, "IVRNo": 505, "EXTVoiceNo": 505, "traveltime": 0, "holidayTraveltime": 0}, {"Id": "4767", "pgp": 0, "GoBack": 2, "SID": 8310, "NameZh": "Chungshan Elementary School (Guangfu Rd.)", "RouteId": 8048, "SeqNo": 29, "Terminal": 0, "DistrictId": 1, "Latitude": 22.62921, "Longitude": 120.34991, "IVRNo": 523, "EXTVoiceNo": 4767, "traveltime": 0, "holidayTraveltime": 0}, {"Id": "0503", "pgp": 0, "GoBack": 2, "SID": 8311, "NameZh": "Women and Children Center", "RouteId": 8048, "SeqNo": 30, "Terminal": 0, "DistrictId": 1, "Latitude": 22.629388, "Longitude": 120.347773, "IVRNo": 503, "EXTVoiceNo": 503, "traveltime": 0, "holidayTraveltime": 0}, {"Id": "2498", "pgp": 0, "GoBack": 2, "SID": 17225, "NameZh": "Fongshan Administration Center (Chengcing Rd.)", "RouteId": 8048, "SeqNo": 31, "Terminal": 0, "DistrictId": 1, "Latitude": 22.63041, "Longitude": 120.34446, "IVRNo": 2498, "EXTVoiceNo": 2498, "traveltime": 0, "holidayTraveltime": 0}, {"Id": "9237", "pgp": 0, "GoBack": 2, "SID": 8313, "NameZh": "Jyuemin Rd. Intersection (Chengcing Rd)", "RouteId": 8048, "SeqNo": 32, "Terminal": 0, "DistrictId": 1, "Latitude": 22.63732, "Longitude": 120.34485, "IVRNo": 1015, "EXTVoiceNo": 9237, "traveltime": 0, "holidayTraveltime": 0}, {"Id": "3531", "pgp": 0, "GoBack": 2, "SID": 8314, "NameZh": "Chengcing Rd.", "RouteId": 8048, "SeqNo": 33, "Terminal": 0, "DistrictId": 1, "Latitude": 22.64287, "Longitude": 120.34617, "IVRNo": 3531, "EXTVoiceNo": 3531, "traveltime": 0, "holidayTraveltime": 0}, {"Id": "3532", "pgp": 0, "GoBack": 2, "SID": 8315, "NameZh": "Dahua Village", "RouteId": 8048, "SeqNo": 34, "Terminal": 0, "DistrictId": 1, "Latitude": 22.64695, "Longitude": 120.34697, "IVRNo": 3532, "EXTVoiceNo": 3532, "traveltime": 0, "holidayTraveltime": 0}, {"Id": "0636", "pgp": 0, "GoBack": 2, "SID": 8317, "NameZh": "Cheng Shiu University (Chengcing Lake)", "RouteId": 8048, "SeqNo": 35, "Terminal": 0, "DistrictId": 1, "Latitude": 22.65143, "Longitude": 120.34914, "IVRNo": 3533, "EXTVoiceNo": 10636, "traveltime": 0, "holidayTraveltime": 0}, {"Id": "3546", "pgp": 0, "GoBack": 2, "SID": 13258, "NameZh": "Chang Gung Rehabilitation buil Ding", "RouteId": 8048, "SeqNo": 36, "Terminal": 0, "DistrictId": 1, "Latitude": 22.650435, "Longitude": 120.353501, "IVRNo": 3546, "EXTVoiceNo": 3546, "traveltime": 0, "holidayTraveltime": 0}, {"Id": "3534", "pgp": 0, "GoBack": 2, "SID": 8318, "NameZh": "Chang Gung Memorial Hospital", "RouteId": 8048, "SeqNo": 37, "Terminal": 0, "DistrictId": 1, "Latitude": 22.651086, "Longitude": 120.356267, "IVRNo": 3534, "EXTVoiceNo": 3534, "traveltime": 0, "holidayTraveltime": 0}, {"Id": "1912", "pgp": 0, "GoBack": 2, "SID": 10739, "NameZh": "Chengcing Lake Baseball Field", "RouteId": 8048, "SeqNo": 38, "Terminal": 0, "DistrictId": 1, "Latitude": 22.6558, "Longitude": 120.36001, "IVRNo": 11912, "EXTVoiceNo": 11912, "traveltime": 0, "holidayTraveltime": 0}, {"Id": "3537", "pgp": 0, "GoBack": 2, "SID": 13298, "NameZh": "Jhongcheng Rd. Intersection", "RouteId": 8048, "SeqNo": 39, "Terminal": 0, "DistrictId": 1, "Latitude": 22.658067, "Longitude": 120.360974, "IVRNo": 864, "EXTVoiceNo": 3537, "traveltime": 0, "holidayTraveltime": 0}, {"Id": "7114", "pgp": 0, "GoBack": 2, "SID": 10769, "NameZh": "Niaosong District Office (Jhongjheng Rd.)", "RouteId": 8048, "SeqNo": 40, "Terminal": 0, "DistrictId": 1, "Latitude": 22.65969, "Longitude": 120.3643, "IVRNo": 4332, "EXTVoiceNo": 17114, "traveltime": 0, "holidayTraveltime": 0}, {"Id": "3370", "pgp": 0, "GoBack": 2, "SID": 8375, "NameZh": "Niaosong", "RouteId": 8048, "SeqNo": 41, "Terminal": 0, "DistrictId": 1, "Latitude": 22.66286, "Longitude": 120.36361, "IVRNo": 1463, "EXTVoiceNo": 13370, "traveltime": 0, "holidayTraveltime": 0}, {"Id": "9246", "pgp": 0, "GoBack": 2, "SID": 8376, "NameZh": "Mengli Village", "RouteId": 8048, "SeqNo": 42, "Terminal": 0, "DistrictId": 1, "Latitude": 22.66743, "Longitude": 120.3628, "IVRNo": 9245, "EXTVoiceNo": 9246, "traveltime": 0, "holidayTraveltime": 0}, {"Id": "0024", "pgp": 0, "GoBack": 2, "SID": 11819, "NameZh": "Shihjiouwan", "RouteId": 8048, "SeqNo": 43, "Terminal": 0, "DistrictId": 1, "Latitude": 22.67097, "Longitude": 120.36138, "IVRNo": 4835, "EXTVoiceNo": 20024, "traveltime": 0, "holidayTraveltime": 0}, {"Id": "3335", "pgp": 0, "GoBack": 2, "SID": 11820, "NameZh": "Kaotan", "RouteId": 8048, "SeqNo": 44, "Terminal": 0, "DistrictId": 1, "Latitude": 22.67702, "Longitude": 120.35811, "IVRNo": 8938, "EXTVoiceNo": 13335, "traveltime": 0, "holidayTraveltime": 0}, {"Id": "5272", "pgp": 0, "GoBack": 2, "SID": 11821, "NameZh": "Wanzihnei (Renwu)", "RouteId": 8048, "SeqNo": 45, "Terminal": 0, "DistrictId": 1, "Latitude": 22.68149, "Longitude": 120.3556, "IVRNo": 5272, "EXTVoiceNo": 5272, "traveltime": 0, "holidayTraveltime": 0}, {"Id": "0371", "pgp": 0, "GoBack": 2, "SID": 11822, "NameZh": "Minghu Community", "RouteId": 8048, "SeqNo": 46, "Terminal": 0, "DistrictId": 1, "Latitude": 22.68667, "Longitude": 120.35278, "IVRNo": 8961, "EXTVoiceNo": 20371, "traveltime": 0, "holidayTraveltime": 0}, {"Id": "1096", "pgp": 0, "GoBack": 2, "SID": 11823, "NameZh": "Sinjhuang (Fongren Rd.)", "RouteId": 8048, "SeqNo": 47, "Terminal": 0, "DistrictId": 1, "Latitude": 22.69301, "Longitude": 120.34961, "IVRNo": 1096, "EXTVoiceNo": 1096, "traveltime": 0, "holidayTraveltime": 0}, {"Id": "0021", "pgp": 0, "GoBack": 2, "SID": 11824, "NameZh": "Bagua Liao", "RouteId": 8048, "SeqNo": 48, "Terminal": 0, "DistrictId": 1, "Latitude": 22.69605, "Longitude": 120.34825, "IVRNo": 837, "EXTVoiceNo": 20021, "traveltime": 0, "holidayTraveltime": 0}, {"Id": "7935", "pgp": 0, "GoBack": 2, "SID": 11825, "NameZh": "Tongfa Temple", "RouteId": 8048, "SeqNo": 49, "Terminal": 0, "DistrictId": 1, "Latitude": 22.69888, "Longitude": 120.34682, "IVRNo": 986, "EXTVoiceNo": 7935, "traveltime": 0, "holidayTraveltime": 0}, {"Id": "7934", "pgp": 0, "GoBack": 2, "SID": 11827, "NameZh": "Renwu District Office (Police Office)", "RouteId": 8048, "SeqNo": 50, "Terminal": 0, "DistrictId": 1, "Latitude": 22.70142, "Longitude": 120.34849, "IVRNo": 7934, "EXTVoiceNo": 7934, "traveltime": 0, "holidayTraveltime": 0}, {"Id": "0183", "pgp": 0, "GoBack": 2, "SID": 11828, "NameZh": "Renwu Village", "RouteId": 8048, "SeqNo": 51, "Terminal": 0, "DistrictId": 1, "Latitude": 22.70242, "Longitude": 120.35219, "IVRNo": 7948, "EXTVoiceNo": 20183, "traveltime": 0, "holidayTraveltime": 0}, {"Id": "8984", "pgp": 0, "GoBack": 2, "SID": 6077, "NameZh": "Wunwu Village", "RouteId": 8048, "SeqNo": 52, "Terminal": 0, "DistrictId": 1, "Latitude": 22.703769, "Longitude": 120.353802, "IVRNo": 447, "EXTVoiceNo": 8984, "traveltime": 0, "holidayTraveltime": 0}, {"Id": "1303", "pgp": 0, "GoBack": 2, "SID": 11830, "NameZh": "Anle 1st St. Intersection", "RouteId": 8048, "SeqNo": 53, "Terminal": 0, "DistrictId": 1, "Latitude": 22.709321, "Longitude": 120.353203, "IVRNo": 1303, "EXTVoiceNo": 1303, "traveltime": 0, "holidayTraveltime": 0}, {"Id": "7950", "pgp": 0, "GoBack": 2, "SID": 11831, "NameZh": "Houjhuang (Jhongjheng Rd.)", "RouteId": 8048, "SeqNo": 54, "Terminal": 0, "DistrictId": 1, "Latitude": 22.71468, "Longitude": 120.35215, "IVRNo": 471, "EXTVoiceNo": 7950, "traveltime": 0, "holidayTraveltime": 0}, {"Id": "2613", "pgp": 0, "GoBack": 2, "SID": 6075, "NameZh": "Jhongren Rd. Intersection", "RouteId": 8048, "SeqNo": 55, "Terminal": 0, "DistrictId": 1, "Latitude": 22.717583, "Longitude": 120.351268, "IVRNo": 7913, "EXTVoiceNo": 2613, "traveltime": 0, "holidayTraveltime": 0}, {"Id": "7930", "pgp": 0, "GoBack": 2, "SID": 11833, "NameZh": "Linzihbian", "RouteId": 8048, "SeqNo": 56, "Terminal": 0, "DistrictId": 1, "Latitude": 22.72231, "Longitude": 120.35043, "IVRNo": 968, "EXTVoiceNo": 7930, "traveltime": 0, "holidayTraveltime": 0}, {"Id": "7929", "pgp": 0, "GoBack": 2, "SID": 11834, "NameZh": "Sannai Village", "RouteId": 8048, "SeqNo": 57, "Terminal": 0, "DistrictId": 1, "Latitude": 22.72695, "Longitude": 120.34843, "IVRNo": 842, "EXTVoiceNo": 7929, "traveltime": 0, "holidayTraveltime": 0}, {"Id": "0088", "pgp": 0, "GoBack": 2, "SID": 11835, "NameZh": "Dashe Farmers` Association", "RouteId": 8048, "SeqNo": 58, "Terminal": 0, "DistrictId": 1, "Latitude": 22.7296, "Longitude": 120.34682, "IVRNo": 173, "EXTVoiceNo": 20088, "traveltime": 0, "holidayTraveltime": 0}, {"Id": "1139", "pgp": 0, "GoBack": 2, "SID": 11836, "NameZh": "Sanjhong Rd. Intersection (Sanmin Rd.)", "RouteId": 8048, "SeqNo": 59, "Terminal": 0, "DistrictId": 1, "Latitude": 22.73076, "Longitude": 120.34332, "IVRNo": 1139, "EXTVoiceNo": 1139, "traveltime": 0, "holidayTraveltime": 0}, {"Id": "0318", "pgp": 0, "GoBack": 2, "SID": 11837, "NameZh": "Waipu (Nanzih)", "RouteId": 8048, "SeqNo": 60, "Terminal": 0, "DistrictId": 1, "Latitude": 22.73141, "Longitude": 120.33711, "IVRNo": 318, "EXTVoiceNo": 318, "traveltime": 0, "holidayTraveltime": 0}, {"Id": "7111", "pgp": 0, "GoBack": 2, "SID": 11838, "NameZh": "Kaohsiung Juvenile Court", "RouteId": 8048, "SeqNo": 61, "Terminal": 0, "DistrictId": 1, "Latitude": 22.73102, "Longitude": 120.33527, "IVRNo": 7111, "EXTVoiceNo": 7111, "traveltime": 0, "holidayTraveltime": 0}, {"Id": "8046", "pgp": 0, "GoBack": 2, "SID": 11839, "NameZh": "Nanzih Rd. Intersection", "RouteId": 8048, "SeqNo": 62, "Terminal": 0, "DistrictId": 1, "Latitude": 22.72831, "Longitude": 120.33032, "IVRNo": 32360, "EXTVoiceNo": 8046, "traveltime": 0, "holidayTraveltime": 0}, {"Id": "1678", "pgp": 0, "GoBack": 2, "SID": 11840, "NameZh": "Nanzih Station", "RouteId": 8048, "SeqNo": 63, "Terminal": 0, "DistrictId": 1, "Latitude": 22.72661, "Longitude": 120.32494, "IVRNo": 39, "EXTVoiceNo": 1678, "traveltime": 0, "holidayTraveltime": 0}, {"Id": "1283", "pgp": 0, "GoBack": 2, "SID": 5464, "NameZh": "MRT Metropolitan Park Station", "RouteId": 8048, "SeqNo": 64, "Terminal": 1, "DistrictId": 1, "Latitude": 22.7303, "Longitude": 120.32088, "IVRNo": 1283, "EXTVoiceNo": 1283, "traveltime": 0, "holidayTraveltime": 0}], "zh": [{"Id": "1283", "pgp": 0, "GoBack": 1, "SID": 5132, "NameZh": "\u6377\u904b\u90fd\u6703\u516c\u5712\u7ad9", "RouteId": 8048, "SeqNo": 1, "Terminal": 0, "DistrictId": 1, "Latitude": 22.729596, "Longitude": 120.320741, "IVRNo": 1283, "EXTVoiceNo": 1283, "traveltime": 0, "holidayTraveltime": 0}, {"Id": "1678", "pgp": 0, "GoBack": 1, "SID": 11843, "NameZh": "\u6960\u6893\u7ad9", "RouteId": 8048, "SeqNo": 2, "Terminal": 0, "DistrictId": 1, "Latitude": 22.72666, "Longitude": 120.32506, "IVRNo": 39, "EXTVoiceNo": 1678, "traveltime": 0, "holidayTraveltime": 0}, {"Id": "8046", "pgp": 0, "GoBack": 1, "SID": 11844, "NameZh": "\u6960\u6893\u8def\u53e3", "RouteId": 8048, "SeqNo": 3, "Terminal": 0, "DistrictId": 1, "Latitude": 22.72816, "Longitude": 120.33033, "IVRNo": 32360, "EXTVoiceNo": 8046, "traveltime": 0, "holidayTraveltime": 0}, {"Id": "7111", "pgp": 0, "GoBack": 1, "SID": 11845, "NameZh": "\u9ad8\u96c4\u5c11\u5e74\u6cd5\u9662", "RouteId": 8048, "SeqNo": 4, "Terminal": 0, "DistrictId": 1, "Latitude": 22.73071, "Longitude": 120.33554, "IVRNo": 7111, "EXTVoiceNo": 7111, "traveltime": 0, "holidayTraveltime": 0}, {"Id": "0318", "pgp": 0, "GoBack": 1, "SID": 11846, "NameZh": "\u5916\u57d4(\u6960\u6893)", "RouteId": 8048, "SeqNo": 5, "Terminal": 0, "DistrictId": 1, "Latitude": 22.73123, "Longitude": 120.33742, "IVRNo": 318, "EXTVoiceNo": 318, "traveltime": 0, "holidayTraveltime": 0}, {"Id": "1139", "pgp": 0, "GoBack": 1, "SID": 11847, "NameZh": "\u4e09\u4e2d\u8def\u53e3(\u4e09\u6c11\u8def)", "RouteId": 8048, "SeqNo": 6, "Terminal": 0, "DistrictId": 1, "Latitude": 22.73073, "Longitude": 120.34312, "IVRNo": 1139, "EXTVoiceNo": 1139, "traveltime": 0, "holidayTraveltime": 0}, {"Id": "0088", "pgp": 0, "GoBack": 1, "SID": 11848, "NameZh": "\u5927\u793e\u8fb2\u6703", "RouteId": 8048, "SeqNo": 7, "Terminal": 0, "DistrictId": 1, "Latitude": 22.72951, "Longitude": 120.34685, "IVRNo": 173, "EXTVoiceNo": 20088, "traveltime": 0, "holidayTraveltime": 0}, {"Id": "7929", "pgp": 0, "GoBack": 1, "SID": 11849, "NameZh": "\u4e09\u5976\u91cc", "RouteId": 8048, "SeqNo": 8, "Terminal": 0, "DistrictId": 1, "Latitude": 22.72721, "Longitude": 120.34846, "IVRNo": 842, "EXTVoiceNo": 7929, "traveltime": 0, "holidayTraveltime": 0}, {"Id": "7930", "pgp": 0, "GoBack": 1, "SID": 11850, "NameZh": "\u6797\u5b50\u908a", "RouteId": 8048, "SeqNo": 9, "Terminal": 0, "DistrictId": 1, "Latitude": 22.722312, "Longitude": 120.350326, "IVRNo": 968, "EXTVoiceNo": 7930, "traveltime": 0, "holidayTraveltime": 0}, {"Id": "2613", "pgp": 0, "GoBack": 1, "SID": 1860, "NameZh": "\u4e2d\u4ec1\u8def\u53e3", "RouteId": 8048, "SeqNo": 10, "Terminal": 0, "DistrictId": 1, "Latitude": 22.718457, "Longitude": 120.350927, "IVRNo": 7913, "EXTVoiceNo": 2613, "traveltime": 0, "holidayTraveltime": 0}, {"Id": "7950", "pgp": 0, "GoBack": 1, "SID": 11852, "NameZh": "\u5f8c\u5e84(\u4e2d\u6b63\u8def)", "RouteId": 8048, "SeqNo": 11, "Terminal": 0, "DistrictId": 1, "Latitude": 22.71502, "Longitude": 120.35194, "IVRNo": 471, "EXTVoiceNo": 7950, "traveltime": 0, "holidayTraveltime": 0}, {"Id": "1303", "pgp": 0, "GoBack": 1, "SID": 11853, "NameZh": "\u5b89\u6a02\u4e00\u8857\u53e3", "RouteId": 8048, "SeqNo": 12, "Terminal": 0, "DistrictId": 1, "Latitude": 22.7093, "Longitude": 120.35303, "IVRNo": 1303, "EXTVoiceNo": 1303, "traveltime": 0, "holidayTraveltime": 0}, {"Id": "8984", "pgp": 0, "GoBack": 1, "SID": 10613, "NameZh": "\u6587\u6b66\u91cc", "RouteId": 8048, "SeqNo": 13, "Terminal": 0, "DistrictId": 1, "Latitude": 22.70375, "Longitude": 120.35382, "IVRNo": 447, "EXTVoiceNo": 8984, "traveltime": 0, "holidayTraveltime": 0}, {"Id": "0183", "pgp": 0, "GoBack": 1, "SID": 11855, "NameZh": "\u4ec1\u6b66\u91cc", "RouteId": 8048, "SeqNo": 14, "Terminal": 0, "DistrictId": 1, "Latitude": 22.702511, "Longitude": 120.352165, "IVRNo": 7948, "EXTVoiceNo": 20183, "traveltime": 0, "holidayTraveltime": 0}, {"Id": "7934", "pgp": 0, "GoBack": 1, "SID": 11856, "NameZh": "\u4ec1\u6b66\u5340\u516c\u6240(\u6d3e\u51fa\u6240)", "RouteId": 8048, "SeqNo": 15, "Terminal": 0, "DistrictId": 1, "Latitude": 22.701663, "Longitude": 120.348439, "IVRNo": 7934, "EXTVoiceNo": 7934, "traveltime": 0, "holidayTraveltime": 0}, {"Id": "7935", "pgp": 0, "GoBack": 1, "SID": 11858, "NameZh": "\u901a\u6cd5\u5bfa", "RouteId": 8048, "SeqNo": 16, "Terminal": 0, "DistrictId": 1, "Latitude": 22.69887, "Longitude": 120.34652, "IVRNo": 986, "EXTVoiceNo": 7935, "traveltime": 0, "holidayTraveltime": 0}, {"Id": "0021", "pgp": 0, "GoBack": 1, "SID": 11859, "NameZh": "\u516b\u5366\u5bee", "RouteId": 8048, "SeqNo": 17, "Terminal": 0, "DistrictId": 1, "Latitude": 22.69632, "Longitude": 120.34789, "IVRNo": 837, "EXTVoiceNo": 20021, "traveltime": 0, "holidayTraveltime": 0}, {"Id": "1096", "pgp": 0, "GoBack": 1, "SID": 11860, "NameZh": "\u65b0\u5e84(\u9cf3\u4ec1\u8def)", "RouteId": 8048, "SeqNo": 18, "Terminal": 0, "DistrictId": 1, "Latitude": 22.69255, "Longitude": 120.34959, "IVRNo": 1096, "EXTVoiceNo": 1096, "traveltime": 0, "holidayTraveltime": 0}, {"Id": "0371", "pgp": 0, "GoBack": 1, "SID": 11861, "NameZh": "\u540d\u6e56\u793e\u5340", "RouteId": 8048, "SeqNo": 19, "Terminal": 0, "DistrictId": 1, "Latitude": 22.6866, "Longitude": 120.35266, "IVRNo": 8961, "EXTVoiceNo": 20371, "traveltime": 0, "holidayTraveltime": 0}, {"Id": "5272", "pgp": 0, "GoBack": 1, "SID": 11862, "NameZh": "\u7063\u5b50\u5167(\u4ec1\u6b66)", "RouteId": 8048, "SeqNo": 20, "Terminal": 0, "DistrictId": 1, "Latitude": 22.68112, "Longitude": 120.35545, "IVRNo": 5272, "EXTVoiceNo": 5272, "traveltime": 0, "holidayTraveltime": 0}, {"Id": "3335", "pgp": 0, "GoBack": 1, "SID": 11863, "NameZh": "\u62f7\u6f6d", "RouteId": 8048, "SeqNo": 21, "Terminal": 0, "DistrictId": 1, "Latitude": 22.67684, "Longitude": 120.35789, "IVRNo": 8938, "EXTVoiceNo": 13335, "traveltime": 0, "holidayTraveltime": 0}, {"Id": "0024", "pgp": 0, "GoBack": 1, "SID": 11864, "NameZh": "\u5341\u4e5d\u7063", "RouteId": 8048, "SeqNo": 22, "Terminal": 0, "DistrictId": 1, "Latitude": 22.67089, "Longitude": 120.3611, "IVRNo": 4835, "EXTVoiceNo": 20024, "traveltime": 0, "holidayTraveltime": 0}, {"Id": "9246", "pgp": 0, "GoBack": 1, "SID": 8406, "NameZh": "\u5922\u88e1\u91cc", "RouteId": 8048, "SeqNo": 23, "Terminal": 0, "DistrictId": 1, "Latitude": 22.66741, "Longitude": 120.36263, "IVRNo": 9245, "EXTVoiceNo": 9246, "traveltime": 0, "holidayTraveltime": 0}, {"Id": "3370", "pgp": 0, "GoBack": 1, "SID": 8407, "NameZh": "\u9ce5\u677e", "RouteId": 8048, "SeqNo": 24, "Terminal": 0, "DistrictId": 1, "Latitude": 22.66166, "Longitude": 120.36358, "IVRNo": 1463, "EXTVoiceNo": 13370, "traveltime": 0, "holidayTraveltime": 0}, {"Id": "7114", "pgp": 0, "GoBack": 1, "SID": 11867, "NameZh": "\u9ce5\u677e\u5340\u516c\u6240(\u4e2d\u6b63\u8def)", "RouteId": 8048, "SeqNo": 25, "Terminal": 0, "DistrictId": 1, "Latitude": 22.66013, "Longitude": 120.36381, "IVRNo": 4332, "EXTVoiceNo": 17114, "traveltime": 0, "holidayTraveltime": 0}, {"Id": "3537", "pgp": 0, "GoBack": 1, "SID": 2592, "NameZh": "\u5fe0\u8aa0\u8def\u53e3", "RouteId": 8048, "SeqNo": 26, "Terminal": 0, "DistrictId": 1, "Latitude": 22.658, "Longitude": 120.3609, "IVRNo": 864, "EXTVoiceNo": 3537, "traveltime": 0, "holidayTraveltime": 0}, {"Id": "1912", "pgp": 0, "GoBack": 1, "SID": 11868, "NameZh": "\u6f84\u6e05\u6e56\u68d2\u7403\u5834", "RouteId": 8048, "SeqNo": 27, "Terminal": 0, "DistrictId": 1, "Latitude": 22.65516, "Longitude": 120.35994, "IVRNo": 11912, "EXTVoiceNo": 11912, "traveltime": 0, "holidayTraveltime": 0}, {"Id": "3534", "pgp": 0, "GoBack": 1, "SID": 11869, "NameZh": "\u9577\u5e9a\u91ab\u9662", "RouteId": 8048, "SeqNo": 28, "Terminal": 0, "DistrictId": 1, "Latitude": 22.650933, "Longitude": 120.356409, "IVRNo": 3534, "EXTVoiceNo": 3534, "traveltime": 0, "holidayTraveltime": 0}, {"Id": "0636", "pgp": 0, "GoBack": 1, "SID": 11870, "NameZh": "\u6b63\u4fee\u79d1\u5927(\u6f84\u6e05\u6e56)", "RouteId": 8048, "SeqNo": 29, "Terminal": 0, "DistrictId": 1, "Latitude": 22.65152, "Longitude": 120.3487, "IVRNo": 3533, "EXTVoiceNo": 10636, "traveltime": 0, "holidayTraveltime": 0}, {"Id": "3532", "pgp": 0, "GoBack": 1, "SID": 11872, "NameZh": "\u5927\u83ef\u6751", "RouteId": 8048, "SeqNo": 30, "Terminal": 0, "DistrictId": 1, "Latitude": 22.64684, "Longitude": 120.34701, "IVRNo": 3532, "EXTVoiceNo": 3532, "traveltime": 0, "holidayTraveltime": 0}, {"Id": "3531", "pgp": 0, "GoBack": 1, "SID": 11873, "NameZh": "\u6f84\u6e05\u8def", "RouteId": 8048, "SeqNo": 31, "Terminal": 0, "DistrictId": 1, "Latitude": 22.64259, "Longitude": 120.34582, "IVRNo": 3531, "EXTVoiceNo": 3531, "traveltime": 0, "holidayTraveltime": 0}, {"Id": "9237", "pgp": 0, "GoBack": 1, "SID": 11874, "NameZh": "\u89ba\u6c11\u8def\u53e3(\u6f84\u6e05\u8def)", "RouteId": 8048, "SeqNo": 32, "Terminal": 0, "DistrictId": 1, "Latitude": 22.63794, "Longitude": 120.34452, "IVRNo": 1015, "EXTVoiceNo": 9237, "traveltime": 0, "holidayTraveltime": 0}, {"Id": "2498", "pgp": 0, "GoBack": 1, "SID": 17044, "NameZh": "\u9cf3\u5c71\u884c\u653f\u4e2d\u5fc3(\u6f84\u6e05\u8def)", "RouteId": 8048, "SeqNo": 33, "Terminal": 0, "DistrictId": 1, "Latitude": 22.63021, "Longitude": 120.34461, "IVRNo": 2498, "EXTVoiceNo": 2498, "traveltime": 0, "holidayTraveltime": 0}, {"Id": "0503", "pgp": 0, "GoBack": 1, "SID": 11876, "NameZh": "\u5a66\u5e7c\u9928", "RouteId": 8048, "SeqNo": 34, "Terminal": 0, "DistrictId": 1, "Latitude": 22.62929, "Longitude": 120.34777, "IVRNo": 503, "EXTVoiceNo": 503, "traveltime": 0, "holidayTraveltime": 0}, {"Id": "4767", "pgp": 0, "GoBack": 1, "SID": 11877, "NameZh": "\u4e2d\u5c71\u570b\u5c0f(\u5149\u5fa9\u8def)", "RouteId": 8048, "SeqNo": 35, "Terminal": 0, "DistrictId": 1, "Latitude": 22.62931, "Longitude": 120.34975, "IVRNo": 523, "EXTVoiceNo": 4767, "traveltime": 0, "holidayTraveltime": 0}, {"Id": "0505", "pgp": 0, "GoBack": 1, "SID": 11878, "NameZh": "\u901a\u76ca\u5e02\u5834", "RouteId": 8048, "SeqNo": 36, "Terminal": 0, "DistrictId": 1, "Latitude": 22.62922, "Longitude": 120.35308, "IVRNo": 505, "EXTVoiceNo": 505, "traveltime": 0, "holidayTraveltime": 0}, {"Id": "9201", "pgp": 0, "GoBack": 1, "SID": 11879, "NameZh": "\u66f9\u516c\u8def", "RouteId": 8048, "SeqNo": 37, "Terminal": 0, "DistrictId": 1, "Latitude": 22.62841, "Longitude": 120.35716, "IVRNo": 506, "EXTVoiceNo": 9201, "traveltime": 0, "holidayTraveltime": 0}, {"Id": "0083", "pgp": 0, "GoBack": 1, "SID": 11880, "NameZh": "\u9ad8\u96c4\u5ba2\u904b\u9cf3\u5c71\u7ad9(\u4e2d\u5c71\u8def)", "RouteId": 8048, "SeqNo": 38, "Terminal": 0, "DistrictId": 1, "Latitude": 22.62473, "Longitude": 120.356959, "IVRNo": 727, "EXTVoiceNo": 83, "traveltime": 0, "holidayTraveltime": 0}, {"Id": "0952", "pgp": 0, "GoBack": 1, "SID": 11881, "NameZh": "\u9cf3\u5c71\u9f8d\u5c71\u5bfa", "RouteId": 8048, "SeqNo": 39, "Terminal": 0, "DistrictId": 1, "Latitude": 22.62178, "Longitude": 120.35954, "IVRNo": 1183, "EXTVoiceNo": 20952, "traveltime": 0, "holidayTraveltime": 0}, {"Id": "1565", "pgp": 0, "GoBack": 1, "SID": 11882, "NameZh": "\u9ec3\u57d4\u65b0\u6751", "RouteId": 8048, "SeqNo": 40, "Terminal": 0, "DistrictId": 1, "Latitude": 22.62036, "Longitude": 120.36434, "IVRNo": 11565, "EXTVoiceNo": 11565, "traveltime": 0, "holidayTraveltime": 0}, {"Id": "0952", "pgp": 0, "GoBack": 1, "SID": 11883, "NameZh": "\u6771\u9580", "RouteId": 8048, "SeqNo": 41, "Terminal": 0, "DistrictId": 1, "Latitude": 22.623736, "Longitude": 120.36943, "IVRNo": 159, "EXTVoiceNo": 10952, "traveltime": 0, "holidayTraveltime": 0}, {"Id": "4440", "pgp": 0, "GoBack": 1, "SID": 11884, "NameZh": "\u6377\u904b\u9cf3\u5c71\u570b\u4e2d\u7ad9(\u90f5\u5c40)", "RouteId": 8048, "SeqNo": 42, "Terminal": 0, "DistrictId": 1, "Latitude": 22.624426, "Longitude": 120.371579, "IVRNo": 158, "EXTVoiceNo": 4440, "traveltime": 0, "holidayTraveltime": 0}, {"Id": "0139", "pgp": 0, "GoBack": 1, "SID": 11885, "NameZh": "\u4e2d\u5c71\u6771\u8def", "RouteId": 8048, "SeqNo": 43, "Terminal": 0, "DistrictId": 1, "Latitude": 22.62561, "Longitude": 120.37447, "IVRNo": 10264, "EXTVoiceNo": 20139, "traveltime": 0, "holidayTraveltime": 0}, {"Id": "0053", "pgp": 0, "GoBack": 1, "SID": 11886, "NameZh": "\u4e0a\u57e4\u9802", "RouteId": 8048, "SeqNo": 44, "Terminal": 0, "DistrictId": 1, "Latitude": 22.626503, "Longitude": 120.376326, "IVRNo": 10116, "EXTVoiceNo": 20053, "traveltime": 0, "holidayTraveltime": 0}, {"Id": "1352", "pgp": 0, "GoBack": 1, "SID": 11887, "NameZh": "\u57e4\u9802", "RouteId": 8048, "SeqNo": 45, "Terminal": 0, "DistrictId": 1, "Latitude": 22.627618, "Longitude": 120.379142, "IVRNo": 11352, "EXTVoiceNo": 11352, "traveltime": 0, "holidayTraveltime": 0}, {"Id": "2398", "pgp": 0, "GoBack": 1, "SID": 19111, "NameZh": "\u57e4\u9802\u6d3e\u51fa\u6240", "RouteId": 8048, "SeqNo": 46, "Terminal": 0, "DistrictId": 1, "Latitude": 22.628264, "Longitude": 120.380566, "IVRNo": 32398, "EXTVoiceNo": 32398, "traveltime": 0, "holidayTraveltime": 0}, {"Id": "0149", "pgp": 0, "GoBack": 1, "SID": 11888, "NameZh": "\u4e2d\u5e84", "RouteId": 8048, "SeqNo": 47, "Terminal": 0, "DistrictId": 1, "Latitude": 22.63079, "Longitude": 120.38462, "IVRNo": 10290, "EXTVoiceNo": 20149, "traveltime": 0, "holidayTraveltime": 0}, {"Id": "0805", "pgp": 0, "GoBack": 1, "SID": 11889, "NameZh": "\u65b0\u5149\u9ad8\u4e2d(\u9cf3\u5c4f\u4e00\u8def)", "RouteId": 8048, "SeqNo": 48, "Terminal": 0, "DistrictId": 1, "Latitude": 22.634611, "Longitude": 120.390272, "IVRNo": 41, "EXTVoiceNo": 805, "traveltime": 0, "holidayTraveltime": 0}, {"Id": "0472", "pgp": 0, "GoBack": 1, "SID": 11890, "NameZh": "\u5f8c\u5e84\u8fb2\u6703", "RouteId": 8048, "SeqNo": 49, "Terminal": 0, "DistrictId": 1, "Latitude": 22.63621, "Longitude": 120.392771, "IVRNo": 472, "EXTVoiceNo": 472, "traveltime": 0, "holidayTraveltime": 0}, {"Id": "1094", "pgp": 0, "GoBack": 1, "SID": 11891, "NameZh": "\u5f8c\u5e84(\u9cf3\u5c4f\u4e00\u8def)", "RouteId": 8048, "SeqNo": 50, "Terminal": 0, "DistrictId": 1, "Latitude": 22.63744, "Longitude": 120.394841, "IVRNo": 1094, "EXTVoiceNo": 1094, "traveltime": 0, "holidayTraveltime": 0}, {"Id": "1594", "pgp": 0, "GoBack": 1, "SID": 11892, "NameZh": "\u6148\u60e0\u91ab\u9662", "RouteId": 8048, "SeqNo": 51, "Terminal": 0, "DistrictId": 1, "Latitude": 22.638634, "Longitude": 120.398732, "IVRNo": 981, "EXTVoiceNo": 11594, "traveltime": 0, "holidayTraveltime": 0}, {"Id": "0776", "pgp": 0, "GoBack": 1, "SID": 11893, "NameZh": "\u6c5f\u5c71\u6751\u53e3", "RouteId": 8048, "SeqNo": 52, "Terminal": 0, "DistrictId": 1, "Latitude": 22.640104, "Longitude": 120.405314, "IVRNo": 980, "EXTVoiceNo": 10776, "traveltime": 0, "holidayTraveltime": 0}, {"Id": "0049", "pgp": 0, "GoBack": 1, "SID": 14502, "NameZh": "\u6c5f\u5c71\u91cc(\u9cf3\u5c4f\u4e8c\u8def)", "RouteId": 8048, "SeqNo": 53, "Terminal": 0, "DistrictId": 1, "Latitude": 22.6407, "Longitude": 120.40863, "IVRNo": 929, "EXTVoiceNo": 49, "traveltime": 0, "holidayTraveltime": 0}, {"Id": "1890", "pgp": 0, "GoBack": 1, "SID": 11895, "NameZh": "\u9cf3\u5c4f\u4e8c\u8def", "RouteId": 8048, "SeqNo": 54, "Terminal": 0, "DistrictId": 1, "Latitude": 22.64145, "Longitude": 120.41353, "IVRNo": 11890, "EXTVoiceNo": 11890, "traveltime": 0, "holidayTraveltime": 0}, {"Id": "1961", "pgp": 0, "GoBack": 1, "SID": 11896, "NameZh": "\u78da\u4ed4\u7aaf", "RouteId": 8048, "SeqNo": 55, "Terminal": 0, "DistrictId": 1, "Latitude": 22.64191, "Longitude": 120.417571, "IVRNo": 11961, "EXTVoiceNo": 11961, "traveltime": 0, "holidayTraveltime": 0}, {"Id": "0826", "pgp": 0, "GoBack": 1, "SID": 11897, "NameZh": "\u897f\u5c4f\u6771", "RouteId": 8048, "SeqNo": 56, "Terminal": 0, "DistrictId": 1, "Latitude": 22.65434, "Longitude": 120.46358, "IVRNo": 10826, "EXTVoiceNo": 10826, "traveltime": 0, "holidayTraveltime": 0}, {"Id": "1132", "pgp": 0, "GoBack": 1, "SID": 11898, "NameZh": "\u5efa\u570b\u8def", "RouteId": 8048, "SeqNo": 57, "Terminal": 0, "DistrictId": 1, "Latitude": 22.65823, "Longitude": 120.46806, "IVRNo": 11132, "EXTVoiceNo": 11132, "traveltime": 0, "holidayTraveltime": 0}, {"Id": "1030", "pgp": 0, "GoBack": 1, "SID": 11899, "NameZh": "\u9752\u679c\u793e", "RouteId": 8048, "SeqNo": 58, "Terminal": 0, "DistrictId": 1, "Latitude": 22.66135, "Longitude": 120.46988, "IVRNo": 11030, "EXTVoiceNo": 11030, "traveltime": 0, "holidayTraveltime": 0}, {"Id": "1150", "pgp": 0, "GoBack": 1, "SID": 11900, "NameZh": "\u5927\u540c\u570b\u5c0f", "RouteId": 8048, "SeqNo": 59, "Terminal": 0, "DistrictId": 1, "Latitude": 22.66513, "Longitude": 120.47565, "IVRNo": 10149, "EXTVoiceNo": 21150, "traveltime": 0, "holidayTraveltime": 0}, {"Id": "0983", "pgp": 0, "GoBack": 1, "SID": 11901, "NameZh": "\u885b\u751f\u6240", "RouteId": 8048, "SeqNo": 60, "Terminal": 0, "DistrictId": 1, "Latitude": 22.66493, "Longitude": 120.48212, "IVRNo": 32351, "EXTVoiceNo": 20983, "traveltime": 0, "holidayTraveltime": 0}, {"Id": "9022", "pgp": 0, "GoBack": 1, "SID": 11902, "NameZh": "\u81ea\u7531\u8def(\u5efa\u83ef\u4e00\u8857\u53e3)", "RouteId": 8048, "SeqNo": 61, "Terminal": 0, "DistrictId": 1, "Latitude": 22.66674, "Longitude": 120.48687, "IVRNo": 9022, "EXTVoiceNo": 9022, "traveltime": 0, "holidayTraveltime": 0}, {"Id": "2639", "pgp": 0, "GoBack": 1, "SID": 11903, "NameZh": "\u5c4f\u6771\u96fb\u4fe1\u5c40", "RouteId": 8048, "SeqNo": 62, "Terminal": 0, "DistrictId": 1, "Latitude": 22.670624, "Longitude": 120.489523, "IVRNo": 2639, "EXTVoiceNo": 2639, "traveltime": 0, "holidayTraveltime": 0}, {"Id": "9333", "pgp": 0, "GoBack": 1, "SID": 11904, "NameZh": "\u9022\u7532\u8def", "RouteId": 8048, "SeqNo": 63, "Terminal": 1, "DistrictId": 1, "Latitude": 22.670659, "Longitude": 120.487335, "IVRNo": 8529, "EXTVoiceNo": 9333, "traveltime": 0, "holidayTraveltime": 0}, {"Id": "9333", "pgp": 0, "GoBack": 2, "SID": 8269, "NameZh": "\u9022\u7532\u8def", "RouteId": 8048, "SeqNo": 1, "Terminal": 0, "DistrictId": 1, "Latitude": 22.67073, "Longitude": 120.48786, "IVRNo": 8529, "EXTVoiceNo": 9333, "traveltime": 0, "holidayTraveltime": 0}, {"Id": "2639", "pgp": 0, "GoBack": 2, "SID": 8270, "NameZh": "\u5c4f\u6771\u96fb\u4fe1\u5c40", "RouteId": 8048, "SeqNo": 2, "Terminal": 0, "DistrictId": 1, "Latitude": 22.670624, "Longitude": 120.489663, "IVRNo": 2639, "EXTVoiceNo": 2639, "traveltime": 0, "holidayTraveltime": 0}, {"Id": "9022", "pgp": 0, "GoBack": 2, "SID": 8271, "NameZh": "\u81ea\u7531\u8def(\u5efa\u83ef\u4e00\u8857\u53e3)", "RouteId": 8048, "SeqNo": 3, "Terminal": 0, "DistrictId": 1, "Latitude": 22.66687, "Longitude": 120.48669, "IVRNo": 9022, "EXTVoiceNo": 9022, "traveltime": 0, "holidayTraveltime": 0}, {"Id": "0983", "pgp": 0, "GoBack": 2, "SID": 8272, "NameZh": "\u885b\u751f\u6240", "RouteId": 8048, "SeqNo": 4, "Terminal": 0, "DistrictId": 1, "Latitude": 22.665058, "Longitude": 120.482134, "IVRNo": 32351, "EXTVoiceNo": 20983, "traveltime": 0, "holidayTraveltime": 0}, {"Id": "1150", "pgp": 0, "GoBack": 2, "SID": 8273, "NameZh": "\u5927\u540c\u570b\u5c0f", "RouteId": 8048, "SeqNo": 5, "Terminal": 0, "DistrictId": 1, "Latitude": 22.66535, "Longitude": 120.47653, "IVRNo": 10149, "EXTVoiceNo": 21150, "traveltime": 0, "holidayTraveltime": 0}, {"Id": "1030", "pgp": 0, "GoBack": 2, "SID": 8274, "NameZh": "\u9752\u679c\u793e", "RouteId": 8048, "SeqNo": 6, "Terminal": 0, "DistrictId": 1, "Latitude": 22.661444, "Longitude": 120.469753, "IVRNo": 11030, "EXTVoiceNo": 11030, "traveltime": 0, "holidayTraveltime": 0}, {"Id": "1132", "pgp": 0, "GoBack": 2, "SID": 8279, "NameZh": "\u5efa\u570b\u8def", "RouteId": 8048, "SeqNo": 7, "Terminal": 0, "DistrictId": 1, "Latitude": 22.65835, "Longitude": 120.46792, "IVRNo": 11132, "EXTVoiceNo": 11132, "traveltime": 0, "holidayTraveltime": 0}, {"Id": "0826", "pgp": 0, "GoBack": 2, "SID": 8280, "NameZh": "\u897f\u5c4f\u6771", "RouteId": 8048, "SeqNo": 8, "Terminal": 0, "DistrictId": 1, "Latitude": 22.65452, "Longitude": 120.46307, "IVRNo": 10826, "EXTVoiceNo": 10826, "traveltime": 0, "holidayTraveltime": 0}, {"Id": "1961", "pgp": 0, "GoBack": 2, "SID": 8281, "NameZh": "\u78da\u4ed4\u7aaf", "RouteId": 8048, "SeqNo": 9, "Terminal": 0, "DistrictId": 1, "Latitude": 22.64217, "Longitude": 120.417267, "IVRNo": 11961, "EXTVoiceNo": 11961, "traveltime": 0, "holidayTraveltime": 0}, {"Id": "1890", "pgp": 0, "GoBack": 2, "SID": 8282, "NameZh": "\u9cf3\u5c4f\u4e8c\u8def", "RouteId": 8048, "SeqNo": 10, "Terminal": 0, "DistrictId": 1, "Latitude": 22.64171, "Longitude": 120.41343, "IVRNo": 11890, "EXTVoiceNo": 11890, "traveltime": 0, "holidayTraveltime": 0}, {"Id": "0049", "pgp": 0, "GoBack": 2, "SID": 14625, "NameZh": "\u6c5f\u5c71\u91cc(\u9cf3\u5c4f\u4e8c\u8def)", "RouteId": 8048, "SeqNo": 11, "Terminal": 0, "DistrictId": 1, "Latitude": 22.64098, "Longitude": 120.4087, "IVRNo": 929, "EXTVoiceNo": 49, "traveltime": 0, "holidayTraveltime": 0}, {"Id": "0776", "pgp": 0, "GoBack": 2, "SID": 8289, "NameZh": "\u6c5f\u5c71\u6751\u53e3", "RouteId": 8048, "SeqNo": 12, "Terminal": 0, "DistrictId": 1, "Latitude": 22.640236, "Longitude": 120.404729, "IVRNo": 980, "EXTVoiceNo": 10776, "traveltime": 0, "holidayTraveltime": 0}, {"Id": "1594", "pgp": 0, "GoBack": 2, "SID": 8290, "NameZh": "\u6148\u60e0\u91ab\u9662", "RouteId": 8048, "SeqNo": 13, "Terminal": 0, "DistrictId": 1, "Latitude": 22.63872, "Longitude": 120.39749, "IVRNo": 981, "EXTVoiceNo": 11594, "traveltime": 0, "holidayTraveltime": 0}, {"Id": "1094", "pgp": 0, "GoBack": 2, "SID": 8291, "NameZh": "\u5f8c\u5e84(\u9cf3\u5c4f\u4e00\u8def)", "RouteId": 8048, "SeqNo": 14, "Terminal": 0, "DistrictId": 1, "Latitude": 22.6374, "Longitude": 120.394219, "IVRNo": 1094, "EXTVoiceNo": 1094, "traveltime": 0, "holidayTraveltime": 0}, {"Id": "0472", "pgp": 0, "GoBack": 2, "SID": 8297, "NameZh": "\u5f8c\u5e84\u8fb2\u6703", "RouteId": 8048, "SeqNo": 15, "Terminal": 0, "DistrictId": 1, "Latitude": 22.63639, "Longitude": 120.392369, "IVRNo": 472, "EXTVoiceNo": 472, "traveltime": 0, "holidayTraveltime": 0}, {"Id": "0805", "pgp": 0, "GoBack": 2, "SID": 8298, "NameZh": "\u65b0\u5149\u9ad8\u4e2d(\u9cf3\u5c4f\u4e00\u8def)", "RouteId": 8048, "SeqNo": 16, "Terminal": 0, "DistrictId": 1, "Latitude": 22.634709, "Longitude": 120.389868, "IVRNo": 41, "EXTVoiceNo": 805, "traveltime": 0, "holidayTraveltime": 0}, {"Id": "0149", "pgp": 0, "GoBack": 2, "SID": 8299, "NameZh": "\u4e2d\u5e84", "RouteId": 8048, "SeqNo": 17, "Terminal": 0, "DistrictId": 1, "Latitude": 22.630887, "Longitude": 120.384057, "IVRNo": 10290, "EXTVoiceNo": 20149, "traveltime": 0, "holidayTraveltime": 0}, {"Id": "2398", "pgp": 0, "GoBack": 2, "SID": 19112, "NameZh": "\u57e4\u9802\u6d3e\u51fa\u6240", "RouteId": 8048, "SeqNo": 18, "Terminal": 0, "DistrictId": 1, "Latitude": 22.628503, "Longitude": 120.380583, "IVRNo": 32398, "EXTVoiceNo": 32398, "traveltime": 0, "holidayTraveltime": 0}, {"Id": "1352", "pgp": 0, "GoBack": 2, "SID": 8300, "NameZh": "\u57e4\u9802", "RouteId": 8048, "SeqNo": 19, "Terminal": 0, "DistrictId": 1, "Latitude": 22.627937, "Longitude": 120.379161, "IVRNo": 11352, "EXTVoiceNo": 11352, "traveltime": 0, "holidayTraveltime": 0}, {"Id": "0053", "pgp": 0, "GoBack": 2, "SID": 8301, "NameZh": "\u4e0a\u57e4\u9802", "RouteId": 8048, "SeqNo": 20, "Terminal": 0, "DistrictId": 1, "Latitude": 22.62673, "Longitude": 120.37622, "IVRNo": 10116, "EXTVoiceNo": 20053, "traveltime": 0, "holidayTraveltime": 0}, {"Id": "0139", "pgp": 0, "GoBack": 2, "SID": 8302, "NameZh": "\u4e2d\u5c71\u6771\u8def", "RouteId": 8048, "SeqNo": 21, "Terminal": 0, "DistrictId": 1, "Latitude": 22.6263, "Longitude": 120.37527, "IVRNo": 10264, "EXTVoiceNo": 20139, "traveltime": 0, "holidayTraveltime": 0}, {"Id": "4440", "pgp": 0, "GoBack": 2, "SID": 8303, "NameZh": "\u6377\u904b\u9cf3\u5c71\u570b\u4e2d\u7ad9(\u90f5\u5c40)", "RouteId": 8048, "SeqNo": 22, "Terminal": 0, "DistrictId": 1, "Latitude": 22.62451, "Longitude": 120.371346, "IVRNo": 158, "EXTVoiceNo": 4440, "traveltime": 0, "holidayTraveltime": 0}, {"Id": "0952", "pgp": 0, "GoBack": 2, "SID": 8304, "NameZh": "\u6771\u9580", "RouteId": 8048, "SeqNo": 23, "Terminal": 0, "DistrictId": 1, "Latitude": 22.62362, "Longitude": 120.36919, "IVRNo": 159, "EXTVoiceNo": 10952, "traveltime": 0, "holidayTraveltime": 0}, {"Id": "1565", "pgp": 0, "GoBack": 2, "SID": 8305, "NameZh": "\u9ec3\u57d4\u65b0\u6751", "RouteId": 8048, "SeqNo": 24, "Terminal": 0, "DistrictId": 1, "Latitude": 22.62056, "Longitude": 120.36439, "IVRNo": 11565, "EXTVoiceNo": 11565, "traveltime": 0, "holidayTraveltime": 0}, {"Id": "0952", "pgp": 0, "GoBack": 2, "SID": 8306, "NameZh": "\u9cf3\u5c71\u9f8d\u5c71\u5bfa", "RouteId": 8048, "SeqNo": 25, "Terminal": 0, "DistrictId": 1, "Latitude": 22.621997, "Longitude": 120.359548, "IVRNo": 1183, "EXTVoiceNo": 20952, "traveltime": 0, "holidayTraveltime": 0}, {"Id": "0083", "pgp": 0, "GoBack": 2, "SID": 8307, "NameZh": "\u9ad8\u96c4\u5ba2\u904b\u9cf3\u5c71\u7ad9(\u4e2d\u5c71\u8def)", "RouteId": 8048, "SeqNo": 26, "Terminal": 0, "DistrictId": 1, "Latitude": 22.624081, "Longitude": 120.356929, "IVRNo": 727, "EXTVoiceNo": 83, "traveltime": 0, "holidayTraveltime": 0}, {"Id": "9201", "pgp": 0, "GoBack": 2, "SID": 8308, "NameZh": "\u66f9\u516c\u8def", "RouteId": 8048, "SeqNo": 27, "Terminal": 0, "DistrictId": 1, "Latitude": 22.628428, "Longitude": 120.357302, "IVRNo": 506, "EXTVoiceNo": 9201, "traveltime": 0, "holidayTraveltime": 0}, {"Id": "0505", "pgp": 0, "GoBack": 2, "SID": 8309, "NameZh": "\u901a\u76ca\u5e02\u5834", "RouteId": 8048, "SeqNo": 28, "Terminal": 0, "DistrictId": 1, "Latitude": 22.62911, "Longitude": 120.35398, "IVRNo": 505, "EXTVoiceNo": 505, "traveltime": 0, "holidayTraveltime": 0}, {"Id": "4767", "pgp": 0, "GoBack": 2, "SID": 8310, "NameZh": "\u4e2d\u5c71\u570b\u5c0f(\u5149\u5fa9\u8def)", "RouteId": 8048, "SeqNo": 29, "Terminal": 0, "DistrictId": 1, "Latitude": 22.62921, "Longitude": 120.34991, "IVRNo": 523, "EXTVoiceNo": 4767, "traveltime": 0, "holidayTraveltime": 0}, {"Id": "0503", "pgp": 0, "GoBack": 2, "SID": 8311, "NameZh": "\u5a66\u5e7c\u9928", "RouteId": 8048, "SeqNo": 30, "Terminal": 0, "DistrictId": 1, "Latitude": 22.629388, "Longitude": 120.347773, "IVRNo": 503, "EXTVoiceNo": 503, "traveltime": 0, "holidayTraveltime": 0}, {"Id": "2498", "pgp": 0, "GoBack": 2, "SID": 17225, "NameZh": "\u9cf3\u5c71\u884c\u653f\u4e2d\u5fc3(\u6f84\u6e05\u8def)", "RouteId": 8048, "SeqNo": 31, "Terminal": 0, "DistrictId": 1, "Latitude": 22.63041, "Longitude": 120.34446, "IVRNo": 2498, "EXTVoiceNo": 2498, "traveltime": 0, "holidayTraveltime": 0}, {"Id": "9237", "pgp": 0, "GoBack": 2, "SID": 8313, "NameZh": "\u89ba\u6c11\u8def\u53e3(\u6f84\u6e05\u8def)", "RouteId": 8048, "SeqNo": 32, "Terminal": 0, "DistrictId": 1, "Latitude": 22.63732, "Longitude": 120.34485, "IVRNo": 1015, "EXTVoiceNo": 9237, "traveltime": 0, "holidayTraveltime": 0}, {"Id": "3531", "pgp": 0, "GoBack": 2, "SID": 8314, "NameZh": "\u6f84\u6e05\u8def", "RouteId": 8048, "SeqNo": 33, "Terminal": 0, "DistrictId": 1, "Latitude": 22.64287, "Longitude": 120.34617, "IVRNo": 3531, "EXTVoiceNo": 3531, "traveltime": 0, "holidayTraveltime": 0}, {"Id": "3532", "pgp": 0, "GoBack": 2, "SID": 8315, "NameZh": "\u5927\u83ef\u6751", "RouteId": 8048, "SeqNo": 34, "Terminal": 0, "DistrictId": 1, "Latitude": 22.64695, "Longitude": 120.34697, "IVRNo": 3532, "EXTVoiceNo": 3532, "traveltime": 0, "holidayTraveltime": 0}, {"Id": "0636", "pgp": 0, "GoBack": 2, "SID": 8317, "NameZh": "\u6b63\u4fee\u79d1\u5927(\u6f84\u6e05\u6e56)", "RouteId": 8048, "SeqNo": 35, "Terminal": 0, "DistrictId": 1, "Latitude": 22.65143, "Longitude": 120.34914, "IVRNo": 3533, "EXTVoiceNo": 10636, "traveltime": 0, "holidayTraveltime": 0}, {"Id": "3546", "pgp": 0, "GoBack": 2, "SID": 13258, "NameZh": "\u9577\u5e9a\u5fa9\u5065\u5927\u6a13", "RouteId": 8048, "SeqNo": 36, "Terminal": 0, "DistrictId": 1, "Latitude": 22.650435, "Longitude": 120.353501, "IVRNo": 3546, "EXTVoiceNo": 3546, "traveltime": 0, "holidayTraveltime": 0}, {"Id": "3534", "pgp": 0, "GoBack": 2, "SID": 8318, "NameZh": "\u9577\u5e9a\u91ab\u9662", "RouteId": 8048, "SeqNo": 37, "Terminal": 0, "DistrictId": 1, "Latitude": 22.651086, "Longitude": 120.356267, "IVRNo": 3534, "EXTVoiceNo": 3534, "traveltime": 0, "holidayTraveltime": 0}, {"Id": "1912", "pgp": 0, "GoBack": 2, "SID": 10739, "NameZh": "\u6f84\u6e05\u6e56\u68d2\u7403\u5834", "RouteId": 8048, "SeqNo": 38, "Terminal": 0, "DistrictId": 1, "Latitude": 22.6558, "Longitude": 120.36001, "IVRNo": 11912, "EXTVoiceNo": 11912, "traveltime": 0, "holidayTraveltime": 0}, {"Id": "3537", "pgp": 0, "GoBack": 2, "SID": 13298, "NameZh": "\u5fe0\u8aa0\u8def\u53e3", "RouteId": 8048, "SeqNo": 39, "Terminal": 0, "DistrictId": 1, "Latitude": 22.658067, "Longitude": 120.360974, "IVRNo": 864, "EXTVoiceNo": 3537, "traveltime": 0, "holidayTraveltime": 0}, {"Id": "7114", "pgp": 0, "GoBack": 2, "SID": 10769, "NameZh": "\u9ce5\u677e\u5340\u516c\u6240(\u4e2d\u6b63\u8def)", "RouteId": 8048, "SeqNo": 40, "Terminal": 0, "DistrictId": 1, "Latitude": 22.65969, "Longitude": 120.3643, "IVRNo": 4332, "EXTVoiceNo": 17114, "traveltime": 0, "holidayTraveltime": 0}, {"Id": "3370", "pgp": 0, "GoBack": 2, "SID": 8375, "NameZh": "\u9ce5\u677e", "RouteId": 8048, "SeqNo": 41, "Terminal": 0, "DistrictId": 1, "Latitude": 22.66286, "Longitude": 120.36361, "IVRNo": 1463, "EXTVoiceNo": 13370, "traveltime": 0, "holidayTraveltime": 0}, {"Id": "9246", "pgp": 0, "GoBack": 2, "SID": 8376, "NameZh": "\u5922\u88e1\u91cc", "RouteId": 8048, "SeqNo": 42, "Terminal": 0, "DistrictId": 1, "Latitude": 22.66743, "Longitude": 120.3628, "IVRNo": 9245, "EXTVoiceNo": 9246, "traveltime": 0, "holidayTraveltime": 0}, {"Id": "0024", "pgp": 0, "GoBack": 2, "SID": 11819, "NameZh": "\u5341\u4e5d\u7063", "RouteId": 8048, "SeqNo": 43, "Terminal": 0, "DistrictId": 1, "Latitude": 22.67097, "Longitude": 120.36138, "IVRNo": 4835, "EXTVoiceNo": 20024, "traveltime": 0, "holidayTraveltime": 0}, {"Id": "3335", "pgp": 0, "GoBack": 2, "SID": 11820, "NameZh": "\u8003\u6f6d", "RouteId": 8048, "SeqNo": 44, "Terminal": 0, "DistrictId": 1, "Latitude": 22.67702, "Longitude": 120.35811, "IVRNo": 8938, "EXTVoiceNo": 13335, "traveltime": 0, "holidayTraveltime": 0}, {"Id": "5272", "pgp": 0, "GoBack": 2, "SID": 11821, "NameZh": "\u7063\u5b50\u5167(\u4ec1\u6b66)", "RouteId": 8048, "SeqNo": 45, "Terminal": 0, "DistrictId": 1, "Latitude": 22.68149, "Longitude": 120.3556, "IVRNo": 5272, "EXTVoiceNo": 5272, "traveltime": 0, "holidayTraveltime": 0}, {"Id": "0371", "pgp": 0, "GoBack": 2, "SID": 11822, "NameZh": "\u540d\u6e56\u793e\u5340", "RouteId": 8048, "SeqNo": 46, "Terminal": 0, "DistrictId": 1, "Latitude": 22.68667, "Longitude": 120.35278, "IVRNo": 8961, "EXTVoiceNo": 20371, "traveltime": 0, "holidayTraveltime": 0}, {"Id": "1096", "pgp": 0, "GoBack": 2, "SID": 11823, "NameZh": "\u65b0\u5e84(\u9cf3\u4ec1\u8def)", "RouteId": 8048, "SeqNo": 47, "Terminal": 0, "DistrictId": 1, "Latitude": 22.69301, "Longitude": 120.34961, "IVRNo": 1096, "EXTVoiceNo": 1096, "traveltime": 0, "holidayTraveltime": 0}, {"Id": "0021", "pgp": 0, "GoBack": 2, "SID": 11824, "NameZh": "\u516b\u5366\u5bee", "RouteId": 8048, "SeqNo": 48, "Terminal": 0, "DistrictId": 1, "Latitude": 22.69605, "Longitude": 120.34825, "IVRNo": 837, "EXTVoiceNo": 20021, "traveltime": 0, "holidayTraveltime": 0}, {"Id": "7935", "pgp": 0, "GoBack": 2, "SID": 11825, "NameZh": "\u901a\u6cd5\u5bfa", "RouteId": 8048, "SeqNo": 49, "Terminal": 0, "DistrictId": 1, "Latitude": 22.69888, "Longitude": 120.34682, "IVRNo": 986, "EXTVoiceNo": 7935, "traveltime": 0, "holidayTraveltime": 0}, {"Id": "7934", "pgp": 0, "GoBack": 2, "SID": 11827, "NameZh": "\u4ec1\u6b66\u5340\u516c\u6240(\u6d3e\u51fa\u6240)", "RouteId": 8048, "SeqNo": 50, "Terminal": 0, "DistrictId": 1, "Latitude": 22.70142, "Longitude": 120.34849, "IVRNo": 7934, "EXTVoiceNo": 7934, "traveltime": 0, "holidayTraveltime": 0}, {"Id": "0183", "pgp": 0, "GoBack": 2, "SID": 11828, "NameZh": "\u4ec1\u6b66\u91cc", "RouteId": 8048, "SeqNo": 51, "Terminal": 0, "DistrictId": 1, "Latitude": 22.70242, "Longitude": 120.35219, "IVRNo": 7948, "EXTVoiceNo": 20183, "traveltime": 0, "holidayTraveltime": 0}, {"Id": "8984", "pgp": 0, "GoBack": 2, "SID": 6077, "NameZh": "\u6587\u6b66\u91cc", "RouteId": 8048, "SeqNo": 52, "Terminal": 0, "DistrictId": 1, "Latitude": 22.703769, "Longitude": 120.353802, "IVRNo": 447, "EXTVoiceNo": 8984, "traveltime": 0, "holidayTraveltime": 0}, {"Id": "1303", "pgp": 0, "GoBack": 2, "SID": 11830, "NameZh": "\u5b89\u6a02\u4e00\u8857\u53e3", "RouteId": 8048, "SeqNo": 53, "Terminal": 0, "DistrictId": 1, "Latitude": 22.709321, "Longitude": 120.353203, "IVRNo": 1303, "EXTVoiceNo": 1303, "traveltime": 0, "holidayTraveltime": 0}, {"Id": "7950", "pgp": 0, "GoBack": 2, "SID": 11831, "NameZh": "\u5f8c\u5e84(\u4e2d\u6b63\u8def)", "RouteId": 8048, "SeqNo": 54, "Terminal": 0, "DistrictId": 1, "Latitude": 22.71468, "Longitude": 120.35215, "IVRNo": 471, "EXTVoiceNo": 7950, "traveltime": 0, "holidayTraveltime": 0}, {"Id": "2613", "pgp": 0, "GoBack": 2, "SID": 6075, "NameZh": "\u4e2d\u4ec1\u8def\u53e3", "RouteId": 8048, "SeqNo": 55, "Terminal": 0, "DistrictId": 1, "Latitude": 22.717583, "Longitude": 120.351268, "IVRNo": 7913, "EXTVoiceNo": 2613, "traveltime": 0, "holidayTraveltime": 0}, {"Id": "7930", "pgp": 0, "GoBack": 2, "SID": 11833, "NameZh": "\u6797\u5b50\u908a", "RouteId": 8048, "SeqNo": 56, "Terminal": 0, "DistrictId": 1, "Latitude": 22.72231, "Longitude": 120.35043, "IVRNo": 968, "EXTVoiceNo": 7930, "traveltime": 0, "holidayTraveltime": 0}, {"Id": "7929", "pgp": 0, "GoBack": 2, "SID": 11834, "NameZh": "\u4e09\u5976\u91cc", "RouteId": 8048, "SeqNo": 57, "Terminal": 0, "DistrictId": 1, "Latitude": 22.72695, "Longitude": 120.34843, "IVRNo": 842, "EXTVoiceNo": 7929, "traveltime": 0, "holidayTraveltime": 0}, {"Id": "0088", "pgp": 0, "GoBack": 2, "SID": 11835, "NameZh": "\u5927\u793e\u8fb2\u6703", "RouteId": 8048, "SeqNo": 58, "Terminal": 0, "DistrictId": 1, "Latitude": 22.7296, "Longitude": 120.34682, "IVRNo": 173, "EXTVoiceNo": 20088, "traveltime": 0, "holidayTraveltime": 0}, {"Id": "1139", "pgp": 0, "GoBack": 2, "SID": 11836, "NameZh": "\u4e09\u4e2d\u8def\u53e3(\u4e09\u6c11\u8def)", "RouteId": 8048, "SeqNo": 59, "Terminal": 0, "DistrictId": 1, "Latitude": 22.73076, "Longitude": 120.34332, "IVRNo": 1139, "EXTVoiceNo": 1139, "traveltime": 0, "holidayTraveltime": 0}, {"Id": "0318", "pgp": 0, "GoBack": 2, "SID": 11837, "NameZh": "\u5916\u57d4(\u6960\u6893)", "RouteId": 8048, "SeqNo": 60, "Terminal": 0, "DistrictId": 1, "Latitude": 22.73141, "Longitude": 120.33711, "IVRNo": 318, "EXTVoiceNo": 318, "traveltime": 0, "holidayTraveltime": 0}, {"Id": "7111", "pgp": 0, "GoBack": 2, "SID": 11838, "NameZh": "\u9ad8\u96c4\u5c11\u5e74\u6cd5\u9662", "RouteId": 8048, "SeqNo": 61, "Terminal": 0, "DistrictId": 1, "Latitude": 22.73102, "Longitude": 120.33527, "IVRNo": 7111, "EXTVoiceNo": 7111, "traveltime": 0, "holidayTraveltime": 0}, {"Id": "8046", "pgp": 0, "GoBack": 2, "SID": 11839, "NameZh": "\u6960\u6893\u8def\u53e3", "RouteId": 8048, "SeqNo": 62, "Terminal": 0, "DistrictId": 1, "Latitude": 22.72831, "Longitude": 120.33032, "IVRNo": 32360, "EXTVoiceNo": 8046, "traveltime": 0, "holidayTraveltime": 0}, {"Id": "1678", "pgp": 0, "GoBack": 2, "SID": 11840, "NameZh": "\u6960\u6893\u7ad9", "RouteId": 8048, "SeqNo": 63, "Terminal": 0, "DistrictId": 1, "Latitude": 22.72661, "Longitude": 120.32494, "IVRNo": 39, "EXTVoiceNo": 1678, "traveltime": 0, "holidayTraveltime": 0}, {"Id": "1283", "pgp": 0, "GoBack": 2, "SID": 5464, "NameZh": "\u6377\u904b\u90fd\u6703\u516c\u5712\u7ad9", "RouteId": 8048, "SeqNo": 64, "Terminal": 1, "DistrictId": 1, "Latitude": 22.7303, "Longitude": 120.32088, "IVRNo": 1283, "EXTVoiceNo": 1283, "traveltime": 0, "holidayTraveltime": 0}]}