{"en": [{"Id": "0002", "pgp": 0, "GoBack": 1, "SID": 19, "NameZh": "Jianjun Station (MRT Weiwuying Station)", "RouteId": 50, "SeqNo": 1, "Terminal": 0, "DistrictId": 1, "Latitude": 22.624969, "Longitude": 120.343391, "IVRNo": 1, "EXTVoiceNo": 2, "traveltime": 0, "holidayTraveltime": 0}, {"Id": "0145", "pgp": 0, "GoBack": 1, "SID": 941, "NameZh": "Kaohsiung Armed Forces General Hospital (MRT Weiwuying Station)", "RouteId": 50, "SeqNo": 2, "Terminal": 0, "DistrictId": 1, "Latitude": 22.625427, "Longitude": 120.340362, "IVRNo": 51, "EXTVoiceNo": 145, "traveltime": 0, "holidayTraveltime": 0}, {"Id": "0003", "pgp": 0, "GoBack": 1, "SID": 3523, "NameZh": "Jhongjheng Senior High school", "RouteId": 50, "SeqNo": 3, "Terminal": 0, "DistrictId": 1, "Latitude": 22.626183, "Longitude": 120.338283, "IVRNo": 3, "EXTVoiceNo": 3, "traveltime": 0, "holidayTraveltime": 0}, {"Id": "0004", "pgp": 0, "GoBack": 1, "SID": 2638, "NameZh": "MRT Martial Arts Stadium Station", "RouteId": 50, "SeqNo": 4, "Terminal": 0, "DistrictId": 1, "Latitude": 22.627945, "Longitude": 120.332909, "IVRNo": 729, "EXTVoiceNo": 4, "traveltime": 0, "holidayTraveltime": 0}, {"Id": "0062", "pgp": 0, "GoBack": 1, "SID": 4504, "NameZh": "MRT Wukuaicuo Station (Jhongjheng 1st Rd.)", "RouteId": 50, "SeqNo": 5, "Terminal": 0, "DistrictId": 1, "Latitude": 22.629293, "Longitude": 120.328852, "IVRNo": 62, "EXTVoiceNo": 62, "traveltime": 0, "holidayTraveltime": 0}, {"Id": "0007", "pgp": 0, "GoBack": 1, "SID": 4543, "NameZh": "Dashun 1st Rd. Intersection", "RouteId": 50, "SeqNo": 6, "Terminal": 0, "DistrictId": 1, "Latitude": 22.629966, "Longitude": 120.3242, "IVRNo": 7, "EXTVoiceNo": 7, "traveltime": 0, "holidayTraveltime": 0}, {"Id": "0008", "pgp": 0, "GoBack": 1, "SID": 5401, "NameZh": "Wufu Jhongjheng Rd. Intersection", "RouteId": 50, "SeqNo": 7, "Terminal": 0, "DistrictId": 1, "Latitude": 22.629759, "Longitude": 120.32073, "IVRNo": 8, "EXTVoiceNo": 8, "traveltime": 0, "holidayTraveltime": 0}, {"Id": "6134", "pgp": 0, "GoBack": 1, "SID": 5882, "NameZh": "Kaohsiung Cultural Center (Wufu Junior High School Station)", "RouteId": 50, "SeqNo": 8, "Terminal": 0, "DistrictId": 1, "Latitude": 22.628794, "Longitude": 120.317774, "IVRNo": 9, "EXTVoiceNo": 26134, "traveltime": 0, "holidayTraveltime": 0}, {"Id": "0010", "pgp": 0, "GoBack": 1, "SID": 24, "NameZh": "Water Park", "RouteId": 50, "SeqNo": 9, "Terminal": 0, "DistrictId": 1, "Latitude": 22.627814, "Longitude": 120.31475, "IVRNo": 10, "EXTVoiceNo": 10, "traveltime": 0, "holidayTraveltime": 0}, {"Id": "0011", "pgp": 0, "GoBack": 1, "SID": 167, "NameZh": "The Lees Hotel", "RouteId": 50, "SeqNo": 10, "Terminal": 0, "DistrictId": 1, "Latitude": 22.627231, "Longitude": 120.313092, "IVRNo": 11, "EXTVoiceNo": 11, "traveltime": 0, "holidayTraveltime": 0}, {"Id": "0012", "pgp": 0, "GoBack": 1, "SID": 291, "NameZh": "Wufu Minciuan Rd. Intersection", "RouteId": 50, "SeqNo": 11, "Terminal": 0, "DistrictId": 1, "Latitude": 22.626164, "Longitude": 120.309906, "IVRNo": 12, "EXTVoiceNo": 12, "traveltime": 0, "holidayTraveltime": 0}, {"Id": "0013", "pgp": 0, "GoBack": 1, "SID": 413, "NameZh": "Kaohsiung Vocational High School of Commerce (Wufu 2nd Rd.)", "RouteId": 50, "SeqNo": 12, "Terminal": 0, "DistrictId": 1, "Latitude": 22.625475, "Longitude": 120.307814, "IVRNo": 13, "EXTVoiceNo": 13, "traveltime": 0, "holidayTraveltime": 0}, {"Id": "0014", "pgp": 0, "GoBack": 1, "SID": 558, "NameZh": "Sinsing Senior High School", "RouteId": 50, "SeqNo": 13, "Terminal": 0, "DistrictId": 1, "Latitude": 22.62475, "Longitude": 120.305681, "IVRNo": 14, "EXTVoiceNo": 14, "traveltime": 0, "holidayTraveltime": 0}, {"Id": "0015", "pgp": 0, "GoBack": 1, "SID": 724, "NameZh": "Shinkuchan (New Juejiang)", "RouteId": 50, "SeqNo": 14, "Terminal": 0, "DistrictId": 1, "Latitude": 22.623775, "Longitude": 120.302741, "IVRNo": 15, "EXTVoiceNo": 15, "traveltime": 0, "holidayTraveltime": 0}, {"Id": "0037", "pgp": 0, "GoBack": 1, "SID": 829, "NameZh": "Urban Spotlight (MRT Central Park Station)", "RouteId": 50, "SeqNo": 15, "Terminal": 0, "DistrictId": 1, "Latitude": 22.623033, "Longitude": 120.300356, "IVRNo": 37, "EXTVoiceNo": 37, "traveltime": 0, "holidayTraveltime": 0}, {"Id": "0036", "pgp": 0, "GoBack": 1, "SID": 920, "NameZh": "Talee Department Store", "RouteId": 50, "SeqNo": 16, "Terminal": 0, "DistrictId": 1, "Latitude": 22.621407, "Longitude": 120.295745, "IVRNo": 17, "EXTVoiceNo": 36, "traveltime": 0, "holidayTraveltime": 0}, {"Id": "0035", "pgp": 0, "GoBack": 1, "SID": 922, "NameZh": "Kaohsiung Municipal Girls` Senior High School (Love Pier)", "RouteId": 50, "SeqNo": 17, "Terminal": 0, "DistrictId": 1, "Latitude": 22.620769, "Longitude": 120.292092, "IVRNo": 35, "EXTVoiceNo": 35, "traveltime": 0, "holidayTraveltime": 0}, {"Id": "0019", "pgp": 0, "GoBack": 1, "SID": 934, "NameZh": "Dacheng St. Intersection (Love Pier)", "RouteId": 50, "SeqNo": 18, "Terminal": 0, "DistrictId": 1, "Latitude": 22.621217, "Longitude": 120.288447, "IVRNo": 19, "EXTVoiceNo": 19, "traveltime": 0, "holidayTraveltime": 0}, {"Id": "0421", "pgp": 0, "GoBack": 1, "SID": 944, "NameZh": "Dajhih Rd. Intersection (Wufu 4th Rd.)", "RouteId": 50, "SeqNo": 19, "Terminal": 0, "DistrictId": 1, "Latitude": 22.621956, "Longitude": 120.286964, "IVRNo": 421, "EXTVoiceNo": 421, "traveltime": 0, "holidayTraveltime": 0}, {"Id": "0423", "pgp": 0, "GoBack": 1, "SID": 2966, "NameZh": "MRT Yanchengpu Station (Wufu 4th Rd.)", "RouteId": 50, "SeqNo": 20, "Terminal": 0, "DistrictId": 1, "Latitude": 22.623031, "Longitude": 120.284753, "IVRNo": 426, "EXTVoiceNo": 423, "traveltime": 0, "holidayTraveltime": 0}, {"Id": "0021", "pgp": 0, "GoBack": 1, "SID": 12237, "NameZh": "Wufu Lainan St. Intersection", "RouteId": 50, "SeqNo": 21, "Terminal": 0, "DistrictId": 1, "Latitude": 22.623944, "Longitude": 120.282977, "IVRNo": 21, "EXTVoiceNo": 21, "traveltime": 0, "holidayTraveltime": 0}, {"Id": "0031", "pgp": 0, "GoBack": 1, "SID": 1375, "NameZh": "Jianguo 4th Rd. Intersection", "RouteId": 50, "SeqNo": 22, "Terminal": 0, "DistrictId": 1, "Latitude": 22.625078, "Longitude": 120.280656, "IVRNo": 31, "EXTVoiceNo": 31, "traveltime": 0, "holidayTraveltime": 0}, {"Id": "0023", "pgp": 0, "GoBack": 1, "SID": 1417, "NameZh": "Shoushan Park", "RouteId": 50, "SeqNo": 23, "Terminal": 0, "DistrictId": 1, "Latitude": 22.626044, "Longitude": 120.277725, "IVRNo": 23, "EXTVoiceNo": 23, "traveltime": 0, "holidayTraveltime": 0}, {"Id": "9203", "pgp": 0, "GoBack": 1, "SID": 1597, "NameZh": "MRT Sizihwan Station", "RouteId": 50, "SeqNo": 24, "Terminal": 0, "DistrictId": 1, "Latitude": 22.622706, "Longitude": 120.274472, "IVRNo": 24, "EXTVoiceNo": 9203, "traveltime": 0, "holidayTraveltime": 0}, {"Id": "0025", "pgp": 0, "GoBack": 1, "SID": 1716, "NameZh": "Gushan Market", "RouteId": 50, "SeqNo": 25, "Terminal": 0, "DistrictId": 1, "Latitude": 22.622561, "Longitude": 120.272753, "IVRNo": 25, "EXTVoiceNo": 25, "traveltime": 0, "holidayTraveltime": 0}, {"Id": "4607", "pgp": 0, "GoBack": 1, "SID": 1843, "NameZh": "National Sun Yat-sen University (Tunnel Entrance)", "RouteId": 50, "SeqNo": 26, "Terminal": 0, "DistrictId": 1, "Latitude": 22.623842, "Longitude": 120.269883, "IVRNo": 26, "EXTVoiceNo": 4607, "traveltime": 0, "holidayTraveltime": 0}, {"Id": "0027", "pgp": 0, "GoBack": 1, "SID": 1959, "NameZh": "Binhai 2nd Rd.", "RouteId": 50, "SeqNo": 27, "Terminal": 0, "DistrictId": 1, "Latitude": 22.621683, "Longitude": 120.269856, "IVRNo": 27, "EXTVoiceNo": 27, "traveltime": 0, "holidayTraveltime": 0}, {"Id": "0028", "pgp": 0, "GoBack": 1, "SID": 2024, "NameZh": "Gushan Ferry Pier Station", "RouteId": 50, "SeqNo": 28, "Terminal": 1, "DistrictId": 1, "Latitude": 22.620388, "Longitude": 120.270075, "IVRNo": 28, "EXTVoiceNo": 28, "traveltime": 0, "holidayTraveltime": 0}, {"Id": "0028", "pgp": 0, "GoBack": 2, "SID": 2025, "NameZh": "Gushan Ferry Pier Station", "RouteId": 50, "SeqNo": 1, "Terminal": 0, "DistrictId": 1, "Latitude": 22.619772, "Longitude": 120.270597, "IVRNo": 28, "EXTVoiceNo": 28, "traveltime": 0, "holidayTraveltime": 0}, {"Id": "0029", "pgp": 0, "GoBack": 2, "SID": 2074, "NameZh": "Sinbin Pier", "RouteId": 50, "SeqNo": 2, "Terminal": 0, "DistrictId": 1, "Latitude": 22.619925, "Longitude": 120.272361, "IVRNo": 29, "EXTVoiceNo": 29, "traveltime": 0, "holidayTraveltime": 0}, {"Id": "0031", "pgp": 0, "GoBack": 2, "SID": 2120, "NameZh": "MRT Sizihwan Station (LRT Hamasen)", "RouteId": 50, "SeqNo": 3, "Terminal": 0, "DistrictId": 1, "Latitude": 22.621582, "Longitude": 120.27524, "IVRNo": 30, "EXTVoiceNo": 20031, "traveltime": 0, "holidayTraveltime": 0}, {"Id": "0023", "pgp": 0, "GoBack": 2, "SID": 3175, "NameZh": "Shoushan Park", "RouteId": 50, "SeqNo": 4, "Terminal": 0, "DistrictId": 1, "Latitude": 22.625771, "Longitude": 120.277831, "IVRNo": 23, "EXTVoiceNo": 23, "traveltime": 0, "holidayTraveltime": 0}, {"Id": "0031", "pgp": 0, "GoBack": 2, "SID": 2178, "NameZh": "Jianguo 4th Rd. Intersection", "RouteId": 50, "SeqNo": 5, "Terminal": 0, "DistrictId": 1, "Latitude": 22.625086, "Longitude": 120.280364, "IVRNo": 31, "EXTVoiceNo": 31, "traveltime": 0, "holidayTraveltime": 0}, {"Id": "0021", "pgp": 0, "GoBack": 2, "SID": 2226, "NameZh": "Wufu Lainan St. Intersection", "RouteId": 50, "SeqNo": 6, "Terminal": 0, "DistrictId": 1, "Latitude": 22.624031, "Longitude": 120.282657, "IVRNo": 21, "EXTVoiceNo": 21, "traveltime": 0, "holidayTraveltime": 0}, {"Id": "0423", "pgp": 0, "GoBack": 2, "SID": 2950, "NameZh": "MRT Yanchengpu Station (Wufu 4th Rd.)", "RouteId": 50, "SeqNo": 7, "Terminal": 0, "DistrictId": 1, "Latitude": 22.623167, "Longitude": 120.284262, "IVRNo": 426, "EXTVoiceNo": 423, "traveltime": 0, "holidayTraveltime": 0}, {"Id": "0421", "pgp": 0, "GoBack": 2, "SID": 2322, "NameZh": "Dajhih Rd. Intersection (Wufu 4th Rd.)", "RouteId": 50, "SeqNo": 8, "Terminal": 0, "DistrictId": 1, "Latitude": 22.621833, "Longitude": 120.286928, "IVRNo": 421, "EXTVoiceNo": 421, "traveltime": 0, "holidayTraveltime": 0}, {"Id": "0019", "pgp": 0, "GoBack": 2, "SID": 2396, "NameZh": "Dacheng St. Intersection (Love Pier)", "RouteId": 50, "SeqNo": 9, "Terminal": 0, "DistrictId": 1, "Latitude": 22.621108, "Longitude": 120.288397, "IVRNo": 19, "EXTVoiceNo": 19, "traveltime": 0, "holidayTraveltime": 0}, {"Id": "0035", "pgp": 0, "GoBack": 2, "SID": 2488, "NameZh": "Kaohsiung Municipal Girls` Senior High School (Love Pier)", "RouteId": 50, "SeqNo": 10, "Terminal": 0, "DistrictId": 1, "Latitude": 22.620564, "Longitude": 120.292053, "IVRNo": 35, "EXTVoiceNo": 35, "traveltime": 0, "holidayTraveltime": 0}, {"Id": "0036", "pgp": 0, "GoBack": 2, "SID": 2600, "NameZh": "Talee Department Store", "RouteId": 50, "SeqNo": 11, "Terminal": 0, "DistrictId": 1, "Latitude": 22.621401, "Longitude": 120.296004, "IVRNo": 17, "EXTVoiceNo": 36, "traveltime": 0, "holidayTraveltime": 0}, {"Id": "0037", "pgp": 0, "GoBack": 2, "SID": 2618, "NameZh": "Urban Spotlight (MRT Central Park Station)", "RouteId": 50, "SeqNo": 12, "Terminal": 0, "DistrictId": 1, "Latitude": 22.622617, "Longitude": 120.299883, "IVRNo": 37, "EXTVoiceNo": 37, "traveltime": 0, "holidayTraveltime": 0}, {"Id": "0015", "pgp": 0, "GoBack": 2, "SID": 2629, "NameZh": "Shinkuchan (New Juejiang)", "RouteId": 50, "SeqNo": 13, "Terminal": 0, "DistrictId": 1, "Latitude": 22.623622, "Longitude": 120.302831, "IVRNo": 15, "EXTVoiceNo": 15, "traveltime": 0, "holidayTraveltime": 0}, {"Id": "0014", "pgp": 0, "GoBack": 2, "SID": 2631, "NameZh": "Sinsing Senior High School", "RouteId": 50, "SeqNo": 14, "Terminal": 0, "DistrictId": 1, "Latitude": 22.624522, "Longitude": 120.305681, "IVRNo": 14, "EXTVoiceNo": 14, "traveltime": 0, "holidayTraveltime": 0}, {"Id": "0013", "pgp": 0, "GoBack": 2, "SID": 2646, "NameZh": "Kaohsiung Vocational High School of Commerce (Wufu 2nd Rd.)", "RouteId": 50, "SeqNo": 15, "Terminal": 0, "DistrictId": 1, "Latitude": 22.625309, "Longitude": 120.307797, "IVRNo": 13, "EXTVoiceNo": 13, "traveltime": 0, "holidayTraveltime": 0}, {"Id": "0012", "pgp": 0, "GoBack": 2, "SID": 2868, "NameZh": "Wufu Minciuan Rd. Intersection", "RouteId": 50, "SeqNo": 16, "Terminal": 0, "DistrictId": 1, "Latitude": 22.626072, "Longitude": 120.310008, "IVRNo": 12, "EXTVoiceNo": 12, "traveltime": 0, "holidayTraveltime": 0}, {"Id": "0011", "pgp": 0, "GoBack": 2, "SID": 2930, "NameZh": "The Lees Hotel", "RouteId": 50, "SeqNo": 17, "Terminal": 0, "DistrictId": 1, "Latitude": 22.627022, "Longitude": 120.312912, "IVRNo": 11, "EXTVoiceNo": 11, "traveltime": 0, "holidayTraveltime": 0}, {"Id": "0010", "pgp": 0, "GoBack": 2, "SID": 2973, "NameZh": "Water Park", "RouteId": 50, "SeqNo": 18, "Terminal": 0, "DistrictId": 1, "Latitude": 22.627644, "Longitude": 120.314631, "IVRNo": 10, "EXTVoiceNo": 10, "traveltime": 0, "holidayTraveltime": 0}, {"Id": "6134", "pgp": 0, "GoBack": 2, "SID": 3023, "NameZh": "Kaohsiung Cultural Center (Wufu Junior High School Station)", "RouteId": 50, "SeqNo": 19, "Terminal": 0, "DistrictId": 1, "Latitude": 22.628539, "Longitude": 120.317599, "IVRNo": 9, "EXTVoiceNo": 26134, "traveltime": 0, "holidayTraveltime": 0}, {"Id": "0008", "pgp": 0, "GoBack": 2, "SID": 3092, "NameZh": "Wufu Jhongjheng Rd. Intersection", "RouteId": 50, "SeqNo": 20, "Terminal": 0, "DistrictId": 1, "Latitude": 22.62943, "Longitude": 120.32038, "IVRNo": 8, "EXTVoiceNo": 8, "traveltime": 0, "holidayTraveltime": 0}, {"Id": "0007", "pgp": 0, "GoBack": 2, "SID": 3131, "NameZh": "Dashun 1st Rd. Intersection", "RouteId": 50, "SeqNo": 21, "Terminal": 0, "DistrictId": 1, "Latitude": 22.62971, "Longitude": 120.323694, "IVRNo": 7, "EXTVoiceNo": 7, "traveltime": 0, "holidayTraveltime": 0}, {"Id": "0062", "pgp": 0, "GoBack": 2, "SID": 4535, "NameZh": "MRT Wukuaicuo Station (Jhongjheng 1st Rd.)", "RouteId": 50, "SeqNo": 22, "Terminal": 0, "DistrictId": 1, "Latitude": 22.62934, "Longitude": 120.32815, "IVRNo": 62, "EXTVoiceNo": 62, "traveltime": 0, "holidayTraveltime": 0}, {"Id": "0004", "pgp": 0, "GoBack": 2, "SID": 3521, "NameZh": "MRT Martial Arts Stadium Station", "RouteId": 50, "SeqNo": 23, "Terminal": 0, "DistrictId": 1, "Latitude": 22.627324, "Longitude": 120.333861, "IVRNo": 729, "EXTVoiceNo": 4, "traveltime": 0, "holidayTraveltime": 0}, {"Id": "0003", "pgp": 0, "GoBack": 2, "SID": 3524, "NameZh": "Jhongjheng Senior High school", "RouteId": 50, "SeqNo": 24, "Terminal": 0, "DistrictId": 1, "Latitude": 22.626135, "Longitude": 120.337789, "IVRNo": 3, "EXTVoiceNo": 3, "traveltime": 0, "holidayTraveltime": 0}, {"Id": "0145", "pgp": 0, "GoBack": 2, "SID": 3740, "NameZh": "Kaohsiung Armed Forces General Hospital (MRT Weiwuying Station)", "RouteId": 50, "SeqNo": 25, "Terminal": 0, "DistrictId": 1, "Latitude": 22.625498, "Longitude": 120.339705, "IVRNo": 51, "EXTVoiceNo": 145, "traveltime": 0, "holidayTraveltime": 0}, {"Id": "0002", "pgp": 0, "GoBack": 2, "SID": 4, "NameZh": "Jianjun Station (MRT Weiwuying Station)", "RouteId": 50, "SeqNo": 26, "Terminal": 1, "DistrictId": 1, "Latitude": 22.624967, "Longitude": 120.343292, "IVRNo": 1, "EXTVoiceNo": 2, "traveltime": 0, "holidayTraveltime": 0}], "zh": [{"Id": "0002", "pgp": 0, "GoBack": 1, "SID": 19, "NameZh": "\u5efa\u8ecd\u7ad9(\u6377\u904b\u885b\u6b66\u71df\u7ad9)", "RouteId": 50, "SeqNo": 1, "Terminal": 0, "DistrictId": 1, "Latitude": 22.624969, "Longitude": 120.343391, "IVRNo": 1, "EXTVoiceNo": 2, "traveltime": 0, "holidayTraveltime": 0}, {"Id": "0145", "pgp": 0, "GoBack": 1, "SID": 941, "NameZh": "\u570b\u8ecd\u9ad8\u96c4\u7e3d\u91ab\u9662(\u6377\u904b\u885b\u6b66\u71df\u7ad9)", "RouteId": 50, "SeqNo": 2, "Terminal": 0, "DistrictId": 1, "Latitude": 22.625427, "Longitude": 120.340362, "IVRNo": 51, "EXTVoiceNo": 145, "traveltime": 0, "holidayTraveltime": 0}, {"Id": "0003", "pgp": 0, "GoBack": 1, "SID": 3523, "NameZh": "\u4e2d\u6b63\u9ad8\u4e2d", "RouteId": 50, "SeqNo": 3, "Terminal": 0, "DistrictId": 1, "Latitude": 22.626183, "Longitude": 120.338283, "IVRNo": 3, "EXTVoiceNo": 3, "traveltime": 0, "holidayTraveltime": 0}, {"Id": "0004", "pgp": 0, "GoBack": 1, "SID": 2638, "NameZh": "\u6377\u904b\u6280\u64ca\u9928\u7ad9", "RouteId": 50, "SeqNo": 4, "Terminal": 0, "DistrictId": 1, "Latitude": 22.627945, "Longitude": 120.332909, "IVRNo": 729, "EXTVoiceNo": 4, "traveltime": 0, "holidayTraveltime": 0}, {"Id": "0062", "pgp": 0, "GoBack": 1, "SID": 4504, "NameZh": "\u6377\u904b\u4e94\u584a\u539d\u7ad9(\u4e2d\u6b63\u4e00\u8def)", "RouteId": 50, "SeqNo": 5, "Terminal": 0, "DistrictId": 1, "Latitude": 22.629293, "Longitude": 120.328852, "IVRNo": 62, "EXTVoiceNo": 62, "traveltime": 0, "holidayTraveltime": 0}, {"Id": "0007", "pgp": 0, "GoBack": 1, "SID": 4543, "NameZh": "\u5927\u9806\u4e09\u8def\u53e3", "RouteId": 50, "SeqNo": 6, "Terminal": 0, "DistrictId": 1, "Latitude": 22.629966, "Longitude": 120.3242, "IVRNo": 7, "EXTVoiceNo": 7, "traveltime": 0, "holidayTraveltime": 0}, {"Id": "0008", "pgp": 0, "GoBack": 1, "SID": 5401, "NameZh": "\u4e94\u798f\u4e2d\u6b63\u8def\u53e3", "RouteId": 50, "SeqNo": 7, "Terminal": 0, "DistrictId": 1, "Latitude": 22.629759, "Longitude": 120.32073, "IVRNo": 8, "EXTVoiceNo": 8, "traveltime": 0, "holidayTraveltime": 0}, {"Id": "6134", "pgp": 0, "GoBack": 1, "SID": 5882, "NameZh": "\u9ad8\u96c4\u6587\u5316\u4e2d\u5fc3(\u4e94\u798f\u570b\u4e2d\u7ad9)", "RouteId": 50, "SeqNo": 8, "Terminal": 0, "DistrictId": 1, "Latitude": 22.628794, "Longitude": 120.317774, "IVRNo": 9, "EXTVoiceNo": 26134, "traveltime": 0, "holidayTraveltime": 0}, {"Id": "0010", "pgp": 0, "GoBack": 1, "SID": 24, "NameZh": "\u81ea\u4f86\u6c34\u516c\u5712", "RouteId": 50, "SeqNo": 9, "Terminal": 0, "DistrictId": 1, "Latitude": 22.627814, "Longitude": 120.31475, "IVRNo": 10, "EXTVoiceNo": 10, "traveltime": 0, "holidayTraveltime": 0}, {"Id": "0011", "pgp": 0, "GoBack": 1, "SID": 167, "NameZh": "\u9e97\u5c0a\u9152\u5e97", "RouteId": 50, "SeqNo": 10, "Terminal": 0, "DistrictId": 1, "Latitude": 22.627231, "Longitude": 120.313092, "IVRNo": 11, "EXTVoiceNo": 11, "traveltime": 0, "holidayTraveltime": 0}, {"Id": "0012", "pgp": 0, "GoBack": 1, "SID": 291, "NameZh": "\u4e94\u798f\u6c11\u6b0a\u8def\u53e3", "RouteId": 50, "SeqNo": 11, "Terminal": 0, "DistrictId": 1, "Latitude": 22.626164, "Longitude": 120.309906, "IVRNo": 12, "EXTVoiceNo": 12, "traveltime": 0, "holidayTraveltime": 0}, {"Id": "0013", "pgp": 0, "GoBack": 1, "SID": 413, "NameZh": "\u9ad8\u96c4\u9ad8\u5546(\u4e94\u8914\u4e8c\u8def)", "RouteId": 50, "SeqNo": 12, "Terminal": 0, "DistrictId": 1, "Latitude": 22.625475, "Longitude": 120.307814, "IVRNo": 13, "EXTVoiceNo": 13, "traveltime": 0, "holidayTraveltime": 0}, {"Id": "0014", "pgp": 0, "GoBack": 1, "SID": 558, "NameZh": "\u65b0\u8208\u9ad8\u4e2d", "RouteId": 50, "SeqNo": 13, "Terminal": 0, "DistrictId": 1, "Latitude": 22.62475, "Longitude": 120.305681, "IVRNo": 14, "EXTVoiceNo": 14, "traveltime": 0, "holidayTraveltime": 0}, {"Id": "0015", "pgp": 0, "GoBack": 1, "SID": 724, "NameZh": "\u65b0\u5800\u6c5f", "RouteId": 50, "SeqNo": 14, "Terminal": 0, "DistrictId": 1, "Latitude": 22.623775, "Longitude": 120.302741, "IVRNo": 15, "EXTVoiceNo": 15, "traveltime": 0, "holidayTraveltime": 0}, {"Id": "0037", "pgp": 0, "GoBack": 1, "SID": 829, "NameZh": "\u57ce\u5e02\u5149\u5eca(\u6377\u904b\u4e2d\u592e\u516c\u5712\u7ad9)", "RouteId": 50, "SeqNo": 15, "Terminal": 0, "DistrictId": 1, "Latitude": 22.623033, "Longitude": 120.300356, "IVRNo": 37, "EXTVoiceNo": 37, "traveltime": 0, "holidayTraveltime": 0}, {"Id": "0036", "pgp": 0, "GoBack": 1, "SID": 920, "NameZh": "\u5927\u7acb\u767e\u8ca8", "RouteId": 50, "SeqNo": 16, "Terminal": 0, "DistrictId": 1, "Latitude": 22.621407, "Longitude": 120.295745, "IVRNo": 17, "EXTVoiceNo": 36, "traveltime": 0, "holidayTraveltime": 0}, {"Id": "0035", "pgp": 0, "GoBack": 1, "SID": 922, "NameZh": "\u9ad8\u96c4\u5973\u4e2d(\u771f\u611b\u78bc\u982d)", "RouteId": 50, "SeqNo": 17, "Terminal": 0, "DistrictId": 1, "Latitude": 22.620769, "Longitude": 120.292092, "IVRNo": 35, "EXTVoiceNo": 35, "traveltime": 0, "holidayTraveltime": 0}, {"Id": "0019", "pgp": 0, "GoBack": 1, "SID": 934, "NameZh": "\u5927\u6210\u8857\u53e3(\u771f\u611b\u78bc\u982d)", "RouteId": 50, "SeqNo": 18, "Terminal": 0, "DistrictId": 1, "Latitude": 22.621217, "Longitude": 120.288447, "IVRNo": 19, "EXTVoiceNo": 19, "traveltime": 0, "holidayTraveltime": 0}, {"Id": "0421", "pgp": 0, "GoBack": 1, "SID": 944, "NameZh": "\u5927\u667a\u8def\u53e3(\u4e94\u798f\u56db\u8def)", "RouteId": 50, "SeqNo": 19, "Terminal": 0, "DistrictId": 1, "Latitude": 22.621956, "Longitude": 120.286964, "IVRNo": 421, "EXTVoiceNo": 421, "traveltime": 0, "holidayTraveltime": 0}, {"Id": "0423", "pgp": 0, "GoBack": 1, "SID": 2966, "NameZh": "\u6377\u904b\u9e7d\u57d5\u57d4\u7ad9(\u4e94\u798f\u56db\u8def)", "RouteId": 50, "SeqNo": 20, "Terminal": 0, "DistrictId": 1, "Latitude": 22.623031, "Longitude": 120.284753, "IVRNo": 426, "EXTVoiceNo": 423, "traveltime": 0, "holidayTraveltime": 0}, {"Id": "0021", "pgp": 0, "GoBack": 1, "SID": 12237, "NameZh": "\u4e94\u798f\u7028\u5357\u8857\u53e3", "RouteId": 50, "SeqNo": 21, "Terminal": 0, "DistrictId": 1, "Latitude": 22.623944, "Longitude": 120.282977, "IVRNo": 21, "EXTVoiceNo": 21, "traveltime": 0, "holidayTraveltime": 0}, {"Id": "0031", "pgp": 0, "GoBack": 1, "SID": 1375, "NameZh": "\u5efa\u570b\u56db\u8def\u53e3", "RouteId": 50, "SeqNo": 22, "Terminal": 0, "DistrictId": 1, "Latitude": 22.625078, "Longitude": 120.280656, "IVRNo": 31, "EXTVoiceNo": 31, "traveltime": 0, "holidayTraveltime": 0}, {"Id": "0023", "pgp": 0, "GoBack": 1, "SID": 1417, "NameZh": "\u58fd\u5c71\u516c\u5712", "RouteId": 50, "SeqNo": 23, "Terminal": 0, "DistrictId": 1, "Latitude": 22.626044, "Longitude": 120.277725, "IVRNo": 23, "EXTVoiceNo": 23, "traveltime": 0, "holidayTraveltime": 0}, {"Id": "9203", "pgp": 0, "GoBack": 1, "SID": 1597, "NameZh": "\u6377\u904b\u897f\u5b50\u7063\u7ad9", "RouteId": 50, "SeqNo": 24, "Terminal": 0, "DistrictId": 1, "Latitude": 22.622706, "Longitude": 120.274472, "IVRNo": 24, "EXTVoiceNo": 9203, "traveltime": 0, "holidayTraveltime": 0}, {"Id": "0025", "pgp": 0, "GoBack": 1, "SID": 1716, "NameZh": "\u9f13\u5c71\u5e02\u5834", "RouteId": 50, "SeqNo": 25, "Terminal": 0, "DistrictId": 1, "Latitude": 22.622561, "Longitude": 120.272753, "IVRNo": 25, "EXTVoiceNo": 25, "traveltime": 0, "holidayTraveltime": 0}, {"Id": "4607", "pgp": 0, "GoBack": 1, "SID": 1843, "NameZh": "\u4e2d\u5c71\u5927\u5b78(\u96a7\u9053\u53e3)", "RouteId": 50, "SeqNo": 26, "Terminal": 0, "DistrictId": 1, "Latitude": 22.623842, "Longitude": 120.269883, "IVRNo": 26, "EXTVoiceNo": 4607, "traveltime": 0, "holidayTraveltime": 0}, {"Id": "0027", "pgp": 0, "GoBack": 1, "SID": 1959, "NameZh": "\u6ff1\u6d77\u4e8c\u8def", "RouteId": 50, "SeqNo": 27, "Terminal": 0, "DistrictId": 1, "Latitude": 22.621683, "Longitude": 120.269856, "IVRNo": 27, "EXTVoiceNo": 27, "traveltime": 0, "holidayTraveltime": 0}, {"Id": "0028", "pgp": 0, "GoBack": 1, "SID": 2024, "NameZh": "\u9f13\u5c71\u8f2a\u6e21\u7ad9", "RouteId": 50, "SeqNo": 28, "Terminal": 1, "DistrictId": 1, "Latitude": 22.620388, "Longitude": 120.270075, "IVRNo": 28, "EXTVoiceNo": 28, "traveltime": 0, "holidayTraveltime": 0}, {"Id": "0028", "pgp": 0, "GoBack": 2, "SID": 2025, "NameZh": "\u9f13\u5c71\u8f2a\u6e21\u7ad9", "RouteId": 50, "SeqNo": 1, "Terminal": 0, "DistrictId": 1, "Latitude": 22.619772, "Longitude": 120.270597, "IVRNo": 28, "EXTVoiceNo": 28, "traveltime": 0, "holidayTraveltime": 0}, {"Id": "0029", "pgp": 0, "GoBack": 2, "SID": 2074, "NameZh": "\u65b0\u6ff1\u78bc\u982d", "RouteId": 50, "SeqNo": 2, "Terminal": 0, "DistrictId": 1, "Latitude": 22.619925, "Longitude": 120.272361, "IVRNo": 29, "EXTVoiceNo": 29, "traveltime": 0, "holidayTraveltime": 0}, {"Id": "0031", "pgp": 0, "GoBack": 2, "SID": 2120, "NameZh": "\u6377\u904b\u897f\u5b50\u7063\u7ad9(\u8f15\u8ecc\u54c8\u746a\u661f\u7ad9)", "RouteId": 50, "SeqNo": 3, "Terminal": 0, "DistrictId": 1, "Latitude": 22.621582, "Longitude": 120.27524, "IVRNo": 30, "EXTVoiceNo": 20031, "traveltime": 0, "holidayTraveltime": 0}, {"Id": "0023", "pgp": 0, "GoBack": 2, "SID": 3175, "NameZh": "\u58fd\u5c71\u516c\u5712", "RouteId": 50, "SeqNo": 4, "Terminal": 0, "DistrictId": 1, "Latitude": 22.625771, "Longitude": 120.277831, "IVRNo": 23, "EXTVoiceNo": 23, "traveltime": 0, "holidayTraveltime": 0}, {"Id": "0031", "pgp": 0, "GoBack": 2, "SID": 2178, "NameZh": "\u5efa\u570b\u56db\u8def\u53e3", "RouteId": 50, "SeqNo": 5, "Terminal": 0, "DistrictId": 1, "Latitude": 22.625086, "Longitude": 120.280364, "IVRNo": 31, "EXTVoiceNo": 31, "traveltime": 0, "holidayTraveltime": 0}, {"Id": "0021", "pgp": 0, "GoBack": 2, "SID": 2226, "NameZh": "\u4e94\u798f\u7028\u5357\u8857\u53e3", "RouteId": 50, "SeqNo": 6, "Terminal": 0, "DistrictId": 1, "Latitude": 22.624031, "Longitude": 120.282657, "IVRNo": 21, "EXTVoiceNo": 21, "traveltime": 0, "holidayTraveltime": 0}, {"Id": "0423", "pgp": 0, "GoBack": 2, "SID": 2950, "NameZh": "\u6377\u904b\u9e7d\u57d5\u57d4\u7ad9(\u4e94\u798f\u56db\u8def)", "RouteId": 50, "SeqNo": 7, "Terminal": 0, "DistrictId": 1, "Latitude": 22.623167, "Longitude": 120.284262, "IVRNo": 426, "EXTVoiceNo": 423, "traveltime": 0, "holidayTraveltime": 0}, {"Id": "0421", "pgp": 0, "GoBack": 2, "SID": 2322, "NameZh": "\u5927\u667a\u8def\u53e3(\u4e94\u798f\u56db\u8def)", "RouteId": 50, "SeqNo": 8, "Terminal": 0, "DistrictId": 1, "Latitude": 22.621833, "Longitude": 120.286928, "IVRNo": 421, "EXTVoiceNo": 421, "traveltime": 0, "holidayTraveltime": 0}, {"Id": "0019", "pgp": 0, "GoBack": 2, "SID": 2396, "NameZh": "\u5927\u6210\u8857\u53e3(\u771f\u611b\u78bc\u982d)", "RouteId": 50, "SeqNo": 9, "Terminal": 0, "DistrictId": 1, "Latitude": 22.621108, "Longitude": 120.288397, "IVRNo": 19, "EXTVoiceNo": 19, "traveltime": 0, "holidayTraveltime": 0}, {"Id": "0035", "pgp": 0, "GoBack": 2, "SID": 2488, "NameZh": "\u9ad8\u96c4\u5973\u4e2d(\u771f\u611b\u78bc\u982d)", "RouteId": 50, "SeqNo": 10, "Terminal": 0, "DistrictId": 1, "Latitude": 22.620564, "Longitude": 120.292053, "IVRNo": 35, "EXTVoiceNo": 35, "traveltime": 0, "holidayTraveltime": 0}, {"Id": "0036", "pgp": 0, "GoBack": 2, "SID": 2600, "NameZh": "\u5927\u7acb\u767e\u8ca8", "RouteId": 50, "SeqNo": 11, "Terminal": 0, "DistrictId": 1, "Latitude": 22.621401, "Longitude": 120.296004, "IVRNo": 17, "EXTVoiceNo": 36, "traveltime": 0, "holidayTraveltime": 0}, {"Id": "0037", "pgp": 0, "GoBack": 2, "SID": 2618, "NameZh": "\u57ce\u5e02\u5149\u5eca(\u6377\u904b\u4e2d\u592e\u516c\u5712\u7ad9)", "RouteId": 50, "SeqNo": 12, "Terminal": 0, "DistrictId": 1, "Latitude": 22.622617, "Longitude": 120.299883, "IVRNo": 37, "EXTVoiceNo": 37, "traveltime": 0, "holidayTraveltime": 0}, {"Id": "0015", "pgp": 0, "GoBack": 2, "SID": 2629, "NameZh": "\u65b0\u5800\u6c5f", "RouteId": 50, "SeqNo": 13, "Terminal": 0, "DistrictId": 1, "Latitude": 22.623622, "Longitude": 120.302831, "IVRNo": 15, "EXTVoiceNo": 15, "traveltime": 0, "holidayTraveltime": 0}, {"Id": "0014", "pgp": 0, "GoBack": 2, "SID": 2631, "NameZh": "\u65b0\u8208\u9ad8\u4e2d", "RouteId": 50, "SeqNo": 14, "Terminal": 0, "DistrictId": 1, "Latitude": 22.624522, "Longitude": 120.305681, "IVRNo": 14, "EXTVoiceNo": 14, "traveltime": 0, "holidayTraveltime": 0}, {"Id": "0013", "pgp": 0, "GoBack": 2, "SID": 2646, "NameZh": "\u9ad8\u96c4\u9ad8\u5546(\u4e94\u8914\u4e8c\u8def)", "RouteId": 50, "SeqNo": 15, "Terminal": 0, "DistrictId": 1, "Latitude": 22.625309, "Longitude": 120.307797, "IVRNo": 13, "EXTVoiceNo": 13, "traveltime": 0, "holidayTraveltime": 0}, {"Id": "0012", "pgp": 0, "GoBack": 2, "SID": 2868, "NameZh": "\u4e94\u798f\u6c11\u6b0a\u8def\u53e3", "RouteId": 50, "SeqNo": 16, "Terminal": 0, "DistrictId": 1, "Latitude": 22.626072, "Longitude": 120.310008, "IVRNo": 12, "EXTVoiceNo": 12, "traveltime": 0, "holidayTraveltime": 0}, {"Id": "0011", "pgp": 0, "GoBack": 2, "SID": 2930, "NameZh": "\u9e97\u5c0a\u9152\u5e97", "RouteId": 50, "SeqNo": 17, "Terminal": 0, "DistrictId": 1, "Latitude": 22.627022, "Longitude": 120.312912, "IVRNo": 11, "EXTVoiceNo": 11, "traveltime": 0, "holidayTraveltime": 0}, {"Id": "0010", "pgp": 0, "GoBack": 2, "SID": 2973, "NameZh": "\u81ea\u4f86\u6c34\u516c\u5712", "RouteId": 50, "SeqNo": 18, "Terminal": 0, "DistrictId": 1, "Latitude": 22.627644, "Longitude": 120.314631, "IVRNo": 10, "EXTVoiceNo": 10, "traveltime": 0, "holidayTraveltime": 0}, {"Id": "6134", "pgp": 0, "GoBack": 2, "SID": 3023, "NameZh": "\u9ad8\u96c4\u6587\u5316\u4e2d\u5fc3(\u4e94\u798f\u570b\u4e2d\u7ad9)", "RouteId": 50, "SeqNo": 19, "Terminal": 0, "DistrictId": 1, "Latitude": 22.628539, "Longitude": 120.317599, "IVRNo": 9, "EXTVoiceNo": 26134, "traveltime": 0, "holidayTraveltime": 0}, {"Id": "0008", "pgp": 0, "GoBack": 2, "SID": 3092, "NameZh": "\u4e94\u798f\u4e2d\u6b63\u8def\u53e3", "RouteId": 50, "SeqNo": 20, "Terminal": 0, "DistrictId": 1, "Latitude": 22.62943, "Longitude": 120.32038, "IVRNo": 8, "EXTVoiceNo": 8, "traveltime": 0, "holidayTraveltime": 0}, {"Id": "0007", "pgp": 0, "GoBack": 2, "SID": 3131, "NameZh": "\u5927\u9806\u4e09\u8def\u53e3", "RouteId": 50, "SeqNo": 21, "Terminal": 0, "DistrictId": 1, "Latitude": 22.62971, "Longitude": 120.323694, "IVRNo": 7, "EXTVoiceNo": 7, "traveltime": 0, "holidayTraveltime": 0}, {"Id": "0062", "pgp": 0, "GoBack": 2, "SID": 4535, "NameZh": "\u6377\u904b\u4e94\u584a\u539d\u7ad9(\u4e2d\u6b63\u4e00\u8def)", "RouteId": 50, "SeqNo": 22, "Terminal": 0, "DistrictId": 1, "Latitude": 22.62934, "Longitude": 120.32815, "IVRNo": 62, "EXTVoiceNo": 62, "traveltime": 0, "holidayTraveltime": 0}, {"Id": "0004", "pgp": 0, "GoBack": 2, "SID": 3521, "NameZh": "\u6377\u904b\u6280\u64ca\u9928\u7ad9", "RouteId": 50, "SeqNo": 23, "Terminal": 0, "DistrictId": 1, "Latitude": 22.627324, "Longitude": 120.333861, "IVRNo": 729, "EXTVoiceNo": 4, "traveltime": 0, "holidayTraveltime": 0}, {"Id": "0003", "pgp": 0, "GoBack": 2, "SID": 3524, "NameZh": "\u4e2d\u6b63\u9ad8\u4e2d", "RouteId": 50, "SeqNo": 24, "Terminal": 0, "DistrictId": 1, "Latitude": 22.626135, "Longitude": 120.337789, "IVRNo": 3, "EXTVoiceNo": 3, "traveltime": 0, "holidayTraveltime": 0}, {"Id": "0145", "pgp": 0, "GoBack": 2, "SID": 3740, "NameZh": "\u570b\u8ecd\u9ad8\u96c4\u7e3d\u91ab\u9662(\u6377\u904b\u885b\u6b66\u71df\u7ad9)", "RouteId": 50, "SeqNo": 25, "Terminal": 0, "DistrictId": 1, "Latitude": 22.625498, "Longitude": 120.339705, "IVRNo": 51, "EXTVoiceNo": 145, "traveltime": 0, "holidayTraveltime": 0}, {"Id": "0002", "pgp": 0, "GoBack": 2, "SID": 4, "NameZh": "\u5efa\u8ecd\u7ad9(\u6377\u904b\u885b\u6b66\u71df\u7ad9)", "RouteId": 50, "SeqNo": 26, "Terminal": 1, "DistrictId": 1, "Latitude": 22.624967, "Longitude": 120.343292, "IVRNo": 1, "EXTVoiceNo": 2, "traveltime": 0, "holidayTraveltime": 0}]}