{"en": [{"Id": "9164", "pgp": 0, "GoBack": 1, "SID": 11987, "NameZh": "Gangan Rd.", "RouteId": 8049, "SeqNo": 1, "Terminal": 0, "DistrictId": 1, "Latitude": 22.87285, "Longitude": 120.35893, "IVRNo": 9600, "EXTVoiceNo": 9164, "traveltime": 0, "holidayTraveltime": 0}, {"Id": "9163", "pgp": 0, "GoBack": 1, "SID": 11988, "NameZh": "Gangshantou Hot Spring", "RouteId": 8049, "SeqNo": 2, "Terminal": 0, "DistrictId": 1, "Latitude": 22.87423, "Longitude": 120.35702, "IVRNo": 9599, "EXTVoiceNo": 9163, "traveltime": 0, "holidayTraveltime": 0}, {"Id": "9162", "pgp": 0, "GoBack": 1, "SID": 11989, "NameZh": "Gangshantou", "RouteId": 8049, "SeqNo": 3, "Terminal": 0, "DistrictId": 1, "Latitude": 22.87469, "Longitude": 120.35589, "IVRNo": 9598, "EXTVoiceNo": 9162, "traveltime": 0, "holidayTraveltime": 0}, {"Id": "9161", "pgp": 0, "GoBack": 1, "SID": 16862, "NameZh": "Fongshan Village", "RouteId": 8049, "SeqNo": 4, "Terminal": 0, "DistrictId": 1, "Latitude": 22.87626, "Longitude": 120.35349, "IVRNo": 9597, "EXTVoiceNo": 9161, "traveltime": 0, "holidayTraveltime": 0}, {"Id": "9160", "pgp": 0, "GoBack": 1, "SID": 11991, "NameZh": "Nangangshan", "RouteId": 8049, "SeqNo": 5, "Terminal": 0, "DistrictId": 1, "Latitude": 22.87835, "Longitude": 120.35001, "IVRNo": 9596, "EXTVoiceNo": 9160, "traveltime": 0, "holidayTraveltime": 0}, {"Id": "9159", "pgp": 0, "GoBack": 1, "SID": 11992, "NameZh": "Dabi", "RouteId": 8049, "SeqNo": 6, "Terminal": 0, "DistrictId": 1, "Latitude": 22.88051, "Longitude": 120.34653, "IVRNo": 10219, "EXTVoiceNo": 9159, "traveltime": 0, "holidayTraveltime": 0}, {"Id": "9158", "pgp": 0, "GoBack": 1, "SID": 11993, "NameZh": "Brick Kiln", "RouteId": 8049, "SeqNo": 7, "Terminal": 0, "DistrictId": 1, "Latitude": 22.88185, "Longitude": 120.34181, "IVRNo": 9594, "EXTVoiceNo": 9158, "traveltime": 0, "holidayTraveltime": 0}, {"Id": "9157", "pgp": 0, "GoBack": 1, "SID": 11994, "NameZh": "Yuansheng Community", "RouteId": 8049, "SeqNo": 8, "Terminal": 0, "DistrictId": 1, "Latitude": 22.88169, "Longitude": 120.33921, "IVRNo": 9593, "EXTVoiceNo": 9157, "traveltime": 0, "holidayTraveltime": 0}, {"Id": "1187", "pgp": 0, "GoBack": 1, "SID": 11995, "NameZh": "Industrial Park (Alian)", "RouteId": 8049, "SeqNo": 9, "Terminal": 0, "DistrictId": 1, "Latitude": 22.88138, "Longitude": 120.33721, "IVRNo": 477, "EXTVoiceNo": 21187, "traveltime": 0, "holidayTraveltime": 0}, {"Id": "9155", "pgp": 0, "GoBack": 1, "SID": 16868, "NameZh": "Alian Jhongjheng Rd. (Heping Rd. Intersection)", "RouteId": 8049, "SeqNo": 10, "Terminal": 0, "DistrictId": 1, "Latitude": 22.88087, "Longitude": 120.33293, "IVRNo": 7148, "EXTVoiceNo": 9155, "traveltime": 0, "holidayTraveltime": 0}, {"Id": "9154", "pgp": 0, "GoBack": 1, "SID": 11997, "NameZh": "Alian", "RouteId": 8049, "SeqNo": 11, "Terminal": 0, "DistrictId": 1, "Latitude": 22.87914, "Longitude": 120.33137, "IVRNo": 9590, "EXTVoiceNo": 9154, "traveltime": 0, "holidayTraveltime": 0}, {"Id": "9153", "pgp": 0, "GoBack": 1, "SID": 11998, "NameZh": "Alian Police Station", "RouteId": 8049, "SeqNo": 12, "Terminal": 0, "DistrictId": 1, "Latitude": 22.878948, "Longitude": 120.329406, "IVRNo": 9589, "EXTVoiceNo": 9153, "traveltime": 0, "holidayTraveltime": 0}, {"Id": "1188", "pgp": 0, "GoBack": 1, "SID": 16871, "NameZh": "Alian Jhongshan Rd.", "RouteId": 8049, "SeqNo": 13, "Terminal": 0, "DistrictId": 1, "Latitude": 22.87752, "Longitude": 120.3278, "IVRNo": 737, "EXTVoiceNo": 21188, "traveltime": 0, "holidayTraveltime": 0}, {"Id": "9151", "pgp": 0, "GoBack": 1, "SID": 12000, "NameZh": "Nanlian", "RouteId": 8049, "SeqNo": 14, "Terminal": 0, "DistrictId": 1, "Latitude": 22.87545, "Longitude": 120.32689, "IVRNo": 9587, "EXTVoiceNo": 9151, "traveltime": 0, "holidayTraveltime": 0}, {"Id": "9150", "pgp": 0, "GoBack": 1, "SID": 12001, "NameZh": "Guande Temple", "RouteId": 8049, "SeqNo": 15, "Terminal": 0, "DistrictId": 1, "Latitude": 22.87149, "Longitude": 120.32523, "IVRNo": 9586, "EXTVoiceNo": 9150, "traveltime": 0, "holidayTraveltime": 0}, {"Id": "9149", "pgp": 0, "GoBack": 1, "SID": 12002, "NameZh": "Jhongjia Rd. Intersection", "RouteId": 8049, "SeqNo": 16, "Terminal": 0, "DistrictId": 1, "Latitude": 22.86679, "Longitude": 120.32377, "IVRNo": 9585, "EXTVoiceNo": 9149, "traveltime": 0, "holidayTraveltime": 0}, {"Id": "9148", "pgp": 0, "GoBack": 1, "SID": 16875, "NameZh": "Bizihwei (Jhongshan Rd.)", "RouteId": 8049, "SeqNo": 17, "Terminal": 0, "DistrictId": 1, "Latitude": 22.8599, "Longitude": 120.32429, "IVRNo": 9584, "EXTVoiceNo": 9148, "traveltime": 0, "holidayTraveltime": 0}, {"Id": "9222", "pgp": 0, "GoBack": 1, "SID": 12004, "NameZh": "Jioujiou", "RouteId": 8049, "SeqNo": 18, "Terminal": 0, "DistrictId": 1, "Latitude": 22.85043, "Longitude": 120.32479, "IVRNo": 9853, "EXTVoiceNo": 9222, "traveltime": 0, "holidayTraveltime": 0}, {"Id": "9147", "pgp": 0, "GoBack": 1, "SID": 12005, "NameZh": "Fu-An Elementary School", "RouteId": 8049, "SeqNo": 19, "Terminal": 0, "DistrictId": 1, "Latitude": 22.84874, "Longitude": 120.3243, "IVRNo": 9583, "EXTVoiceNo": 9147, "traveltime": 0, "holidayTraveltime": 0}, {"Id": "9146", "pgp": 0, "GoBack": 1, "SID": 12006, "NameZh": "Wayao", "RouteId": 8049, "SeqNo": 20, "Terminal": 0, "DistrictId": 1, "Latitude": 22.84637, "Longitude": 120.3235, "IVRNo": 9582, "EXTVoiceNo": 9146, "traveltime": 0, "holidayTraveltime": 0}, {"Id": "6178", "pgp": 0, "GoBack": 1, "SID": 16879, "NameZh": "Tuku (Alian)", "RouteId": 8049, "SeqNo": 21, "Terminal": 0, "DistrictId": 1, "Latitude": 22.84263, "Longitude": 120.32059, "IVRNo": 9581, "EXTVoiceNo": 26178, "traveltime": 0, "holidayTraveltime": 0}, {"Id": "6051", "pgp": 0, "GoBack": 1, "SID": 16880, "NameZh": "Tiancuo", "RouteId": 8049, "SeqNo": 22, "Terminal": 0, "DistrictId": 1, "Latitude": 22.83734, "Longitude": 120.31775, "IVRNo": 9580, "EXTVoiceNo": 26051, "traveltime": 0, "holidayTraveltime": 0}, {"Id": "9143", "pgp": 0, "GoBack": 1, "SID": 12009, "NameZh": "Jiafong", "RouteId": 8049, "SeqNo": 23, "Terminal": 0, "DistrictId": 1, "Latitude": 22.82973, "Longitude": 120.31354, "IVRNo": 9579, "EXTVoiceNo": 9143, "traveltime": 0, "holidayTraveltime": 0}, {"Id": "2367", "pgp": 0, "GoBack": 1, "SID": 14043, "NameZh": "Jiafong Village Community Center", "RouteId": 8049, "SeqNo": 24, "Terminal": 0, "DistrictId": 1, "Latitude": 22.827907, "Longitude": 120.311942, "IVRNo": 17955, "EXTVoiceNo": 32367, "traveltime": 0, "holidayTraveltime": 0}, {"Id": "9142", "pgp": 0, "GoBack": 1, "SID": 16882, "NameZh": "Tandi", "RouteId": 8049, "SeqNo": 25, "Terminal": 0, "DistrictId": 1, "Latitude": 22.825807, "Longitude": 120.30967, "IVRNo": 9578, "EXTVoiceNo": 9142, "traveltime": 0, "holidayTraveltime": 0}, {"Id": "9141", "pgp": 0, "GoBack": 1, "SID": 12011, "NameZh": "Jiaxing Elementray School", "RouteId": 8049, "SeqNo": 26, "Terminal": 0, "DistrictId": 1, "Latitude": 22.82204, "Longitude": 120.30552, "IVRNo": 9577, "EXTVoiceNo": 9141, "traveltime": 0, "holidayTraveltime": 0}, {"Id": "9140", "pgp": 0, "GoBack": 1, "SID": 12012, "NameZh": "Wujiawei", "RouteId": 8049, "SeqNo": 27, "Terminal": 0, "DistrictId": 1, "Latitude": 22.82134, "Longitude": 120.30312, "IVRNo": 9576, "EXTVoiceNo": 9140, "traveltime": 0, "holidayTraveltime": 0}, {"Id": "9139", "pgp": 0, "GoBack": 1, "SID": 12013, "NameZh": "Nanjiasing", "RouteId": 8049, "SeqNo": 28, "Terminal": 0, "DistrictId": 1, "Latitude": 22.81934, "Longitude": 120.30244, "IVRNo": 9575, "EXTVoiceNo": 9139, "traveltime": 0, "holidayTraveltime": 0}, {"Id": "9138", "pgp": 0, "GoBack": 1, "SID": 12014, "NameZh": "Wujiawei Gas Station", "RouteId": 8049, "SeqNo": 29, "Terminal": 0, "DistrictId": 1, "Latitude": 22.81283, "Longitude": 120.30068, "IVRNo": 9574, "EXTVoiceNo": 9138, "traveltime": 0, "holidayTraveltime": 0}, {"Id": "9137", "pgp": 0, "GoBack": 1, "SID": 12015, "NameZh": "Taishang", "RouteId": 8049, "SeqNo": 30, "Terminal": 0, "DistrictId": 1, "Latitude": 22.80804, "Longitude": 120.29868, "IVRNo": 9573, "EXTVoiceNo": 9137, "traveltime": 0, "holidayTraveltime": 0}, {"Id": "9136", "pgp": 0, "GoBack": 1, "SID": 12016, "NameZh": "Taishang St.", "RouteId": 8049, "SeqNo": 31, "Terminal": 0, "DistrictId": 1, "Latitude": 22.80511, "Longitude": 120.29722, "IVRNo": 9572, "EXTVoiceNo": 9136, "traveltime": 0, "holidayTraveltime": 0}, {"Id": "9135", "pgp": 0, "GoBack": 1, "SID": 16889, "NameZh": "Chenggong Rd.", "RouteId": 8049, "SeqNo": 32, "Terminal": 0, "DistrictId": 1, "Latitude": 22.80158, "Longitude": 120.29548, "IVRNo": 9571, "EXTVoiceNo": 9135, "traveltime": 0, "holidayTraveltime": 0}, {"Id": "9134", "pgp": 0, "GoBack": 1, "SID": 8217, "NameZh": "Gangshan District Office", "RouteId": 8049, "SeqNo": 33, "Terminal": 0, "DistrictId": 1, "Latitude": 22.798834, "Longitude": 120.294915, "IVRNo": 9570, "EXTVoiceNo": 9134, "traveltime": 0, "holidayTraveltime": 0}, {"Id": "9133", "pgp": 0, "GoBack": 1, "SID": 12019, "NameZh": "Gangshan Farmers` Association", "RouteId": 8049, "SeqNo": 34, "Terminal": 0, "DistrictId": 1, "Latitude": 22.79535, "Longitude": 120.29564, "IVRNo": 9569, "EXTVoiceNo": 9133, "traveltime": 0, "holidayTraveltime": 0}, {"Id": "0230", "pgp": 0, "GoBack": 1, "SID": 12020, "NameZh": "Wunsian Market", "RouteId": 8049, "SeqNo": 35, "Terminal": 0, "DistrictId": 1, "Latitude": 22.79424, "Longitude": 120.29572, "IVRNo": 8308, "EXTVoiceNo": 20230, "traveltime": 0, "holidayTraveltime": 0}, {"Id": "0731", "pgp": 0, "GoBack": 1, "SID": 16893, "NameZh": "National Immigration Agency", "RouteId": 8049, "SeqNo": 36, "Terminal": 0, "DistrictId": 1, "Latitude": 22.7914, "Longitude": 120.29602, "IVRNo": 9214, "EXTVoiceNo": 20731, "traveltime": 0, "holidayTraveltime": 0}, {"Id": "6151", "pgp": 0, "GoBack": 1, "SID": 14863, "NameZh": "Lijhih New Village", "RouteId": 8049, "SeqNo": 37, "Terminal": 0, "DistrictId": 1, "Latitude": 22.789953, "Longitude": 120.296269, "IVRNo": 9281, "EXTVoiceNo": 26151, "traveltime": 0, "holidayTraveltime": 0}, {"Id": "9129", "pgp": 0, "GoBack": 1, "SID": 16894, "NameZh": "Wunhua St. Intersection", "RouteId": 8049, "SeqNo": 38, "Terminal": 0, "DistrictId": 1, "Latitude": 22.7878, "Longitude": 120.29653, "IVRNo": 9565, "EXTVoiceNo": 9129, "traveltime": 0, "holidayTraveltime": 0}, {"Id": "1110", "pgp": 0, "GoBack": 1, "SID": 16895, "NameZh": "Gangshan Cultural Center", "RouteId": 8049, "SeqNo": 39, "Terminal": 0, "DistrictId": 1, "Latitude": 22.78413, "Longitude": 120.29711, "IVRNo": 9564, "EXTVoiceNo": 21110, "traveltime": 0, "holidayTraveltime": 0}, {"Id": "0828", "pgp": 0, "GoBack": 1, "SID": 11814, "NameZh": "MRT Gangshan South Station", "RouteId": 8049, "SeqNo": 40, "Terminal": 0, "DistrictId": 1, "Latitude": 22.780347, "Longitude": 120.300666, "IVRNo": 828, "EXTVoiceNo": 828, "traveltime": 0, "holidayTraveltime": 0}, {"Id": "2351", "pgp": 0, "GoBack": 1, "SID": 16925, "NameZh": "Daliao Village", "RouteId": 8049, "SeqNo": 41, "Terminal": 0, "DistrictId": 1, "Latitude": 22.77525, "Longitude": 120.30154, "IVRNo": 13343, "EXTVoiceNo": 32351, "traveltime": 0, "holidayTraveltime": 0}, {"Id": "9641", "pgp": 0, "GoBack": 1, "SID": 16898, "NameZh": "Desong Rd. Intersection", "RouteId": 8049, "SeqNo": 42, "Terminal": 0, "DistrictId": 1, "Latitude": 22.763953, "Longitude": 120.307636, "IVRNo": 9541, "EXTVoiceNo": 9641, "traveltime": 0, "holidayTraveltime": 0}, {"Id": "9125", "pgp": 0, "GoBack": 1, "SID": 16899, "NameZh": "MRT Ciaotou Train Station", "RouteId": 8049, "SeqNo": 43, "Terminal": 0, "DistrictId": 1, "Latitude": 22.760793, "Longitude": 120.309259, "IVRNo": 7900, "EXTVoiceNo": 9125, "traveltime": 0, "holidayTraveltime": 0}, {"Id": "2399", "pgp": 0, "GoBack": 1, "SID": 12028, "NameZh": "Ciaotou  Market", "RouteId": 8049, "SeqNo": 44, "Terminal": 0, "DistrictId": 1, "Latitude": 22.76056, "Longitude": 120.30929, "IVRNo": 807, "EXTVoiceNo": 32399, "traveltime": 0, "holidayTraveltime": 0}, {"Id": "0377", "pgp": 0, "GoBack": 1, "SID": 12029, "NameZh": "Chenggong S. Rd.", "RouteId": 8049, "SeqNo": 45, "Terminal": 0, "DistrictId": 1, "Latitude": 22.75075, "Longitude": 120.31388, "IVRNo": 8963, "EXTVoiceNo": 20377, "traveltime": 0, "holidayTraveltime": 0}, {"Id": "2071", "pgp": 0, "GoBack": 1, "SID": 16951, "NameZh": "MRT Cingpu Station (Chenggong S. Rd.)", "RouteId": 8049, "SeqNo": 46, "Terminal": 0, "DistrictId": 1, "Latitude": 22.74368, "Longitude": 120.31702, "IVRNo": 2071, "EXTVoiceNo": 2071, "traveltime": 0, "holidayTraveltime": 0}, {"Id": "1004", "pgp": 0, "GoBack": 1, "SID": 8230, "NameZh": "Motor Vehicle office (Gaonan Rd.)", "RouteId": 8049, "SeqNo": 47, "Terminal": 0, "DistrictId": 1, "Latitude": 22.73252, "Longitude": 120.31989, "IVRNo": 1004, "EXTVoiceNo": 1004, "traveltime": 0, "holidayTraveltime": 0}, {"Id": "1283", "pgp": 0, "GoBack": 1, "SID": 8231, "NameZh": "MRT Metropolitan Park Station", "RouteId": 8049, "SeqNo": 48, "Terminal": 0, "DistrictId": 1, "Latitude": 22.72958, "Longitude": 120.32058, "IVRNo": 1283, "EXTVoiceNo": 1283, "traveltime": 0, "holidayTraveltime": 0}, {"Id": "7074", "pgp": 0, "GoBack": 1, "SID": 8232, "NameZh": "Metal Center", "RouteId": 8049, "SeqNo": 49, "Terminal": 0, "DistrictId": 1, "Latitude": 22.716, "Longitude": 120.32557, "IVRNo": 7074, "EXTVoiceNo": 7074, "traveltime": 0, "holidayTraveltime": 0}, {"Id": "4654", "pgp": 0, "GoBack": 1, "SID": 8233, "NameZh": "Rentian Village", "RouteId": 8049, "SeqNo": 50, "Terminal": 0, "DistrictId": 1, "Latitude": 22.71244, "Longitude": 120.3255, "IVRNo": 4654, "EXTVoiceNo": 4654, "traveltime": 0, "holidayTraveltime": 0}, {"Id": "0163", "pgp": 0, "GoBack": 1, "SID": 8234, "NameZh": "Jhonghua Community", "RouteId": 8049, "SeqNo": 51, "Terminal": 0, "DistrictId": 1, "Latitude": 22.70894, "Longitude": 120.32483, "IVRNo": 7020, "EXTVoiceNo": 20163, "traveltime": 0, "holidayTraveltime": 0}, {"Id": "7932", "pgp": 0, "GoBack": 1, "SID": 16908, "NameZh": "Shueiguan Rd. Intersection (Gaonan Highway)", "RouteId": 8049, "SeqNo": 52, "Terminal": 0, "DistrictId": 1, "Latitude": 22.70436, "Longitude": 120.3239, "IVRNo": 7932, "EXTVoiceNo": 7932, "traveltime": 0, "holidayTraveltime": 0}, {"Id": "4758", "pgp": 0, "GoBack": 1, "SID": 8236, "NameZh": "Banping Mountain (Gaonan Rd.)", "RouteId": 8049, "SeqNo": 53, "Terminal": 0, "DistrictId": 1, "Latitude": 22.70028, "Longitude": 120.32317, "IVRNo": 4730, "EXTVoiceNo": 4758, "traveltime": 0, "holidayTraveltime": 0}, {"Id": "0288", "pgp": 0, "GoBack": 1, "SID": 8237, "NameZh": "Taiwan Times", "RouteId": 8049, "SeqNo": 54, "Terminal": 0, "DistrictId": 1, "Latitude": 22.69784, "Longitude": 120.32268, "IVRNo": 7023, "EXTVoiceNo": 20288, "traveltime": 0, "holidayTraveltime": 0}, {"Id": "7024", "pgp": 0, "GoBack": 1, "SID": 8238, "NameZh": "Gaonan New Village", "RouteId": 8049, "SeqNo": 55, "Terminal": 0, "DistrictId": 1, "Latitude": 22.69235, "Longitude": 120.32162, "IVRNo": 476, "EXTVoiceNo": 7024, "traveltime": 0, "holidayTraveltime": 0}, {"Id": "1870", "pgp": 0, "GoBack": 1, "SID": 8239, "NameZh": "Fubin New Village", "RouteId": 8049, "SeqNo": 56, "Terminal": 0, "DistrictId": 1, "Latitude": 22.68651, "Longitude": 120.3205, "IVRNo": 11870, "EXTVoiceNo": 11870, "traveltime": 0, "holidayTraveltime": 0}, {"Id": "5762", "pgp": 0, "GoBack": 1, "SID": 8240, "NameZh": "Kaohsiung Municipal Hsinchuang Senior High School (Minzu 1st Rd.)", "RouteId": 8049, "SeqNo": 57, "Terminal": 0, "DistrictId": 1, "Latitude": 22.680705, "Longitude": 120.319421, "IVRNo": 5708, "EXTVoiceNo": 5762, "traveltime": 0, "holidayTraveltime": 0}, {"Id": "5206", "pgp": 0, "GoBack": 1, "SID": 13883, "NameZh": "Dajhong Rd. Intersection (Minzu 1st Rd.)", "RouteId": 8049, "SeqNo": 58, "Terminal": 0, "DistrictId": 1, "Latitude": 22.676644, "Longitude": 120.31885, "IVRNo": 2210, "EXTVoiceNo": 5206, "traveltime": 0, "holidayTraveltime": 0}, {"Id": "1043", "pgp": 0, "GoBack": 1, "SID": 16915, "NameZh": "Caigong Rd. Intersection (Minzu 1st Rd.)", "RouteId": 8049, "SeqNo": 59, "Terminal": 0, "DistrictId": 1, "Latitude": 22.67438, "Longitude": 120.31814, "IVRNo": 1043, "EXTVoiceNo": 1043, "traveltime": 0, "holidayTraveltime": 0}, {"Id": "5208", "pgp": 0, "GoBack": 1, "SID": 8243, "NameZh": "Wenzao Ursuline University of Languages  (Minzu 1st Rd.)", "RouteId": 8049, "SeqNo": 60, "Terminal": 0, "DistrictId": 1, "Latitude": 22.670754, "Longitude": 120.317407, "IVRNo": 453, "EXTVoiceNo": 5208, "traveltime": 0, "holidayTraveltime": 0}, {"Id": "5408", "pgp": 0, "GoBack": 1, "SID": 2690, "NameZh": "Tiansiang Rd. Intersection (Minzu 1st Rd..)", "RouteId": 8049, "SeqNo": 61, "Terminal": 0, "DistrictId": 1, "Latitude": 22.667888, "Longitude": 120.316908, "IVRNo": 2213, "EXTVoiceNo": 5408, "traveltime": 0, "holidayTraveltime": 0}, {"Id": "7032", "pgp": 0, "GoBack": 1, "SID": 4629, "NameZh": "Minzu Yucheng Rd. Intersection", "RouteId": 8049, "SeqNo": 62, "Terminal": 0, "DistrictId": 1, "Latitude": 22.664685, "Longitude": 120.316171, "IVRNo": 2214, "EXTVoiceNo": 7032, "traveltime": 0, "holidayTraveltime": 0}, {"Id": "5213", "pgp": 0, "GoBack": 1, "SID": 3927, "NameZh": "Minzu Rd. (Mingcheng Rd. Intersection)", "RouteId": 8049, "SeqNo": 63, "Terminal": 0, "DistrictId": 1, "Latitude": 22.661294, "Longitude": 120.316005, "IVRNo": 43, "EXTVoiceNo": 5213, "traveltime": 0, "holidayTraveltime": 0}, {"Id": "1164", "pgp": 0, "GoBack": 1, "SID": 17206, "NameZh": "Minzu Dashun Rd. Intersection", "RouteId": 8049, "SeqNo": 64, "Terminal": 0, "DistrictId": 1, "Latitude": 22.657673, "Longitude": 120.315572, "IVRNo": 4030, "EXTVoiceNo": 21164, "traveltime": 0, "holidayTraveltime": 0}, {"Id": "5215", "pgp": 0, "GoBack": 1, "SID": 8248, "NameZh": "Longfong Temple", "RouteId": 8049, "SeqNo": 65, "Terminal": 0, "DistrictId": 1, "Latitude": 22.65314, "Longitude": 120.31518, "IVRNo": 5215, "EXTVoiceNo": 5215, "traveltime": 0, "holidayTraveltime": 0}, {"Id": "3447", "pgp": 0, "GoBack": 1, "SID": 17208, "NameZh": "Wanzihnei", "RouteId": 8049, "SeqNo": 66, "Terminal": 0, "DistrictId": 1, "Latitude": 22.64878, "Longitude": 120.314822, "IVRNo": 5216, "EXTVoiceNo": 13447, "traveltime": 0, "holidayTraveltime": 0}, {"Id": "0231", "pgp": 0, "GoBack": 1, "SID": 1785, "NameZh": "Minzu Police Station", "RouteId": 8049, "SeqNo": 67, "Terminal": 0, "DistrictId": 1, "Latitude": 22.647803, "Longitude": 120.316367, "IVRNo": 231, "EXTVoiceNo": 231, "traveltime": 0, "holidayTraveltime": 0}, {"Id": "0230", "pgp": 0, "GoBack": 1, "SID": 1423, "NameZh": "Jiangong Rd.", "RouteId": 8049, "SeqNo": 68, "Terminal": 0, "DistrictId": 1, "Latitude": 22.64845, "Longitude": 120.31914, "IVRNo": 230, "EXTVoiceNo": 230, "traveltime": 0, "holidayTraveltime": 0}, {"Id": "0247", "pgp": 0, "GoBack": 1, "SID": 17210, "NameZh": "Dashun Rd. Intersection (Jiangong Rd.)", "RouteId": 8049, "SeqNo": 69, "Terminal": 0, "DistrictId": 1, "Latitude": 22.649092, "Longitude": 120.322798, "IVRNo": 229, "EXTVoiceNo": 247, "traveltime": 0, "holidayTraveltime": 0}, {"Id": "0228", "pgp": 0, "GoBack": 1, "SID": 1824, "NameZh": "Kaohsiung Municipal Industrial High School", "RouteId": 8049, "SeqNo": 70, "Terminal": 0, "DistrictId": 1, "Latitude": 22.650615, "Longitude": 120.326121, "IVRNo": 228, "EXTVoiceNo": 228, "traveltime": 0, "holidayTraveltime": 0}, {"Id": "0227", "pgp": 0, "GoBack": 1, "SID": 17211, "NameZh": "National Kaohsiung University of Science and Technology(Jiangong)", "RouteId": 8049, "SeqNo": 71, "Terminal": 0, "DistrictId": 1, "Latitude": 22.65145, "Longitude": 120.32781, "IVRNo": 227, "EXTVoiceNo": 227, "traveltime": 0, "holidayTraveltime": 0}, {"Id": "0226", "pgp": 0, "GoBack": 1, "SID": 17212, "NameZh": "Dafong 1st Rd. Intersection", "RouteId": 8049, "SeqNo": 72, "Terminal": 0, "DistrictId": 1, "Latitude": 22.6529, "Longitude": 120.3311, "IVRNo": 226, "EXTVoiceNo": 226, "traveltime": 0, "holidayTraveltime": 0}, {"Id": "0225", "pgp": 0, "GoBack": 1, "SID": 17213, "NameZh": "Benguan Rd. Intersection", "RouteId": 8049, "SeqNo": 73, "Terminal": 0, "DistrictId": 1, "Latitude": 22.655102, "Longitude": 120.335102, "IVRNo": 225, "EXTVoiceNo": 225, "traveltime": 0, "holidayTraveltime": 0}, {"Id": "0227", "pgp": 0, "GoBack": 1, "SID": 17214, "NameZh": "Wunming Lane", "RouteId": 8049, "SeqNo": 74, "Terminal": 0, "DistrictId": 1, "Latitude": 22.65364, "Longitude": 120.33833, "IVRNo": 10445, "EXTVoiceNo": 20227, "traveltime": 0, "holidayTraveltime": 0}, {"Id": "0289", "pgp": 0, "GoBack": 1, "SID": 12205, "NameZh": "Jhengde Buddha Hall", "RouteId": 8049, "SeqNo": 75, "Terminal": 0, "DistrictId": 1, "Latitude": 22.6506, "Longitude": 120.34258, "IVRNo": 289, "EXTVoiceNo": 289, "traveltime": 0, "holidayTraveltime": 0}, {"Id": "3532", "pgp": 0, "GoBack": 1, "SID": 17216, "NameZh": "Dahua Village", "RouteId": 8049, "SeqNo": 76, "Terminal": 0, "DistrictId": 1, "Latitude": 22.64812, "Longitude": 120.34611, "IVRNo": 32356, "EXTVoiceNo": 3532, "traveltime": 0, "holidayTraveltime": 0}, {"Id": "0636", "pgp": 0, "GoBack": 1, "SID": 17220, "NameZh": "Cheng Shiu University (Chengcing Lake)", "RouteId": 8049, "SeqNo": 77, "Terminal": 0, "DistrictId": 1, "Latitude": 22.65143, "Longitude": 120.34914, "IVRNo": 3533, "EXTVoiceNo": 10636, "traveltime": 0, "holidayTraveltime": 0}, {"Id": "3546", "pgp": 0, "GoBack": 1, "SID": 17203, "NameZh": "Chang Gung Rehabilitation buil Ding", "RouteId": 8049, "SeqNo": 78, "Terminal": 0, "DistrictId": 1, "Latitude": 22.650536, "Longitude": 120.352873, "IVRNo": 3546, "EXTVoiceNo": 3546, "traveltime": 0, "holidayTraveltime": 0}, {"Id": "0223", "pgp": 0, "GoBack": 1, "SID": 17205, "NameZh": "Kaohsiung Municipal Wun-Shan Senior High School", "RouteId": 8049, "SeqNo": 79, "Terminal": 0, "DistrictId": 1, "Latitude": 22.648873, "Longitude": 120.353814, "IVRNo": 438, "EXTVoiceNo": 20223, "traveltime": 0, "holidayTraveltime": 0}, {"Id": "3534", "pgp": 0, "GoBack": 1, "SID": 12057, "NameZh": "Chang Gung Memorial Hospital", "RouteId": 8049, "SeqNo": 80, "Terminal": 0, "DistrictId": 1, "Latitude": 22.650933, "Longitude": 120.356409, "IVRNo": 3534, "EXTVoiceNo": 3534, "traveltime": 0, "holidayTraveltime": 0}, {"Id": "0636", "pgp": 0, "GoBack": 1, "SID": 12058, "NameZh": "Cheng Shiu University (Chengcing Lake)", "RouteId": 8049, "SeqNo": 81, "Terminal": 0, "DistrictId": 1, "Latitude": 22.65152, "Longitude": 120.3487, "IVRNo": 3533, "EXTVoiceNo": 10636, "traveltime": 0, "holidayTraveltime": 0}, {"Id": "1170", "pgp": 0, "GoBack": 1, "SID": 12060, "NameZh": "Dahua Village", "RouteId": 8049, "SeqNo": 82, "Terminal": 0, "DistrictId": 1, "Latitude": 22.64684, "Longitude": 120.34701, "IVRNo": 3532, "EXTVoiceNo": 21170, "traveltime": 0, "holidayTraveltime": 0}, {"Id": "3531", "pgp": 0, "GoBack": 1, "SID": 12061, "NameZh": "Chengcing Rd.", "RouteId": 8049, "SeqNo": 83, "Terminal": 0, "DistrictId": 1, "Latitude": 22.64259, "Longitude": 120.34582, "IVRNo": 3531, "EXTVoiceNo": 3531, "traveltime": 0, "holidayTraveltime": 0}, {"Id": "1015", "pgp": 0, "GoBack": 1, "SID": 11874, "NameZh": "Jyuemin Rd. Intersection (Chengcing Rd)", "RouteId": 8049, "SeqNo": 84, "Terminal": 0, "DistrictId": 1, "Latitude": 22.63794, "Longitude": 120.34452, "IVRNo": 1015, "EXTVoiceNo": 1015, "traveltime": 0, "holidayTraveltime": 0}, {"Id": "2498", "pgp": 0, "GoBack": 1, "SID": 17225, "NameZh": "Fongshan Administration Center (Chengcing Rd.)", "RouteId": 8049, "SeqNo": 85, "Terminal": 0, "DistrictId": 1, "Latitude": 22.63041, "Longitude": 120.34446, "IVRNo": 2498, "EXTVoiceNo": 2498, "traveltime": 0, "holidayTraveltime": 0}, {"Id": "2346", "pgp": 0, "GoBack": 1, "SID": 6503, "NameZh": "Feng-Shan Senior High School", "RouteId": 8049, "SeqNo": 86, "Terminal": 0, "DistrictId": 1, "Latitude": 22.62803, "Longitude": 120.34634, "IVRNo": 565, "EXTVoiceNo": 32346, "traveltime": 0, "holidayTraveltime": 0}, {"Id": "0211", "pgp": 0, "GoBack": 1, "SID": 12124, "NameZh": "Home of Highway", "RouteId": 8049, "SeqNo": 87, "Terminal": 0, "DistrictId": 1, "Latitude": 22.62753, "Longitude": 120.35065, "IVRNo": 508, "EXTVoiceNo": 20211, "traveltime": 0, "holidayTraveltime": 0}, {"Id": "0407", "pgp": 0, "GoBack": 1, "SID": 12125, "NameZh": "Simen", "RouteId": 8049, "SeqNo": 88, "Terminal": 0, "DistrictId": 1, "Latitude": 22.62683, "Longitude": 120.35265, "IVRNo": 507, "EXTVoiceNo": 20407, "traveltime": 0, "holidayTraveltime": 0}, {"Id": "9200", "pgp": 0, "GoBack": 1, "SID": 11193, "NameZh": "MRT Fongshan Station", "RouteId": 8049, "SeqNo": 89, "Terminal": 0, "DistrictId": 1, "Latitude": 22.62598, "Longitude": 120.35614, "IVRNo": 9708, "EXTVoiceNo": 9200, "traveltime": 0, "holidayTraveltime": 0}, {"Id": "0083", "pgp": 0, "GoBack": 1, "SID": 12068, "NameZh": "KBus Fongshan Station (Jhongshan Rd.)", "RouteId": 8049, "SeqNo": 90, "Terminal": 1, "DistrictId": 1, "Latitude": 22.62473, "Longitude": 120.356959, "IVRNo": 727, "EXTVoiceNo": 83, "traveltime": 0, "holidayTraveltime": 0}, {"Id": "0083", "pgp": 0, "GoBack": 2, "SID": 11905, "NameZh": "KBus Fongshan Station (Jhongshan Rd.)", "RouteId": 8049, "SeqNo": 1, "Terminal": 0, "DistrictId": 1, "Latitude": 22.624081, "Longitude": 120.356929, "IVRNo": 727, "EXTVoiceNo": 83, "traveltime": 0, "holidayTraveltime": 0}, {"Id": "9200", "pgp": 0, "GoBack": 2, "SID": 8363, "NameZh": "MRT Fongshan Station", "RouteId": 8049, "SeqNo": 2, "Terminal": 0, "DistrictId": 1, "Latitude": 22.626128, "Longitude": 120.355938, "IVRNo": 9708, "EXTVoiceNo": 9200, "traveltime": 0, "holidayTraveltime": 0}, {"Id": "0407", "pgp": 0, "GoBack": 2, "SID": 12070, "NameZh": "Simen", "RouteId": 8049, "SeqNo": 3, "Terminal": 0, "DistrictId": 1, "Latitude": 22.62688, "Longitude": 120.35264, "IVRNo": 507, "EXTVoiceNo": 20407, "traveltime": 0, "holidayTraveltime": 0}, {"Id": "0211", "pgp": 0, "GoBack": 2, "SID": 12071, "NameZh": "Home of Highway", "RouteId": 8049, "SeqNo": 4, "Terminal": 0, "DistrictId": 1, "Latitude": 22.62734, "Longitude": 120.3509, "IVRNo": 508, "EXTVoiceNo": 20211, "traveltime": 0, "holidayTraveltime": 0}, {"Id": "2346", "pgp": 0, "GoBack": 2, "SID": 6466, "NameZh": "Feng-Shan Senior High School", "RouteId": 8049, "SeqNo": 5, "Terminal": 0, "DistrictId": 1, "Latitude": 22.62811, "Longitude": 120.34531, "IVRNo": 565, "EXTVoiceNo": 32346, "traveltime": 0, "holidayTraveltime": 0}, {"Id": "2498", "pgp": 0, "GoBack": 2, "SID": 17044, "NameZh": "Fongshan Administration Center (Chengcing Rd.)", "RouteId": 8049, "SeqNo": 6, "Terminal": 0, "DistrictId": 1, "Latitude": 22.63021, "Longitude": 120.34461, "IVRNo": 2498, "EXTVoiceNo": 2498, "traveltime": 0, "holidayTraveltime": 0}, {"Id": "1015", "pgp": 0, "GoBack": 2, "SID": 8313, "NameZh": "Jyuemin Rd. Intersection (Chengcing Rd)", "RouteId": 8049, "SeqNo": 7, "Terminal": 0, "DistrictId": 1, "Latitude": 22.63732, "Longitude": 120.34485, "IVRNo": 1015, "EXTVoiceNo": 1015, "traveltime": 0, "holidayTraveltime": 0}, {"Id": "3531", "pgp": 0, "GoBack": 2, "SID": 11912, "NameZh": "Chengcing Rd.", "RouteId": 8049, "SeqNo": 8, "Terminal": 0, "DistrictId": 1, "Latitude": 22.64287, "Longitude": 120.34617, "IVRNo": 3531, "EXTVoiceNo": 3531, "traveltime": 0, "holidayTraveltime": 0}, {"Id": "1170", "pgp": 0, "GoBack": 2, "SID": 11913, "NameZh": "Dahua Village", "RouteId": 8049, "SeqNo": 9, "Terminal": 0, "DistrictId": 1, "Latitude": 22.64695, "Longitude": 120.34697, "IVRNo": 3532, "EXTVoiceNo": 21170, "traveltime": 0, "holidayTraveltime": 0}, {"Id": "0636", "pgp": 0, "GoBack": 2, "SID": 17051, "NameZh": "Cheng Shiu University (Chengcing Lake)", "RouteId": 8049, "SeqNo": 10, "Terminal": 0, "DistrictId": 1, "Latitude": 22.651519, "Longitude": 120.3487, "IVRNo": 3533, "EXTVoiceNo": 10636, "traveltime": 0, "holidayTraveltime": 0}, {"Id": "3546", "pgp": 0, "GoBack": 2, "SID": 17064, "NameZh": "Chang Gung Rehabilitation buil Ding", "RouteId": 8049, "SeqNo": 11, "Terminal": 0, "DistrictId": 1, "Latitude": 22.650536, "Longitude": 120.352873, "IVRNo": 3546, "EXTVoiceNo": 3546, "traveltime": 0, "holidayTraveltime": 0}, {"Id": "0223", "pgp": 0, "GoBack": 2, "SID": 17066, "NameZh": "Kaohsiung Municipal Wun-Shan Senior High School", "RouteId": 8049, "SeqNo": 12, "Terminal": 0, "DistrictId": 1, "Latitude": 22.648873, "Longitude": 120.353814, "IVRNo": 438, "EXTVoiceNo": 20223, "traveltime": 0, "holidayTraveltime": 0}, {"Id": "3534", "pgp": 0, "GoBack": 2, "SID": 11916, "NameZh": "Chang Gung Memorial Hospital", "RouteId": 8049, "SeqNo": 13, "Terminal": 0, "DistrictId": 1, "Latitude": 22.650933, "Longitude": 120.356409, "IVRNo": 3534, "EXTVoiceNo": 3534, "traveltime": 0, "holidayTraveltime": 0}, {"Id": "0636", "pgp": 0, "GoBack": 2, "SID": 11915, "NameZh": "Cheng Shiu University (Chengcing Lake)", "RouteId": 8049, "SeqNo": 14, "Terminal": 0, "DistrictId": 1, "Latitude": 22.65143, "Longitude": 120.34914, "IVRNo": 3533, "EXTVoiceNo": 10636, "traveltime": 0, "holidayTraveltime": 0}, {"Id": "3532", "pgp": 0, "GoBack": 2, "SID": 17053, "NameZh": "Dahua Village", "RouteId": 8049, "SeqNo": 15, "Terminal": 0, "DistrictId": 1, "Latitude": 22.64828, "Longitude": 120.34667, "IVRNo": 32356, "EXTVoiceNo": 3532, "traveltime": 0, "holidayTraveltime": 0}, {"Id": "0289", "pgp": 0, "GoBack": 2, "SID": 12180, "NameZh": "Jhengde Buddha Hall", "RouteId": 8049, "SeqNo": 16, "Terminal": 0, "DistrictId": 1, "Latitude": 22.65077, "Longitude": 120.3426, "IVRNo": 289, "EXTVoiceNo": 289, "traveltime": 0, "holidayTraveltime": 0}, {"Id": "0227", "pgp": 0, "GoBack": 2, "SID": 17055, "NameZh": "Wunming Lane", "RouteId": 8049, "SeqNo": 17, "Terminal": 0, "DistrictId": 1, "Latitude": 22.65375, "Longitude": 120.338416, "IVRNo": 10445, "EXTVoiceNo": 20227, "traveltime": 0, "holidayTraveltime": 0}, {"Id": "0225", "pgp": 0, "GoBack": 2, "SID": 17056, "NameZh": "Benguan Rd. Intersection", "RouteId": 8049, "SeqNo": 18, "Terminal": 0, "DistrictId": 1, "Latitude": 22.655326, "Longitude": 120.335421, "IVRNo": 225, "EXTVoiceNo": 225, "traveltime": 0, "holidayTraveltime": 0}, {"Id": "0226", "pgp": 0, "GoBack": 2, "SID": 17057, "NameZh": "Dafong 1st Rd. Intersection", "RouteId": 8049, "SeqNo": 19, "Terminal": 0, "DistrictId": 1, "Latitude": 22.6529, "Longitude": 120.3311, "IVRNo": 226, "EXTVoiceNo": 226, "traveltime": 0, "holidayTraveltime": 0}, {"Id": "0227", "pgp": 0, "GoBack": 2, "SID": 17058, "NameZh": "National Kaohsiung University of Science and Technology(Jiangong)", "RouteId": 8049, "SeqNo": 20, "Terminal": 0, "DistrictId": 1, "Latitude": 22.65178, "Longitude": 120.32799, "IVRNo": 227, "EXTVoiceNo": 227, "traveltime": 0, "holidayTraveltime": 0}, {"Id": "0228", "pgp": 0, "GoBack": 2, "SID": 1411, "NameZh": "Kaohsiung Municipal Industrial High School", "RouteId": 8049, "SeqNo": 21, "Terminal": 0, "DistrictId": 1, "Latitude": 22.65084, "Longitude": 120.326173, "IVRNo": 228, "EXTVoiceNo": 228, "traveltime": 0, "holidayTraveltime": 0}, {"Id": "0247", "pgp": 0, "GoBack": 2, "SID": 17059, "NameZh": "Dashun Rd. Intersection (Jiangong Rd.)", "RouteId": 8049, "SeqNo": 22, "Terminal": 0, "DistrictId": 1, "Latitude": 22.649167, "Longitude": 120.322766, "IVRNo": 229, "EXTVoiceNo": 247, "traveltime": 0, "holidayTraveltime": 0}, {"Id": "0230", "pgp": 0, "GoBack": 2, "SID": 1791, "NameZh": "Jiangong Rd.", "RouteId": 8049, "SeqNo": 23, "Terminal": 0, "DistrictId": 1, "Latitude": 22.648231, "Longitude": 120.318824, "IVRNo": 230, "EXTVoiceNo": 230, "traveltime": 0, "holidayTraveltime": 0}, {"Id": "0231", "pgp": 0, "GoBack": 2, "SID": 1459, "NameZh": "Minzu Police Station", "RouteId": 8049, "SeqNo": 24, "Terminal": 0, "DistrictId": 1, "Latitude": 22.648037, "Longitude": 120.317114, "IVRNo": 231, "EXTVoiceNo": 231, "traveltime": 0, "holidayTraveltime": 0}, {"Id": "3447", "pgp": 0, "GoBack": 2, "SID": 13870, "NameZh": "Wanzihnei", "RouteId": 8049, "SeqNo": 25, "Terminal": 0, "DistrictId": 1, "Latitude": 22.648719, "Longitude": 120.314835, "IVRNo": 5216, "EXTVoiceNo": 13447, "traveltime": 0, "holidayTraveltime": 0}, {"Id": "5215", "pgp": 0, "GoBack": 2, "SID": 8093, "NameZh": "Longfong Temple", "RouteId": 8049, "SeqNo": 26, "Terminal": 0, "DistrictId": 1, "Latitude": 22.65306, "Longitude": 120.31534, "IVRNo": 5215, "EXTVoiceNo": 5215, "traveltime": 0, "holidayTraveltime": 0}, {"Id": "1164", "pgp": 0, "GoBack": 2, "SID": 17063, "NameZh": "Minzu Dashun Rd. Intersection", "RouteId": 8049, "SeqNo": 27, "Terminal": 0, "DistrictId": 1, "Latitude": 22.657316, "Longitude": 120.315714, "IVRNo": 4030, "EXTVoiceNo": 21164, "traveltime": 0, "holidayTraveltime": 0}, {"Id": "5213", "pgp": 0, "GoBack": 2, "SID": 2693, "NameZh": "Minzu Rd. (Mingcheng Rd. Intersection)", "RouteId": 8049, "SeqNo": 28, "Terminal": 0, "DistrictId": 1, "Latitude": 22.661621, "Longitude": 120.315891, "IVRNo": 43, "EXTVoiceNo": 5213, "traveltime": 0, "holidayTraveltime": 0}, {"Id": "7032", "pgp": 0, "GoBack": 2, "SID": 8245, "NameZh": "Minzu Yucheng Rd. Intersection", "RouteId": 8049, "SeqNo": 29, "Terminal": 0, "DistrictId": 1, "Latitude": 22.664938, "Longitude": 120.316375, "IVRNo": 2214, "EXTVoiceNo": 7032, "traveltime": 0, "holidayTraveltime": 0}, {"Id": "5408", "pgp": 0, "GoBack": 2, "SID": 2685, "NameZh": "Tiansiang Rd. Intersection (Minzu 1st Rd..)", "RouteId": 8049, "SeqNo": 30, "Terminal": 0, "DistrictId": 1, "Latitude": 22.667888, "Longitude": 120.316908, "IVRNo": 2213, "EXTVoiceNo": 5408, "traveltime": 0, "holidayTraveltime": 0}, {"Id": "5208", "pgp": 0, "GoBack": 2, "SID": 8098, "NameZh": "Wenzao Ursuline University of Languages  (Minzu 1st Rd.)", "RouteId": 8049, "SeqNo": 31, "Terminal": 0, "DistrictId": 1, "Latitude": 22.67071, "Longitude": 120.3176, "IVRNo": 453, "EXTVoiceNo": 5208, "traveltime": 0, "holidayTraveltime": 0}, {"Id": "1043", "pgp": 0, "GoBack": 2, "SID": 16938, "NameZh": "Caigong Rd. Intersection (Minzu 1st Rd.)", "RouteId": 8049, "SeqNo": 32, "Terminal": 0, "DistrictId": 1, "Latitude": 22.67521, "Longitude": 120.31846, "IVRNo": 1043, "EXTVoiceNo": 1043, "traveltime": 0, "holidayTraveltime": 0}, {"Id": "5206", "pgp": 0, "GoBack": 2, "SID": 3946, "NameZh": "Dajhong Rd. Intersection (Minzu 1st Rd.)", "RouteId": 8049, "SeqNo": 33, "Terminal": 0, "DistrictId": 1, "Latitude": 22.678058, "Longitude": 120.31893, "IVRNo": 2210, "EXTVoiceNo": 5206, "traveltime": 0, "holidayTraveltime": 0}, {"Id": "5762", "pgp": 0, "GoBack": 2, "SID": 8101, "NameZh": "Kaohsiung Municipal Hsinchuang Senior High School (Minzu 1st Rd.)", "RouteId": 8049, "SeqNo": 34, "Terminal": 0, "DistrictId": 1, "Latitude": 22.680723, "Longitude": 120.319529, "IVRNo": 5708, "EXTVoiceNo": 5762, "traveltime": 0, "holidayTraveltime": 0}, {"Id": "1870", "pgp": 0, "GoBack": 2, "SID": 8102, "NameZh": "Fubin New Village", "RouteId": 8049, "SeqNo": 35, "Terminal": 0, "DistrictId": 1, "Latitude": 22.68629, "Longitude": 120.32061, "IVRNo": 11870, "EXTVoiceNo": 11870, "traveltime": 0, "holidayTraveltime": 0}, {"Id": "7024", "pgp": 0, "GoBack": 2, "SID": 8103, "NameZh": "Gaonan New Village", "RouteId": 8049, "SeqNo": 36, "Terminal": 0, "DistrictId": 1, "Latitude": 22.69224, "Longitude": 120.32178, "IVRNo": 476, "EXTVoiceNo": 7024, "traveltime": 0, "holidayTraveltime": 0}, {"Id": "0288", "pgp": 0, "GoBack": 2, "SID": 8104, "NameZh": "Taiwan Times", "RouteId": 8049, "SeqNo": 37, "Terminal": 0, "DistrictId": 1, "Latitude": 22.69786, "Longitude": 120.32285, "IVRNo": 7023, "EXTVoiceNo": 20288, "traveltime": 0, "holidayTraveltime": 0}, {"Id": "4758", "pgp": 0, "GoBack": 2, "SID": 8105, "NameZh": "Banping Mountain (Gaonan Rd.)", "RouteId": 8049, "SeqNo": 38, "Terminal": 0, "DistrictId": 1, "Latitude": 22.70023, "Longitude": 120.3233, "IVRNo": 4730, "EXTVoiceNo": 4758, "traveltime": 0, "holidayTraveltime": 0}, {"Id": "7932", "pgp": 0, "GoBack": 2, "SID": 16946, "NameZh": "Shueiguan Rd. Intersection (Gaonan Highway)", "RouteId": 8049, "SeqNo": 39, "Terminal": 0, "DistrictId": 1, "Latitude": 22.70461, "Longitude": 120.32414, "IVRNo": 7932, "EXTVoiceNo": 7932, "traveltime": 0, "holidayTraveltime": 0}, {"Id": "0163", "pgp": 0, "GoBack": 2, "SID": 8106, "NameZh": "Jhonghua Community", "RouteId": 8049, "SeqNo": 40, "Terminal": 0, "DistrictId": 1, "Latitude": 22.7097, "Longitude": 120.3251, "IVRNo": 7020, "EXTVoiceNo": 20163, "traveltime": 0, "holidayTraveltime": 0}, {"Id": "4654", "pgp": 0, "GoBack": 2, "SID": 8107, "NameZh": "Rentian Village", "RouteId": 8049, "SeqNo": 41, "Terminal": 0, "DistrictId": 1, "Latitude": 22.7126, "Longitude": 120.3257, "IVRNo": 4654, "EXTVoiceNo": 4654, "traveltime": 0, "holidayTraveltime": 0}, {"Id": "7074", "pgp": 0, "GoBack": 2, "SID": 8109, "NameZh": "Metal Center", "RouteId": 8049, "SeqNo": 42, "Terminal": 0, "DistrictId": 1, "Latitude": 22.71576, "Longitude": 120.32581, "IVRNo": 7074, "EXTVoiceNo": 7074, "traveltime": 0, "holidayTraveltime": 0}, {"Id": "7508", "pgp": 0, "GoBack": 2, "SID": 8110, "NameZh": "Gaonan Viaduct (MRT Metropolitan Park Station)", "RouteId": 8049, "SeqNo": 43, "Terminal": 0, "DistrictId": 1, "Latitude": 22.72777, "Longitude": 120.32158, "IVRNo": 7508, "EXTVoiceNo": 7508, "traveltime": 0, "holidayTraveltime": 0}, {"Id": "1004", "pgp": 0, "GoBack": 2, "SID": 8111, "NameZh": "Motor Vehicle office (Gaonan Rd.)", "RouteId": 8049, "SeqNo": 44, "Terminal": 0, "DistrictId": 1, "Latitude": 22.73266, "Longitude": 120.32024, "IVRNo": 1004, "EXTVoiceNo": 1004, "traveltime": 0, "holidayTraveltime": 0}, {"Id": "2071", "pgp": 0, "GoBack": 2, "SID": 16902, "NameZh": "MRT Cingpu Station (Chenggong S. Rd.)", "RouteId": 8049, "SeqNo": 45, "Terminal": 0, "DistrictId": 1, "Latitude": 22.74371, "Longitude": 120.3167, "IVRNo": 2071, "EXTVoiceNo": 2071, "traveltime": 0, "holidayTraveltime": 0}, {"Id": "0377", "pgp": 0, "GoBack": 2, "SID": 11944, "NameZh": "Chenggong S. Rd.", "RouteId": 8049, "SeqNo": 46, "Terminal": 0, "DistrictId": 1, "Latitude": 22.7506, "Longitude": 120.31408, "IVRNo": 8963, "EXTVoiceNo": 20377, "traveltime": 0, "holidayTraveltime": 0}, {"Id": "2399", "pgp": 0, "GoBack": 2, "SID": 11945, "NameZh": "Ciaotou  Market", "RouteId": 8049, "SeqNo": 47, "Terminal": 0, "DistrictId": 1, "Latitude": 22.7607, "Longitude": 120.3091, "IVRNo": 807, "EXTVoiceNo": 32399, "traveltime": 0, "holidayTraveltime": 0}, {"Id": "9125", "pgp": 0, "GoBack": 2, "SID": 16954, "NameZh": "MRT Ciaotou Train Station", "RouteId": 8049, "SeqNo": 48, "Terminal": 0, "DistrictId": 1, "Latitude": 22.760793, "Longitude": 120.309259, "IVRNo": 7900, "EXTVoiceNo": 9125, "traveltime": 0, "holidayTraveltime": 0}, {"Id": "9641", "pgp": 0, "GoBack": 2, "SID": 16955, "NameZh": "Desong Rd. Intersection", "RouteId": 8049, "SeqNo": 49, "Terminal": 0, "DistrictId": 1, "Latitude": 22.763918, "Longitude": 120.307479, "IVRNo": 9541, "EXTVoiceNo": 9641, "traveltime": 0, "holidayTraveltime": 0}, {"Id": "2351", "pgp": 0, "GoBack": 2, "SID": 8706, "NameZh": "Daliao Village", "RouteId": 8049, "SeqNo": 50, "Terminal": 0, "DistrictId": 1, "Latitude": 22.776868, "Longitude": 120.300474, "IVRNo": 13343, "EXTVoiceNo": 32351, "traveltime": 0, "holidayTraveltime": 0}, {"Id": "0828", "pgp": 0, "GoBack": 2, "SID": 11813, "NameZh": "MRT Gangshan South Station", "RouteId": 8049, "SeqNo": 51, "Terminal": 0, "DistrictId": 1, "Latitude": 22.781124, "Longitude": 120.300244, "IVRNo": 828, "EXTVoiceNo": 828, "traveltime": 0, "holidayTraveltime": 0}, {"Id": "1110", "pgp": 0, "GoBack": 2, "SID": 16958, "NameZh": "Gangshan Cultural Center", "RouteId": 8049, "SeqNo": 52, "Terminal": 0, "DistrictId": 1, "Latitude": 22.78406, "Longitude": 120.29732, "IVRNo": 9564, "EXTVoiceNo": 21110, "traveltime": 0, "holidayTraveltime": 0}, {"Id": "9129", "pgp": 0, "GoBack": 2, "SID": 16959, "NameZh": "Wunhua St. Intersection", "RouteId": 8049, "SeqNo": 53, "Terminal": 0, "DistrictId": 1, "Latitude": 22.78859, "Longitude": 120.29659, "IVRNo": 9565, "EXTVoiceNo": 9129, "traveltime": 0, "holidayTraveltime": 0}, {"Id": "6151", "pgp": 0, "GoBack": 2, "SID": 11551, "NameZh": "Lijhih New Village", "RouteId": 8049, "SeqNo": 54, "Terminal": 0, "DistrictId": 1, "Latitude": 22.790276, "Longitude": 120.296366, "IVRNo": 9281, "EXTVoiceNo": 26151, "traveltime": 0, "holidayTraveltime": 0}, {"Id": "0731", "pgp": 0, "GoBack": 2, "SID": 16960, "NameZh": "National Immigration Agency", "RouteId": 8049, "SeqNo": 55, "Terminal": 0, "DistrictId": 1, "Latitude": 22.79138, "Longitude": 120.29621, "IVRNo": 9214, "EXTVoiceNo": 20731, "traveltime": 0, "holidayTraveltime": 0}, {"Id": "0230", "pgp": 0, "GoBack": 2, "SID": 11953, "NameZh": "Wunsian Market", "RouteId": 8049, "SeqNo": 56, "Terminal": 0, "DistrictId": 1, "Latitude": 22.79395, "Longitude": 120.29585, "IVRNo": 8308, "EXTVoiceNo": 20230, "traveltime": 0, "holidayTraveltime": 0}, {"Id": "9133", "pgp": 0, "GoBack": 2, "SID": 11954, "NameZh": "Gangshan Farmers` Association", "RouteId": 8049, "SeqNo": 57, "Terminal": 0, "DistrictId": 1, "Latitude": 22.7954, "Longitude": 120.29585, "IVRNo": 9569, "EXTVoiceNo": 9133, "traveltime": 0, "holidayTraveltime": 0}, {"Id": "9134", "pgp": 0, "GoBack": 2, "SID": 16890, "NameZh": "Gangshan District Office", "RouteId": 8049, "SeqNo": 58, "Terminal": 0, "DistrictId": 1, "Latitude": 22.79866, "Longitude": 120.29514, "IVRNo": 9570, "EXTVoiceNo": 9134, "traveltime": 0, "holidayTraveltime": 0}, {"Id": "9135", "pgp": 0, "GoBack": 2, "SID": 11956, "NameZh": "Chenggong Rd.", "RouteId": 8049, "SeqNo": 59, "Terminal": 0, "DistrictId": 1, "Latitude": 22.80145, "Longitude": 120.2955, "IVRNo": 9571, "EXTVoiceNo": 9135, "traveltime": 0, "holidayTraveltime": 0}, {"Id": "9136", "pgp": 0, "GoBack": 2, "SID": 11957, "NameZh": "Taishang St.", "RouteId": 8049, "SeqNo": 60, "Terminal": 0, "DistrictId": 1, "Latitude": 22.80493, "Longitude": 120.29724, "IVRNo": 9572, "EXTVoiceNo": 9136, "traveltime": 0, "holidayTraveltime": 0}, {"Id": "9137", "pgp": 0, "GoBack": 2, "SID": 11958, "NameZh": "Taishang", "RouteId": 8049, "SeqNo": 61, "Terminal": 0, "DistrictId": 1, "Latitude": 22.80803, "Longitude": 120.29893, "IVRNo": 9573, "EXTVoiceNo": 9137, "traveltime": 0, "holidayTraveltime": 0}, {"Id": "9138", "pgp": 0, "GoBack": 2, "SID": 11959, "NameZh": "Wujiawei Gas Station", "RouteId": 8049, "SeqNo": 62, "Terminal": 0, "DistrictId": 1, "Latitude": 22.81281, "Longitude": 120.30085, "IVRNo": 9574, "EXTVoiceNo": 9138, "traveltime": 0, "holidayTraveltime": 0}, {"Id": "9139", "pgp": 0, "GoBack": 2, "SID": 11960, "NameZh": "Nanjiasing", "RouteId": 8049, "SeqNo": 63, "Terminal": 0, "DistrictId": 1, "Latitude": 22.81903, "Longitude": 120.30249, "IVRNo": 9575, "EXTVoiceNo": 9139, "traveltime": 0, "holidayTraveltime": 0}, {"Id": "9140", "pgp": 0, "GoBack": 2, "SID": 11961, "NameZh": "Wujiawei", "RouteId": 8049, "SeqNo": 64, "Terminal": 0, "DistrictId": 1, "Latitude": 22.821274, "Longitude": 120.303205, "IVRNo": 9576, "EXTVoiceNo": 9140, "traveltime": 0, "holidayTraveltime": 0}, {"Id": "9141", "pgp": 0, "GoBack": 2, "SID": 11962, "NameZh": "Jiaxing Elementray School", "RouteId": 8049, "SeqNo": 65, "Terminal": 0, "DistrictId": 1, "Latitude": 22.821947, "Longitude": 120.30554, "IVRNo": 9577, "EXTVoiceNo": 9141, "traveltime": 0, "holidayTraveltime": 0}, {"Id": "9142", "pgp": 0, "GoBack": 2, "SID": 16971, "NameZh": "Tandi", "RouteId": 8049, "SeqNo": 66, "Terminal": 0, "DistrictId": 1, "Latitude": 22.82593, "Longitude": 120.30999, "IVRNo": 9578, "EXTVoiceNo": 9142, "traveltime": 0, "holidayTraveltime": 0}, {"Id": "2367", "pgp": 0, "GoBack": 2, "SID": 14131, "NameZh": "Jiafong Village Community Center", "RouteId": 8049, "SeqNo": 67, "Terminal": 0, "DistrictId": 1, "Latitude": 22.827958, "Longitude": 120.312087, "IVRNo": 17955, "EXTVoiceNo": 32367, "traveltime": 0, "holidayTraveltime": 0}, {"Id": "9143", "pgp": 0, "GoBack": 2, "SID": 11964, "NameZh": "Jiafong", "RouteId": 8049, "SeqNo": 68, "Terminal": 0, "DistrictId": 1, "Latitude": 22.82986, "Longitude": 120.31382, "IVRNo": 9579, "EXTVoiceNo": 9143, "traveltime": 0, "holidayTraveltime": 0}, {"Id": "6051", "pgp": 0, "GoBack": 2, "SID": 16973, "NameZh": "Tiancuo", "RouteId": 8049, "SeqNo": 69, "Terminal": 0, "DistrictId": 1, "Latitude": 22.83722, "Longitude": 120.31793, "IVRNo": 9580, "EXTVoiceNo": 26051, "traveltime": 0, "holidayTraveltime": 0}, {"Id": "6178", "pgp": 0, "GoBack": 2, "SID": 16974, "NameZh": "Tuku (Alian)", "RouteId": 8049, "SeqNo": 70, "Terminal": 0, "DistrictId": 1, "Latitude": 22.84262, "Longitude": 120.32076, "IVRNo": 9581, "EXTVoiceNo": 26178, "traveltime": 0, "holidayTraveltime": 0}, {"Id": "9146", "pgp": 0, "GoBack": 2, "SID": 11967, "NameZh": "Wayao", "RouteId": 8049, "SeqNo": 71, "Terminal": 0, "DistrictId": 1, "Latitude": 22.84605, "Longitude": 120.32358, "IVRNo": 9582, "EXTVoiceNo": 9146, "traveltime": 0, "holidayTraveltime": 0}, {"Id": "9147", "pgp": 0, "GoBack": 2, "SID": 11968, "NameZh": "Fu-An Elementary School", "RouteId": 8049, "SeqNo": 72, "Terminal": 0, "DistrictId": 1, "Latitude": 22.84889, "Longitude": 120.32449, "IVRNo": 9583, "EXTVoiceNo": 9147, "traveltime": 0, "holidayTraveltime": 0}, {"Id": "9222", "pgp": 0, "GoBack": 2, "SID": 11969, "NameZh": "Jioujiou", "RouteId": 8049, "SeqNo": 73, "Terminal": 0, "DistrictId": 1, "Latitude": 22.85077, "Longitude": 120.32503, "IVRNo": 9853, "EXTVoiceNo": 9222, "traveltime": 0, "holidayTraveltime": 0}, {"Id": "9148", "pgp": 0, "GoBack": 2, "SID": 16978, "NameZh": "Bizihwei (Jhongshan Rd.)", "RouteId": 8049, "SeqNo": 74, "Terminal": 0, "DistrictId": 1, "Latitude": 22.8598, "Longitude": 120.32439, "IVRNo": 9584, "EXTVoiceNo": 9148, "traveltime": 0, "holidayTraveltime": 0}, {"Id": "9149", "pgp": 0, "GoBack": 2, "SID": 11971, "NameZh": "Jhongjia Rd. Intersection", "RouteId": 8049, "SeqNo": 75, "Terminal": 0, "DistrictId": 1, "Latitude": 22.8672, "Longitude": 120.32392, "IVRNo": 9585, "EXTVoiceNo": 9149, "traveltime": 0, "holidayTraveltime": 0}, {"Id": "9150", "pgp": 0, "GoBack": 2, "SID": 11972, "NameZh": "Guande Temple", "RouteId": 8049, "SeqNo": 76, "Terminal": 0, "DistrictId": 1, "Latitude": 22.87119, "Longitude": 120.32522, "IVRNo": 9586, "EXTVoiceNo": 9150, "traveltime": 0, "holidayTraveltime": 0}, {"Id": "9151", "pgp": 0, "GoBack": 2, "SID": 11973, "NameZh": "Nanlian", "RouteId": 8049, "SeqNo": 77, "Terminal": 0, "DistrictId": 1, "Latitude": 22.87503, "Longitude": 120.32686, "IVRNo": 9587, "EXTVoiceNo": 9151, "traveltime": 0, "holidayTraveltime": 0}, {"Id": "1188", "pgp": 0, "GoBack": 2, "SID": 16982, "NameZh": "Alian Jhongshan Rd.", "RouteId": 8049, "SeqNo": 78, "Terminal": 0, "DistrictId": 1, "Latitude": 22.87737, "Longitude": 120.32797, "IVRNo": 737, "EXTVoiceNo": 21188, "traveltime": 0, "holidayTraveltime": 0}, {"Id": "9153", "pgp": 0, "GoBack": 2, "SID": 11975, "NameZh": "Alian Police Station", "RouteId": 8049, "SeqNo": 79, "Terminal": 0, "DistrictId": 1, "Latitude": 22.87877, "Longitude": 120.32931, "IVRNo": 9589, "EXTVoiceNo": 9153, "traveltime": 0, "holidayTraveltime": 0}, {"Id": "9154", "pgp": 0, "GoBack": 2, "SID": 11976, "NameZh": "Alian", "RouteId": 8049, "SeqNo": 80, "Terminal": 0, "DistrictId": 1, "Latitude": 22.879062, "Longitude": 120.33103, "IVRNo": 9590, "EXTVoiceNo": 9154, "traveltime": 0, "holidayTraveltime": 0}, {"Id": "9155", "pgp": 0, "GoBack": 2, "SID": 16985, "NameZh": "Alian Jhongjheng Rd. (Heping Rd. Intersection)", "RouteId": 8049, "SeqNo": 81, "Terminal": 0, "DistrictId": 1, "Latitude": 22.880614, "Longitude": 120.332945, "IVRNo": 7148, "EXTVoiceNo": 9155, "traveltime": 0, "holidayTraveltime": 0}, {"Id": "1187", "pgp": 0, "GoBack": 2, "SID": 11978, "NameZh": "Industrial Park (Alian)", "RouteId": 8049, "SeqNo": 82, "Terminal": 0, "DistrictId": 1, "Latitude": 22.88131, "Longitude": 120.3373, "IVRNo": 477, "EXTVoiceNo": 21187, "traveltime": 0, "holidayTraveltime": 0}, {"Id": "9157", "pgp": 0, "GoBack": 2, "SID": 11979, "NameZh": "Yuansheng Community", "RouteId": 8049, "SeqNo": 83, "Terminal": 0, "DistrictId": 1, "Latitude": 22.88156, "Longitude": 120.33967, "IVRNo": 9593, "EXTVoiceNo": 9157, "traveltime": 0, "holidayTraveltime": 0}, {"Id": "9158", "pgp": 0, "GoBack": 2, "SID": 11980, "NameZh": "Brick Kiln", "RouteId": 8049, "SeqNo": 84, "Terminal": 0, "DistrictId": 1, "Latitude": 22.88165, "Longitude": 120.34215, "IVRNo": 9594, "EXTVoiceNo": 9158, "traveltime": 0, "holidayTraveltime": 0}, {"Id": "9159", "pgp": 0, "GoBack": 2, "SID": 11981, "NameZh": "Dabi", "RouteId": 8049, "SeqNo": 85, "Terminal": 0, "DistrictId": 1, "Latitude": 22.88044, "Longitude": 120.34637, "IVRNo": 10219, "EXTVoiceNo": 9159, "traveltime": 0, "holidayTraveltime": 0}, {"Id": "9160", "pgp": 0, "GoBack": 2, "SID": 11982, "NameZh": "Nangangshan", "RouteId": 8049, "SeqNo": 86, "Terminal": 0, "DistrictId": 1, "Latitude": 22.87821, "Longitude": 120.35001, "IVRNo": 9596, "EXTVoiceNo": 9160, "traveltime": 0, "holidayTraveltime": 0}, {"Id": "9161", "pgp": 0, "GoBack": 2, "SID": 16991, "NameZh": "Fongshan Village", "RouteId": 8049, "SeqNo": 87, "Terminal": 0, "DistrictId": 1, "Latitude": 22.87614, "Longitude": 120.35348, "IVRNo": 9597, "EXTVoiceNo": 9161, "traveltime": 0, "holidayTraveltime": 0}, {"Id": "9162", "pgp": 0, "GoBack": 2, "SID": 11984, "NameZh": "Gangshantou", "RouteId": 8049, "SeqNo": 88, "Terminal": 0, "DistrictId": 1, "Latitude": 22.87457, "Longitude": 120.35587, "IVRNo": 9598, "EXTVoiceNo": 9162, "traveltime": 0, "holidayTraveltime": 0}, {"Id": "9163", "pgp": 0, "GoBack": 2, "SID": 11985, "NameZh": "Gangshantou Hot Spring", "RouteId": 8049, "SeqNo": 89, "Terminal": 0, "DistrictId": 1, "Latitude": 22.87404, "Longitude": 120.356962, "IVRNo": 9599, "EXTVoiceNo": 9163, "traveltime": 0, "holidayTraveltime": 0}, {"Id": "9164", "pgp": 0, "GoBack": 2, "SID": 11986, "NameZh": "Gangan Rd.", "RouteId": 8049, "SeqNo": 90, "Terminal": 1, "DistrictId": 1, "Latitude": 22.872795, "Longitude": 120.358777, "IVRNo": 9600, "EXTVoiceNo": 9164, "traveltime": 0, "holidayTraveltime": 0}], "zh": [{"Id": "9164", "pgp": 0, "GoBack": 1, "SID": 11987, "NameZh": "\u5d17\u5b89\u8def", "RouteId": 8049, "SeqNo": 1, "Terminal": 0, "DistrictId": 1, "Latitude": 22.87285, "Longitude": 120.35893, "IVRNo": 9600, "EXTVoiceNo": 9164, "traveltime": 0, "holidayTraveltime": 0}, {"Id": "9163", "pgp": 0, "GoBack": 1, "SID": 11988, "NameZh": "\u5d17\u5c71\u982d\u6eab\u6cc9", "RouteId": 8049, "SeqNo": 2, "Terminal": 0, "DistrictId": 1, "Latitude": 22.87423, "Longitude": 120.35702, "IVRNo": 9599, "EXTVoiceNo": 9163, "traveltime": 0, "holidayTraveltime": 0}, {"Id": "9162", "pgp": 0, "GoBack": 1, "SID": 11989, "NameZh": "\u5d17\u5c71\u982d", "RouteId": 8049, "SeqNo": 3, "Terminal": 0, "DistrictId": 1, "Latitude": 22.87469, "Longitude": 120.35589, "IVRNo": 9598, "EXTVoiceNo": 9162, "traveltime": 0, "holidayTraveltime": 0}, {"Id": "9161", "pgp": 0, "GoBack": 1, "SID": 16862, "NameZh": "\u5cf0\u5c71\u91cc", "RouteId": 8049, "SeqNo": 4, "Terminal": 0, "DistrictId": 1, "Latitude": 22.87626, "Longitude": 120.35349, "IVRNo": 9597, "EXTVoiceNo": 9161, "traveltime": 0, "holidayTraveltime": 0}, {"Id": "9160", "pgp": 0, "GoBack": 1, "SID": 11991, "NameZh": "\u5357\u5d17\u5c71", "RouteId": 8049, "SeqNo": 5, "Terminal": 0, "DistrictId": 1, "Latitude": 22.87835, "Longitude": 120.35001, "IVRNo": 9596, "EXTVoiceNo": 9160, "traveltime": 0, "holidayTraveltime": 0}, {"Id": "9159", "pgp": 0, "GoBack": 1, "SID": 11992, "NameZh": "\u5927\u57e4", "RouteId": 8049, "SeqNo": 6, "Terminal": 0, "DistrictId": 1, "Latitude": 22.88051, "Longitude": 120.34653, "IVRNo": 10219, "EXTVoiceNo": 9159, "traveltime": 0, "holidayTraveltime": 0}, {"Id": "9158", "pgp": 0, "GoBack": 1, "SID": 11993, "NameZh": "\u78da\u5b50\u7aaf", "RouteId": 8049, "SeqNo": 7, "Terminal": 0, "DistrictId": 1, "Latitude": 22.88185, "Longitude": 120.34181, "IVRNo": 9594, "EXTVoiceNo": 9158, "traveltime": 0, "holidayTraveltime": 0}, {"Id": "9157", "pgp": 0, "GoBack": 1, "SID": 11994, "NameZh": "\u6e90\u52dd\u793e\u5340", "RouteId": 8049, "SeqNo": 8, "Terminal": 0, "DistrictId": 1, "Latitude": 22.88169, "Longitude": 120.33921, "IVRNo": 9593, "EXTVoiceNo": 9157, "traveltime": 0, "holidayTraveltime": 0}, {"Id": "1187", "pgp": 0, "GoBack": 1, "SID": 11995, "NameZh": "\u5de5\u696d\u5340(\u963f\u84ee)", "RouteId": 8049, "SeqNo": 9, "Terminal": 0, "DistrictId": 1, "Latitude": 22.88138, "Longitude": 120.33721, "IVRNo": 477, "EXTVoiceNo": 21187, "traveltime": 0, "holidayTraveltime": 0}, {"Id": "9155", "pgp": 0, "GoBack": 1, "SID": 16868, "NameZh": "\u963f\u84ee\u4e2d\u6b63\u8def(\u548c\u5e73\u8def\u53e3)", "RouteId": 8049, "SeqNo": 10, "Terminal": 0, "DistrictId": 1, "Latitude": 22.88087, "Longitude": 120.33293, "IVRNo": 7148, "EXTVoiceNo": 9155, "traveltime": 0, "holidayTraveltime": 0}, {"Id": "9154", "pgp": 0, "GoBack": 1, "SID": 11997, "NameZh": "\u963f\u84ee", "RouteId": 8049, "SeqNo": 11, "Terminal": 0, "DistrictId": 1, "Latitude": 22.87914, "Longitude": 120.33137, "IVRNo": 9590, "EXTVoiceNo": 9154, "traveltime": 0, "holidayTraveltime": 0}, {"Id": "9153", "pgp": 0, "GoBack": 1, "SID": 11998, "NameZh": "\u963f\u84ee\u5206\u99d0\u6240", "RouteId": 8049, "SeqNo": 12, "Terminal": 0, "DistrictId": 1, "Latitude": 22.878948, "Longitude": 120.329406, "IVRNo": 9589, "EXTVoiceNo": 9153, "traveltime": 0, "holidayTraveltime": 0}, {"Id": "1188", "pgp": 0, "GoBack": 1, "SID": 16871, "NameZh": "\u963f\u84ee\u4e2d\u5c71\u8def", "RouteId": 8049, "SeqNo": 13, "Terminal": 0, "DistrictId": 1, "Latitude": 22.87752, "Longitude": 120.3278, "IVRNo": 737, "EXTVoiceNo": 21188, "traveltime": 0, "holidayTraveltime": 0}, {"Id": "9151", "pgp": 0, "GoBack": 1, "SID": 12000, "NameZh": "\u5357\u84ee", "RouteId": 8049, "SeqNo": 14, "Terminal": 0, "DistrictId": 1, "Latitude": 22.87545, "Longitude": 120.32689, "IVRNo": 9587, "EXTVoiceNo": 9151, "traveltime": 0, "holidayTraveltime": 0}, {"Id": "9150", "pgp": 0, "GoBack": 1, "SID": 12001, "NameZh": "\u5149\u5fb7\u5bfa", "RouteId": 8049, "SeqNo": 15, "Terminal": 0, "DistrictId": 1, "Latitude": 22.87149, "Longitude": 120.32523, "IVRNo": 9586, "EXTVoiceNo": 9150, "traveltime": 0, "holidayTraveltime": 0}, {"Id": "9149", "pgp": 0, "GoBack": 1, "SID": 12002, "NameZh": "\u4e2d\u7532\u8def\u53e3", "RouteId": 8049, "SeqNo": 16, "Terminal": 0, "DistrictId": 1, "Latitude": 22.86679, "Longitude": 120.32377, "IVRNo": 9585, "EXTVoiceNo": 9149, "traveltime": 0, "holidayTraveltime": 0}, {"Id": "9148", "pgp": 0, "GoBack": 1, "SID": 16875, "NameZh": "\u57e4\u5b50\u5c3e(\u4e2d\u5c71\u8def)", "RouteId": 8049, "SeqNo": 17, "Terminal": 0, "DistrictId": 1, "Latitude": 22.8599, "Longitude": 120.32429, "IVRNo": 9584, "EXTVoiceNo": 9148, "traveltime": 0, "holidayTraveltime": 0}, {"Id": "9222", "pgp": 0, "GoBack": 1, "SID": 12004, "NameZh": "\u4e5d\u9b2e", "RouteId": 8049, "SeqNo": 18, "Terminal": 0, "DistrictId": 1, "Latitude": 22.85043, "Longitude": 120.32479, "IVRNo": 9853, "EXTVoiceNo": 9222, "traveltime": 0, "holidayTraveltime": 0}, {"Id": "9147", "pgp": 0, "GoBack": 1, "SID": 12005, "NameZh": "\u5fa9\u5b89\u570b\u5c0f", "RouteId": 8049, "SeqNo": 19, "Terminal": 0, "DistrictId": 1, "Latitude": 22.84874, "Longitude": 120.3243, "IVRNo": 9583, "EXTVoiceNo": 9147, "traveltime": 0, "holidayTraveltime": 0}, {"Id": "9146", "pgp": 0, "GoBack": 1, "SID": 12006, "NameZh": "\u74e6\u7aaf", "RouteId": 8049, "SeqNo": 20, "Terminal": 0, "DistrictId": 1, "Latitude": 22.84637, "Longitude": 120.3235, "IVRNo": 9582, "EXTVoiceNo": 9146, "traveltime": 0, "holidayTraveltime": 0}, {"Id": "6178", "pgp": 0, "GoBack": 1, "SID": 16879, "NameZh": "\u571f\u5eab(\u963f\u84ee)", "RouteId": 8049, "SeqNo": 21, "Terminal": 0, "DistrictId": 1, "Latitude": 22.84263, "Longitude": 120.32059, "IVRNo": 9581, "EXTVoiceNo": 26178, "traveltime": 0, "holidayTraveltime": 0}, {"Id": "6051", "pgp": 0, "GoBack": 1, "SID": 16880, "NameZh": "\u7530\u539d", "RouteId": 8049, "SeqNo": 22, "Terminal": 0, "DistrictId": 1, "Latitude": 22.83734, "Longitude": 120.31775, "IVRNo": 9580, "EXTVoiceNo": 26051, "traveltime": 0, "holidayTraveltime": 0}, {"Id": "9143", "pgp": 0, "GoBack": 1, "SID": 12009, "NameZh": "\u5609\u5cf0", "RouteId": 8049, "SeqNo": 23, "Terminal": 0, "DistrictId": 1, "Latitude": 22.82973, "Longitude": 120.31354, "IVRNo": 9579, "EXTVoiceNo": 9143, "traveltime": 0, "holidayTraveltime": 0}, {"Id": "2367", "pgp": 0, "GoBack": 1, "SID": 14043, "NameZh": "\u5609\u5cf0\u91cc\u6d3b\u52d5\u4e2d\u5fc3", "RouteId": 8049, "SeqNo": 24, "Terminal": 0, "DistrictId": 1, "Latitude": 22.827907, "Longitude": 120.311942, "IVRNo": 17955, "EXTVoiceNo": 32367, "traveltime": 0, "holidayTraveltime": 0}, {"Id": "9142", "pgp": 0, "GoBack": 1, "SID": 16882, "NameZh": "\u6f6d\u5e95", "RouteId": 8049, "SeqNo": 25, "Terminal": 0, "DistrictId": 1, "Latitude": 22.825807, "Longitude": 120.30967, "IVRNo": 9578, "EXTVoiceNo": 9142, "traveltime": 0, "holidayTraveltime": 0}, {"Id": "9141", "pgp": 0, "GoBack": 1, "SID": 12011, "NameZh": "\u5609\u8208\u570b\u5c0f", "RouteId": 8049, "SeqNo": 26, "Terminal": 0, "DistrictId": 1, "Latitude": 22.82204, "Longitude": 120.30552, "IVRNo": 9577, "EXTVoiceNo": 9141, "traveltime": 0, "holidayTraveltime": 0}, {"Id": "9140", "pgp": 0, "GoBack": 1, "SID": 12012, "NameZh": "\u4e94\u7532\u5c3e", "RouteId": 8049, "SeqNo": 27, "Terminal": 0, "DistrictId": 1, "Latitude": 22.82134, "Longitude": 120.30312, "IVRNo": 9576, "EXTVoiceNo": 9140, "traveltime": 0, "holidayTraveltime": 0}, {"Id": "9139", "pgp": 0, "GoBack": 1, "SID": 12013, "NameZh": "\u5357\u5609\u8208", "RouteId": 8049, "SeqNo": 28, "Terminal": 0, "DistrictId": 1, "Latitude": 22.81934, "Longitude": 120.30244, "IVRNo": 9575, "EXTVoiceNo": 9139, "traveltime": 0, "holidayTraveltime": 0}, {"Id": "9138", "pgp": 0, "GoBack": 1, "SID": 12014, "NameZh": "\u4e94\u7532\u5c3e\u52a0\u6cb9\u7ad9", "RouteId": 8049, "SeqNo": 29, "Terminal": 0, "DistrictId": 1, "Latitude": 22.81283, "Longitude": 120.30068, "IVRNo": 9574, "EXTVoiceNo": 9138, "traveltime": 0, "holidayTraveltime": 0}, {"Id": "9137", "pgp": 0, "GoBack": 1, "SID": 12015, "NameZh": "\u53f0\u4e0a", "RouteId": 8049, "SeqNo": 30, "Terminal": 0, "DistrictId": 1, "Latitude": 22.80804, "Longitude": 120.29868, "IVRNo": 9573, "EXTVoiceNo": 9137, "traveltime": 0, "holidayTraveltime": 0}, {"Id": "9136", "pgp": 0, "GoBack": 1, "SID": 12016, "NameZh": "\u53f0\u4e0a\u8857", "RouteId": 8049, "SeqNo": 31, "Terminal": 0, "DistrictId": 1, "Latitude": 22.80511, "Longitude": 120.29722, "IVRNo": 9572, "EXTVoiceNo": 9136, "traveltime": 0, "holidayTraveltime": 0}, {"Id": "9135", "pgp": 0, "GoBack": 1, "SID": 16889, "NameZh": "\u6210\u529f\u8def", "RouteId": 8049, "SeqNo": 32, "Terminal": 0, "DistrictId": 1, "Latitude": 22.80158, "Longitude": 120.29548, "IVRNo": 9571, "EXTVoiceNo": 9135, "traveltime": 0, "holidayTraveltime": 0}, {"Id": "9134", "pgp": 0, "GoBack": 1, "SID": 8217, "NameZh": "\u5ca1\u5c71\u5340\u516c\u6240", "RouteId": 8049, "SeqNo": 33, "Terminal": 0, "DistrictId": 1, "Latitude": 22.798834, "Longitude": 120.294915, "IVRNo": 9570, "EXTVoiceNo": 9134, "traveltime": 0, "holidayTraveltime": 0}, {"Id": "9133", "pgp": 0, "GoBack": 1, "SID": 12019, "NameZh": "\u5ca1\u5c71\u8fb2\u6703", "RouteId": 8049, "SeqNo": 34, "Terminal": 0, "DistrictId": 1, "Latitude": 22.79535, "Longitude": 120.29564, "IVRNo": 9569, "EXTVoiceNo": 9133, "traveltime": 0, "holidayTraveltime": 0}, {"Id": "0230", "pgp": 0, "GoBack": 1, "SID": 12020, "NameZh": "\u6587\u8ce2\u5e02\u5834", "RouteId": 8049, "SeqNo": 35, "Terminal": 0, "DistrictId": 1, "Latitude": 22.79424, "Longitude": 120.29572, "IVRNo": 8308, "EXTVoiceNo": 20230, "traveltime": 0, "holidayTraveltime": 0}, {"Id": "0731", "pgp": 0, "GoBack": 1, "SID": 16893, "NameZh": "\u79fb\u6c11\u7f72", "RouteId": 8049, "SeqNo": 36, "Terminal": 0, "DistrictId": 1, "Latitude": 22.7914, "Longitude": 120.29602, "IVRNo": 9214, "EXTVoiceNo": 20731, "traveltime": 0, "holidayTraveltime": 0}, {"Id": "6151", "pgp": 0, "GoBack": 1, "SID": 14863, "NameZh": "\u52f5\u5fd7\u65b0\u57ce", "RouteId": 8049, "SeqNo": 37, "Terminal": 0, "DistrictId": 1, "Latitude": 22.789953, "Longitude": 120.296269, "IVRNo": 9281, "EXTVoiceNo": 26151, "traveltime": 0, "holidayTraveltime": 0}, {"Id": "9129", "pgp": 0, "GoBack": 1, "SID": 16894, "NameZh": "\u6587\u5316\u8857\u53e3", "RouteId": 8049, "SeqNo": 38, "Terminal": 0, "DistrictId": 1, "Latitude": 22.7878, "Longitude": 120.29653, "IVRNo": 9565, "EXTVoiceNo": 9129, "traveltime": 0, "holidayTraveltime": 0}, {"Id": "1110", "pgp": 0, "GoBack": 1, "SID": 16895, "NameZh": "\u5ca1\u5c71\u6587\u5316\u4e2d\u5fc3", "RouteId": 8049, "SeqNo": 39, "Terminal": 0, "DistrictId": 1, "Latitude": 22.78413, "Longitude": 120.29711, "IVRNo": 9564, "EXTVoiceNo": 21110, "traveltime": 0, "holidayTraveltime": 0}, {"Id": "0828", "pgp": 0, "GoBack": 1, "SID": 11814, "NameZh": "\u6377\u904b\u5357\u5ca1\u5c71\u7ad9", "RouteId": 8049, "SeqNo": 40, "Terminal": 0, "DistrictId": 1, "Latitude": 22.780347, "Longitude": 120.300666, "IVRNo": 828, "EXTVoiceNo": 828, "traveltime": 0, "holidayTraveltime": 0}, {"Id": "2351", "pgp": 0, "GoBack": 1, "SID": 16925, "NameZh": "\u5927\u907c\u91cc", "RouteId": 8049, "SeqNo": 41, "Terminal": 0, "DistrictId": 1, "Latitude": 22.77525, "Longitude": 120.30154, "IVRNo": 13343, "EXTVoiceNo": 32351, "traveltime": 0, "holidayTraveltime": 0}, {"Id": "9641", "pgp": 0, "GoBack": 1, "SID": 16898, "NameZh": "\u5fb7\u677e\u8def\u53e3", "RouteId": 8049, "SeqNo": 42, "Terminal": 0, "DistrictId": 1, "Latitude": 22.763953, "Longitude": 120.307636, "IVRNo": 9541, "EXTVoiceNo": 9641, "traveltime": 0, "holidayTraveltime": 0}, {"Id": "9125", "pgp": 0, "GoBack": 1, "SID": 16899, "NameZh": "\u6377\u904b\u6a4b\u982d\u706b\u8eca\u7ad9", "RouteId": 8049, "SeqNo": 43, "Terminal": 0, "DistrictId": 1, "Latitude": 22.760793, "Longitude": 120.309259, "IVRNo": 7900, "EXTVoiceNo": 9125, "traveltime": 0, "holidayTraveltime": 0}, {"Id": "2399", "pgp": 0, "GoBack": 1, "SID": 12028, "NameZh": "\u6a4b\u982d\u5e02\u5834", "RouteId": 8049, "SeqNo": 44, "Terminal": 0, "DistrictId": 1, "Latitude": 22.76056, "Longitude": 120.30929, "IVRNo": 807, "EXTVoiceNo": 32399, "traveltime": 0, "holidayTraveltime": 0}, {"Id": "0377", "pgp": 0, "GoBack": 1, "SID": 12029, "NameZh": "\u6210\u529f\u5357\u8def", "RouteId": 8049, "SeqNo": 45, "Terminal": 0, "DistrictId": 1, "Latitude": 22.75075, "Longitude": 120.31388, "IVRNo": 8963, "EXTVoiceNo": 20377, "traveltime": 0, "holidayTraveltime": 0}, {"Id": "2071", "pgp": 0, "GoBack": 1, "SID": 16951, "NameZh": "\u6377\u904b\u9752\u57d4\u7ad9(\u6210\u529f\u5357\u8def)", "RouteId": 8049, "SeqNo": 46, "Terminal": 0, "DistrictId": 1, "Latitude": 22.74368, "Longitude": 120.31702, "IVRNo": 2071, "EXTVoiceNo": 2071, "traveltime": 0, "holidayTraveltime": 0}, {"Id": "1004", "pgp": 0, "GoBack": 1, "SID": 8230, "NameZh": "\u76e3\u7406\u6240(\u9ad8\u6960\u8def)", "RouteId": 8049, "SeqNo": 47, "Terminal": 0, "DistrictId": 1, "Latitude": 22.73252, "Longitude": 120.31989, "IVRNo": 1004, "EXTVoiceNo": 1004, "traveltime": 0, "holidayTraveltime": 0}, {"Id": "1283", "pgp": 0, "GoBack": 1, "SID": 8231, "NameZh": "\u6377\u904b\u90fd\u6703\u516c\u5712\u7ad9", "RouteId": 8049, "SeqNo": 48, "Terminal": 0, "DistrictId": 1, "Latitude": 22.72958, "Longitude": 120.32058, "IVRNo": 1283, "EXTVoiceNo": 1283, "traveltime": 0, "holidayTraveltime": 0}, {"Id": "7074", "pgp": 0, "GoBack": 1, "SID": 8232, "NameZh": "\u91d1\u5c6c\u4e2d\u5fc3", "RouteId": 8049, "SeqNo": 49, "Terminal": 0, "DistrictId": 1, "Latitude": 22.716, "Longitude": 120.32557, "IVRNo": 7074, "EXTVoiceNo": 7074, "traveltime": 0, "holidayTraveltime": 0}, {"Id": "4654", "pgp": 0, "GoBack": 1, "SID": 8233, "NameZh": "\u7a14\u7530\u91cc", "RouteId": 8049, "SeqNo": 50, "Terminal": 0, "DistrictId": 1, "Latitude": 22.71244, "Longitude": 120.3255, "IVRNo": 4654, "EXTVoiceNo": 4654, "traveltime": 0, "holidayTraveltime": 0}, {"Id": "0163", "pgp": 0, "GoBack": 1, "SID": 8234, "NameZh": "\u4e2d\u83ef\u793e\u5340", "RouteId": 8049, "SeqNo": 51, "Terminal": 0, "DistrictId": 1, "Latitude": 22.70894, "Longitude": 120.32483, "IVRNo": 7020, "EXTVoiceNo": 20163, "traveltime": 0, "holidayTraveltime": 0}, {"Id": "7932", "pgp": 0, "GoBack": 1, "SID": 16908, "NameZh": "\u6c34\u7ba1\u8def\u53e3(\u9ad8\u6960\u516c\u8def)", "RouteId": 8049, "SeqNo": 52, "Terminal": 0, "DistrictId": 1, "Latitude": 22.70436, "Longitude": 120.3239, "IVRNo": 7932, "EXTVoiceNo": 7932, "traveltime": 0, "holidayTraveltime": 0}, {"Id": "4758", "pgp": 0, "GoBack": 1, "SID": 8236, "NameZh": "\u534a\u5c4f\u5c71(\u9ad8\u6960\u8def)", "RouteId": 8049, "SeqNo": 53, "Terminal": 0, "DistrictId": 1, "Latitude": 22.70028, "Longitude": 120.32317, "IVRNo": 4730, "EXTVoiceNo": 4758, "traveltime": 0, "holidayTraveltime": 0}, {"Id": "0288", "pgp": 0, "GoBack": 1, "SID": 8237, "NameZh": "\u53f0\u7063\u6642\u5831", "RouteId": 8049, "SeqNo": 54, "Terminal": 0, "DistrictId": 1, "Latitude": 22.69784, "Longitude": 120.32268, "IVRNo": 7023, "EXTVoiceNo": 20288, "traveltime": 0, "holidayTraveltime": 0}, {"Id": "7024", "pgp": 0, "GoBack": 1, "SID": 8238, "NameZh": "\u9ad8\u6960\u65b0\u6751", "RouteId": 8049, "SeqNo": 55, "Terminal": 0, "DistrictId": 1, "Latitude": 22.69235, "Longitude": 120.32162, "IVRNo": 476, "EXTVoiceNo": 7024, "traveltime": 0, "holidayTraveltime": 0}, {"Id": "1870", "pgp": 0, "GoBack": 1, "SID": 8239, "NameZh": "\u798f\u6ab3\u65b0\u6751", "RouteId": 8049, "SeqNo": 56, "Terminal": 0, "DistrictId": 1, "Latitude": 22.68651, "Longitude": 120.3205, "IVRNo": 11870, "EXTVoiceNo": 11870, "traveltime": 0, "holidayTraveltime": 0}, {"Id": "5762", "pgp": 0, "GoBack": 1, "SID": 8240, "NameZh": "\u65b0\u838a\u9ad8\u4e2d(\u6c11\u65cf\u4e00\u8def)", "RouteId": 8049, "SeqNo": 57, "Terminal": 0, "DistrictId": 1, "Latitude": 22.680705, "Longitude": 120.319421, "IVRNo": 5708, "EXTVoiceNo": 5762, "traveltime": 0, "holidayTraveltime": 0}, {"Id": "5206", "pgp": 0, "GoBack": 1, "SID": 13883, "NameZh": "\u5927\u4e2d\u8def\u53e3(\u6c11\u65cf\u4e00\u8def)", "RouteId": 8049, "SeqNo": 58, "Terminal": 0, "DistrictId": 1, "Latitude": 22.676644, "Longitude": 120.31885, "IVRNo": 2210, "EXTVoiceNo": 5206, "traveltime": 0, "holidayTraveltime": 0}, {"Id": "1043", "pgp": 0, "GoBack": 1, "SID": 16915, "NameZh": "\u83dc\u516c\u8def\u53e3(\u6c11\u65cf\u4e00\u8def)", "RouteId": 8049, "SeqNo": 59, "Terminal": 0, "DistrictId": 1, "Latitude": 22.67438, "Longitude": 120.31814, "IVRNo": 1043, "EXTVoiceNo": 1043, "traveltime": 0, "holidayTraveltime": 0}, {"Id": "5208", "pgp": 0, "GoBack": 1, "SID": 8243, "NameZh": "\u6587\u85fb\u5916\u8a9e\u5927\u5b78(\u6c11\u65cf\u4e00\u8def)", "RouteId": 8049, "SeqNo": 60, "Terminal": 0, "DistrictId": 1, "Latitude": 22.670754, "Longitude": 120.317407, "IVRNo": 453, "EXTVoiceNo": 5208, "traveltime": 0, "holidayTraveltime": 0}, {"Id": "5408", "pgp": 0, "GoBack": 1, "SID": 2690, "NameZh": "\u5929\u7965\u8def\u53e3(\u6c11\u65cf\u4e00\u8def)", "RouteId": 8049, "SeqNo": 61, "Terminal": 0, "DistrictId": 1, "Latitude": 22.667888, "Longitude": 120.316908, "IVRNo": 2213, "EXTVoiceNo": 5408, "traveltime": 0, "holidayTraveltime": 0}, {"Id": "7032", "pgp": 0, "GoBack": 1, "SID": 4629, "NameZh": "\u6c11\u65cf\u88d5\u8aa0\u8def\u53e3", "RouteId": 8049, "SeqNo": 62, "Terminal": 0, "DistrictId": 1, "Latitude": 22.664685, "Longitude": 120.316171, "IVRNo": 2214, "EXTVoiceNo": 7032, "traveltime": 0, "holidayTraveltime": 0}, {"Id": "5213", "pgp": 0, "GoBack": 1, "SID": 3927, "NameZh": "\u6c11\u65cf\u8def(\u660e\u8aa0\u8def\u53e3)", "RouteId": 8049, "SeqNo": 63, "Terminal": 0, "DistrictId": 1, "Latitude": 22.661294, "Longitude": 120.316005, "IVRNo": 43, "EXTVoiceNo": 5213, "traveltime": 0, "holidayTraveltime": 0}, {"Id": "1164", "pgp": 0, "GoBack": 1, "SID": 17206, "NameZh": "\u6c11\u65cf\u5927\u9806\u8def\u53e3", "RouteId": 8049, "SeqNo": 64, "Terminal": 0, "DistrictId": 1, "Latitude": 22.657673, "Longitude": 120.315572, "IVRNo": 4030, "EXTVoiceNo": 21164, "traveltime": 0, "holidayTraveltime": 0}, {"Id": "5215", "pgp": 0, "GoBack": 1, "SID": 8248, "NameZh": "\u9686\u5cf0\u5bfa", "RouteId": 8049, "SeqNo": 65, "Terminal": 0, "DistrictId": 1, "Latitude": 22.65314, "Longitude": 120.31518, "IVRNo": 5215, "EXTVoiceNo": 5215, "traveltime": 0, "holidayTraveltime": 0}, {"Id": "3447", "pgp": 0, "GoBack": 1, "SID": 17208, "NameZh": "\u7063\u4ed4\u5167", "RouteId": 8049, "SeqNo": 66, "Terminal": 0, "DistrictId": 1, "Latitude": 22.64878, "Longitude": 120.314822, "IVRNo": 5216, "EXTVoiceNo": 13447, "traveltime": 0, "holidayTraveltime": 0}, {"Id": "0231", "pgp": 0, "GoBack": 1, "SID": 1785, "NameZh": "\u6c11\u65cf\u6d3e\u51fa\u6240", "RouteId": 8049, "SeqNo": 67, "Terminal": 0, "DistrictId": 1, "Latitude": 22.647803, "Longitude": 120.316367, "IVRNo": 231, "EXTVoiceNo": 231, "traveltime": 0, "holidayTraveltime": 0}, {"Id": "0230", "pgp": 0, "GoBack": 1, "SID": 1423, "NameZh": "\u5efa\u5de5\u8def", "RouteId": 8049, "SeqNo": 68, "Terminal": 0, "DistrictId": 1, "Latitude": 22.64845, "Longitude": 120.31914, "IVRNo": 230, "EXTVoiceNo": 230, "traveltime": 0, "holidayTraveltime": 0}, {"Id": "0247", "pgp": 0, "GoBack": 1, "SID": 17210, "NameZh": "\u5927\u9806\u8def\u53e3(\u5efa\u5de5\u8def)", "RouteId": 8049, "SeqNo": 69, "Terminal": 0, "DistrictId": 1, "Latitude": 22.649092, "Longitude": 120.322798, "IVRNo": 229, "EXTVoiceNo": 247, "traveltime": 0, "holidayTraveltime": 0}, {"Id": "0228", "pgp": 0, "GoBack": 1, "SID": 1824, "NameZh": "\u9ad8\u96c4\u5de5\u8077", "RouteId": 8049, "SeqNo": 70, "Terminal": 0, "DistrictId": 1, "Latitude": 22.650615, "Longitude": 120.326121, "IVRNo": 228, "EXTVoiceNo": 228, "traveltime": 0, "holidayTraveltime": 0}, {"Id": "0227", "pgp": 0, "GoBack": 1, "SID": 17211, "NameZh": "\u9ad8\u96c4\u79d1\u5927(\u5efa\u5de5)", "RouteId": 8049, "SeqNo": 71, "Terminal": 0, "DistrictId": 1, "Latitude": 22.65145, "Longitude": 120.32781, "IVRNo": 227, "EXTVoiceNo": 227, "traveltime": 0, "holidayTraveltime": 0}, {"Id": "0226", "pgp": 0, "GoBack": 1, "SID": 17212, "NameZh": "\u5927\u8c50\u4e00\u8def\u53e3", "RouteId": 8049, "SeqNo": 72, "Terminal": 0, "DistrictId": 1, "Latitude": 22.6529, "Longitude": 120.3311, "IVRNo": 226, "EXTVoiceNo": 226, "traveltime": 0, "holidayTraveltime": 0}, {"Id": "0225", "pgp": 0, "GoBack": 1, "SID": 17213, "NameZh": "\u672c\u9928\u8def\u53e3", "RouteId": 8049, "SeqNo": 73, "Terminal": 0, "DistrictId": 1, "Latitude": 22.655102, "Longitude": 120.335102, "IVRNo": 225, "EXTVoiceNo": 225, "traveltime": 0, "holidayTraveltime": 0}, {"Id": "0227", "pgp": 0, "GoBack": 1, "SID": 17214, "NameZh": "\u6587\u660e\u5df7", "RouteId": 8049, "SeqNo": 74, "Terminal": 0, "DistrictId": 1, "Latitude": 22.65364, "Longitude": 120.33833, "IVRNo": 10445, "EXTVoiceNo": 20227, "traveltime": 0, "holidayTraveltime": 0}, {"Id": "0289", "pgp": 0, "GoBack": 1, "SID": 12205, "NameZh": "\u6b63\u5fb7\u4f5b\u5802", "RouteId": 8049, "SeqNo": 75, "Terminal": 0, "DistrictId": 1, "Latitude": 22.6506, "Longitude": 120.34258, "IVRNo": 289, "EXTVoiceNo": 289, "traveltime": 0, "holidayTraveltime": 0}, {"Id": "3532", "pgp": 0, "GoBack": 1, "SID": 17216, "NameZh": "\u5927\u83ef\u91cc", "RouteId": 8049, "SeqNo": 76, "Terminal": 0, "DistrictId": 1, "Latitude": 22.64812, "Longitude": 120.34611, "IVRNo": 32356, "EXTVoiceNo": 3532, "traveltime": 0, "holidayTraveltime": 0}, {"Id": "0636", "pgp": 0, "GoBack": 1, "SID": 17220, "NameZh": "\u6b63\u4fee\u79d1\u5927(\u6f84\u6e05\u6e56)", "RouteId": 8049, "SeqNo": 77, "Terminal": 0, "DistrictId": 1, "Latitude": 22.65143, "Longitude": 120.34914, "IVRNo": 3533, "EXTVoiceNo": 10636, "traveltime": 0, "holidayTraveltime": 0}, {"Id": "3546", "pgp": 0, "GoBack": 1, "SID": 17203, "NameZh": "\u9577\u5e9a\u5fa9\u5065\u5927\u6a13", "RouteId": 8049, "SeqNo": 78, "Terminal": 0, "DistrictId": 1, "Latitude": 22.650536, "Longitude": 120.352873, "IVRNo": 3546, "EXTVoiceNo": 3546, "traveltime": 0, "holidayTraveltime": 0}, {"Id": "0223", "pgp": 0, "GoBack": 1, "SID": 17205, "NameZh": "\u6587\u5c71\u9ad8\u4e2d", "RouteId": 8049, "SeqNo": 79, "Terminal": 0, "DistrictId": 1, "Latitude": 22.648873, "Longitude": 120.353814, "IVRNo": 438, "EXTVoiceNo": 20223, "traveltime": 0, "holidayTraveltime": 0}, {"Id": "3534", "pgp": 0, "GoBack": 1, "SID": 12057, "NameZh": "\u9577\u5e9a\u91ab\u9662", "RouteId": 8049, "SeqNo": 80, "Terminal": 0, "DistrictId": 1, "Latitude": 22.650933, "Longitude": 120.356409, "IVRNo": 3534, "EXTVoiceNo": 3534, "traveltime": 0, "holidayTraveltime": 0}, {"Id": "0636", "pgp": 0, "GoBack": 1, "SID": 12058, "NameZh": "\u6b63\u4fee\u79d1\u5927(\u6f84\u6e05\u6e56)", "RouteId": 8049, "SeqNo": 81, "Terminal": 0, "DistrictId": 1, "Latitude": 22.65152, "Longitude": 120.3487, "IVRNo": 3533, "EXTVoiceNo": 10636, "traveltime": 0, "holidayTraveltime": 0}, {"Id": "1170", "pgp": 0, "GoBack": 1, "SID": 12060, "NameZh": "\u5927\u83ef\u6751", "RouteId": 8049, "SeqNo": 82, "Terminal": 0, "DistrictId": 1, "Latitude": 22.64684, "Longitude": 120.34701, "IVRNo": 3532, "EXTVoiceNo": 21170, "traveltime": 0, "holidayTraveltime": 0}, {"Id": "3531", "pgp": 0, "GoBack": 1, "SID": 12061, "NameZh": "\u6f84\u6e05\u8def", "RouteId": 8049, "SeqNo": 83, "Terminal": 0, "DistrictId": 1, "Latitude": 22.64259, "Longitude": 120.34582, "IVRNo": 3531, "EXTVoiceNo": 3531, "traveltime": 0, "holidayTraveltime": 0}, {"Id": "1015", "pgp": 0, "GoBack": 1, "SID": 11874, "NameZh": "\u89ba\u6c11\u8def\u53e3(\u6f84\u6e05\u8def)", "RouteId": 8049, "SeqNo": 84, "Terminal": 0, "DistrictId": 1, "Latitude": 22.63794, "Longitude": 120.34452, "IVRNo": 1015, "EXTVoiceNo": 1015, "traveltime": 0, "holidayTraveltime": 0}, {"Id": "2498", "pgp": 0, "GoBack": 1, "SID": 17225, "NameZh": "\u9cf3\u5c71\u884c\u653f\u4e2d\u5fc3(\u6f84\u6e05\u8def)", "RouteId": 8049, "SeqNo": 85, "Terminal": 0, "DistrictId": 1, "Latitude": 22.63041, "Longitude": 120.34446, "IVRNo": 2498, "EXTVoiceNo": 2498, "traveltime": 0, "holidayTraveltime": 0}, {"Id": "2346", "pgp": 0, "GoBack": 1, "SID": 6503, "NameZh": "\u9cf3\u5c71\u9ad8\u4e2d", "RouteId": 8049, "SeqNo": 86, "Terminal": 0, "DistrictId": 1, "Latitude": 22.62803, "Longitude": 120.34634, "IVRNo": 565, "EXTVoiceNo": 32346, "traveltime": 0, "holidayTraveltime": 0}, {"Id": "0211", "pgp": 0, "GoBack": 1, "SID": 12124, "NameZh": "\u516c\u8def\u4e4b\u5bb6", "RouteId": 8049, "SeqNo": 87, "Terminal": 0, "DistrictId": 1, "Latitude": 22.62753, "Longitude": 120.35065, "IVRNo": 508, "EXTVoiceNo": 20211, "traveltime": 0, "holidayTraveltime": 0}, {"Id": "0407", "pgp": 0, "GoBack": 1, "SID": 12125, "NameZh": "\u897f\u9580", "RouteId": 8049, "SeqNo": 88, "Terminal": 0, "DistrictId": 1, "Latitude": 22.62683, "Longitude": 120.35265, "IVRNo": 507, "EXTVoiceNo": 20407, "traveltime": 0, "holidayTraveltime": 0}, {"Id": "9200", "pgp": 0, "GoBack": 1, "SID": 11193, "NameZh": "\u6377\u904b\u9cf3\u5c71\u7ad9", "RouteId": 8049, "SeqNo": 89, "Terminal": 0, "DistrictId": 1, "Latitude": 22.62598, "Longitude": 120.35614, "IVRNo": 9708, "EXTVoiceNo": 9200, "traveltime": 0, "holidayTraveltime": 0}, {"Id": "0083", "pgp": 0, "GoBack": 1, "SID": 12068, "NameZh": "\u9ad8\u96c4\u5ba2\u904b\u9cf3\u5c71\u7ad9(\u4e2d\u5c71\u8def)", "RouteId": 8049, "SeqNo": 90, "Terminal": 1, "DistrictId": 1, "Latitude": 22.62473, "Longitude": 120.356959, "IVRNo": 727, "EXTVoiceNo": 83, "traveltime": 0, "holidayTraveltime": 0}, {"Id": "0083", "pgp": 0, "GoBack": 2, "SID": 11905, "NameZh": "\u9ad8\u96c4\u5ba2\u904b\u9cf3\u5c71\u7ad9(\u4e2d\u5c71\u8def)", "RouteId": 8049, "SeqNo": 1, "Terminal": 0, "DistrictId": 1, "Latitude": 22.624081, "Longitude": 120.356929, "IVRNo": 727, "EXTVoiceNo": 83, "traveltime": 0, "holidayTraveltime": 0}, {"Id": "9200", "pgp": 0, "GoBack": 2, "SID": 8363, "NameZh": "\u6377\u904b\u9cf3\u5c71\u7ad9", "RouteId": 8049, "SeqNo": 2, "Terminal": 0, "DistrictId": 1, "Latitude": 22.626128, "Longitude": 120.355938, "IVRNo": 9708, "EXTVoiceNo": 9200, "traveltime": 0, "holidayTraveltime": 0}, {"Id": "0407", "pgp": 0, "GoBack": 2, "SID": 12070, "NameZh": "\u897f\u9580", "RouteId": 8049, "SeqNo": 3, "Terminal": 0, "DistrictId": 1, "Latitude": 22.62688, "Longitude": 120.35264, "IVRNo": 507, "EXTVoiceNo": 20407, "traveltime": 0, "holidayTraveltime": 0}, {"Id": "0211", "pgp": 0, "GoBack": 2, "SID": 12071, "NameZh": "\u516c\u8def\u4e4b\u5bb6", "RouteId": 8049, "SeqNo": 4, "Terminal": 0, "DistrictId": 1, "Latitude": 22.62734, "Longitude": 120.3509, "IVRNo": 508, "EXTVoiceNo": 20211, "traveltime": 0, "holidayTraveltime": 0}, {"Id": "2346", "pgp": 0, "GoBack": 2, "SID": 6466, "NameZh": "\u9cf3\u5c71\u9ad8\u4e2d", "RouteId": 8049, "SeqNo": 5, "Terminal": 0, "DistrictId": 1, "Latitude": 22.62811, "Longitude": 120.34531, "IVRNo": 565, "EXTVoiceNo": 32346, "traveltime": 0, "holidayTraveltime": 0}, {"Id": "2498", "pgp": 0, "GoBack": 2, "SID": 17044, "NameZh": "\u9cf3\u5c71\u884c\u653f\u4e2d\u5fc3(\u6f84\u6e05\u8def)", "RouteId": 8049, "SeqNo": 6, "Terminal": 0, "DistrictId": 1, "Latitude": 22.63021, "Longitude": 120.34461, "IVRNo": 2498, "EXTVoiceNo": 2498, "traveltime": 0, "holidayTraveltime": 0}, {"Id": "1015", "pgp": 0, "GoBack": 2, "SID": 8313, "NameZh": "\u89ba\u6c11\u8def\u53e3(\u6f84\u6e05\u8def)", "RouteId": 8049, "SeqNo": 7, "Terminal": 0, "DistrictId": 1, "Latitude": 22.63732, "Longitude": 120.34485, "IVRNo": 1015, "EXTVoiceNo": 1015, "traveltime": 0, "holidayTraveltime": 0}, {"Id": "3531", "pgp": 0, "GoBack": 2, "SID": 11912, "NameZh": "\u6f84\u6e05\u8def", "RouteId": 8049, "SeqNo": 8, "Terminal": 0, "DistrictId": 1, "Latitude": 22.64287, "Longitude": 120.34617, "IVRNo": 3531, "EXTVoiceNo": 3531, "traveltime": 0, "holidayTraveltime": 0}, {"Id": "1170", "pgp": 0, "GoBack": 2, "SID": 11913, "NameZh": "\u5927\u83ef\u6751", "RouteId": 8049, "SeqNo": 9, "Terminal": 0, "DistrictId": 1, "Latitude": 22.64695, "Longitude": 120.34697, "IVRNo": 3532, "EXTVoiceNo": 21170, "traveltime": 0, "holidayTraveltime": 0}, {"Id": "0636", "pgp": 0, "GoBack": 2, "SID": 17051, "NameZh": "\u6b63\u4fee\u79d1\u5927(\u6f84\u6e05\u6e56)", "RouteId": 8049, "SeqNo": 10, "Terminal": 0, "DistrictId": 1, "Latitude": 22.651519, "Longitude": 120.3487, "IVRNo": 3533, "EXTVoiceNo": 10636, "traveltime": 0, "holidayTraveltime": 0}, {"Id": "3546", "pgp": 0, "GoBack": 2, "SID": 17064, "NameZh": "\u9577\u5e9a\u5fa9\u5065\u5927\u6a13", "RouteId": 8049, "SeqNo": 11, "Terminal": 0, "DistrictId": 1, "Latitude": 22.650536, "Longitude": 120.352873, "IVRNo": 3546, "EXTVoiceNo": 3546, "traveltime": 0, "holidayTraveltime": 0}, {"Id": "0223", "pgp": 0, "GoBack": 2, "SID": 17066, "NameZh": "\u6587\u5c71\u9ad8\u4e2d", "RouteId": 8049, "SeqNo": 12, "Terminal": 0, "DistrictId": 1, "Latitude": 22.648873, "Longitude": 120.353814, "IVRNo": 438, "EXTVoiceNo": 20223, "traveltime": 0, "holidayTraveltime": 0}, {"Id": "3534", "pgp": 0, "GoBack": 2, "SID": 11916, "NameZh": "\u9577\u5e9a\u91ab\u9662", "RouteId": 8049, "SeqNo": 13, "Terminal": 0, "DistrictId": 1, "Latitude": 22.650933, "Longitude": 120.356409, "IVRNo": 3534, "EXTVoiceNo": 3534, "traveltime": 0, "holidayTraveltime": 0}, {"Id": "0636", "pgp": 0, "GoBack": 2, "SID": 11915, "NameZh": "\u6b63\u4fee\u79d1\u5927(\u6f84\u6e05\u6e56)", "RouteId": 8049, "SeqNo": 14, "Terminal": 0, "DistrictId": 1, "Latitude": 22.65143, "Longitude": 120.34914, "IVRNo": 3533, "EXTVoiceNo": 10636, "traveltime": 0, "holidayTraveltime": 0}, {"Id": "3532", "pgp": 0, "GoBack": 2, "SID": 17053, "NameZh": "\u5927\u83ef\u91cc", "RouteId": 8049, "SeqNo": 15, "Terminal": 0, "DistrictId": 1, "Latitude": 22.64828, "Longitude": 120.34667, "IVRNo": 32356, "EXTVoiceNo": 3532, "traveltime": 0, "holidayTraveltime": 0}, {"Id": "0289", "pgp": 0, "GoBack": 2, "SID": 12180, "NameZh": "\u6b63\u5fb7\u4f5b\u5802", "RouteId": 8049, "SeqNo": 16, "Terminal": 0, "DistrictId": 1, "Latitude": 22.65077, "Longitude": 120.3426, "IVRNo": 289, "EXTVoiceNo": 289, "traveltime": 0, "holidayTraveltime": 0}, {"Id": "0227", "pgp": 0, "GoBack": 2, "SID": 17055, "NameZh": "\u6587\u660e\u5df7", "RouteId": 8049, "SeqNo": 17, "Terminal": 0, "DistrictId": 1, "Latitude": 22.65375, "Longitude": 120.338416, "IVRNo": 10445, "EXTVoiceNo": 20227, "traveltime": 0, "holidayTraveltime": 0}, {"Id": "0225", "pgp": 0, "GoBack": 2, "SID": 17056, "NameZh": "\u672c\u9928\u8def\u53e3", "RouteId": 8049, "SeqNo": 18, "Terminal": 0, "DistrictId": 1, "Latitude": 22.655326, "Longitude": 120.335421, "IVRNo": 225, "EXTVoiceNo": 225, "traveltime": 0, "holidayTraveltime": 0}, {"Id": "0226", "pgp": 0, "GoBack": 2, "SID": 17057, "NameZh": "\u5927\u8c50\u4e00\u8def\u53e3", "RouteId": 8049, "SeqNo": 19, "Terminal": 0, "DistrictId": 1, "Latitude": 22.6529, "Longitude": 120.3311, "IVRNo": 226, "EXTVoiceNo": 226, "traveltime": 0, "holidayTraveltime": 0}, {"Id": "0227", "pgp": 0, "GoBack": 2, "SID": 17058, "NameZh": "\u9ad8\u96c4\u79d1\u5927(\u5efa\u5de5)", "RouteId": 8049, "SeqNo": 20, "Terminal": 0, "DistrictId": 1, "Latitude": 22.65178, "Longitude": 120.32799, "IVRNo": 227, "EXTVoiceNo": 227, "traveltime": 0, "holidayTraveltime": 0}, {"Id": "0228", "pgp": 0, "GoBack": 2, "SID": 1411, "NameZh": "\u9ad8\u96c4\u5de5\u8077", "RouteId": 8049, "SeqNo": 21, "Terminal": 0, "DistrictId": 1, "Latitude": 22.65084, "Longitude": 120.326173, "IVRNo": 228, "EXTVoiceNo": 228, "traveltime": 0, "holidayTraveltime": 0}, {"Id": "0247", "pgp": 0, "GoBack": 2, "SID": 17059, "NameZh": "\u5927\u9806\u8def\u53e3(\u5efa\u5de5\u8def)", "RouteId": 8049, "SeqNo": 22, "Terminal": 0, "DistrictId": 1, "Latitude": 22.649167, "Longitude": 120.322766, "IVRNo": 229, "EXTVoiceNo": 247, "traveltime": 0, "holidayTraveltime": 0}, {"Id": "0230", "pgp": 0, "GoBack": 2, "SID": 1791, "NameZh": "\u5efa\u5de5\u8def", "RouteId": 8049, "SeqNo": 23, "Terminal": 0, "DistrictId": 1, "Latitude": 22.648231, "Longitude": 120.318824, "IVRNo": 230, "EXTVoiceNo": 230, "traveltime": 0, "holidayTraveltime": 0}, {"Id": "0231", "pgp": 0, "GoBack": 2, "SID": 1459, "NameZh": "\u6c11\u65cf\u6d3e\u51fa\u6240", "RouteId": 8049, "SeqNo": 24, "Terminal": 0, "DistrictId": 1, "Latitude": 22.648037, "Longitude": 120.317114, "IVRNo": 231, "EXTVoiceNo": 231, "traveltime": 0, "holidayTraveltime": 0}, {"Id": "3447", "pgp": 0, "GoBack": 2, "SID": 13870, "NameZh": "\u7063\u4ed4\u5167", "RouteId": 8049, "SeqNo": 25, "Terminal": 0, "DistrictId": 1, "Latitude": 22.648719, "Longitude": 120.314835, "IVRNo": 5216, "EXTVoiceNo": 13447, "traveltime": 0, "holidayTraveltime": 0}, {"Id": "5215", "pgp": 0, "GoBack": 2, "SID": 8093, "NameZh": "\u9686\u5cf0\u5bfa", "RouteId": 8049, "SeqNo": 26, "Terminal": 0, "DistrictId": 1, "Latitude": 22.65306, "Longitude": 120.31534, "IVRNo": 5215, "EXTVoiceNo": 5215, "traveltime": 0, "holidayTraveltime": 0}, {"Id": "1164", "pgp": 0, "GoBack": 2, "SID": 17063, "NameZh": "\u6c11\u65cf\u5927\u9806\u8def\u53e3", "RouteId": 8049, "SeqNo": 27, "Terminal": 0, "DistrictId": 1, "Latitude": 22.657316, "Longitude": 120.315714, "IVRNo": 4030, "EXTVoiceNo": 21164, "traveltime": 0, "holidayTraveltime": 0}, {"Id": "5213", "pgp": 0, "GoBack": 2, "SID": 2693, "NameZh": "\u6c11\u65cf\u8def(\u660e\u8aa0\u8def\u53e3)", "RouteId": 8049, "SeqNo": 28, "Terminal": 0, "DistrictId": 1, "Latitude": 22.661621, "Longitude": 120.315891, "IVRNo": 43, "EXTVoiceNo": 5213, "traveltime": 0, "holidayTraveltime": 0}, {"Id": "7032", "pgp": 0, "GoBack": 2, "SID": 8245, "NameZh": "\u6c11\u65cf\u88d5\u8aa0\u8def\u53e3", "RouteId": 8049, "SeqNo": 29, "Terminal": 0, "DistrictId": 1, "Latitude": 22.664938, "Longitude": 120.316375, "IVRNo": 2214, "EXTVoiceNo": 7032, "traveltime": 0, "holidayTraveltime": 0}, {"Id": "5408", "pgp": 0, "GoBack": 2, "SID": 2685, "NameZh": "\u5929\u7965\u8def\u53e3(\u6c11\u65cf\u4e00\u8def)", "RouteId": 8049, "SeqNo": 30, "Terminal": 0, "DistrictId": 1, "Latitude": 22.667888, "Longitude": 120.316908, "IVRNo": 2213, "EXTVoiceNo": 5408, "traveltime": 0, "holidayTraveltime": 0}, {"Id": "5208", "pgp": 0, "GoBack": 2, "SID": 8098, "NameZh": "\u6587\u85fb\u5916\u8a9e\u5927\u5b78(\u6c11\u65cf\u4e00\u8def)", "RouteId": 8049, "SeqNo": 31, "Terminal": 0, "DistrictId": 1, "Latitude": 22.67071, "Longitude": 120.3176, "IVRNo": 453, "EXTVoiceNo": 5208, "traveltime": 0, "holidayTraveltime": 0}, {"Id": "1043", "pgp": 0, "GoBack": 2, "SID": 16938, "NameZh": "\u83dc\u516c\u8def\u53e3(\u6c11\u65cf\u4e00\u8def)", "RouteId": 8049, "SeqNo": 32, "Terminal": 0, "DistrictId": 1, "Latitude": 22.67521, "Longitude": 120.31846, "IVRNo": 1043, "EXTVoiceNo": 1043, "traveltime": 0, "holidayTraveltime": 0}, {"Id": "5206", "pgp": 0, "GoBack": 2, "SID": 3946, "NameZh": "\u5927\u4e2d\u8def\u53e3(\u6c11\u65cf\u4e00\u8def)", "RouteId": 8049, "SeqNo": 33, "Terminal": 0, "DistrictId": 1, "Latitude": 22.678058, "Longitude": 120.31893, "IVRNo": 2210, "EXTVoiceNo": 5206, "traveltime": 0, "holidayTraveltime": 0}, {"Id": "5762", "pgp": 0, "GoBack": 2, "SID": 8101, "NameZh": "\u65b0\u838a\u9ad8\u4e2d(\u6c11\u65cf\u4e00\u8def)", "RouteId": 8049, "SeqNo": 34, "Terminal": 0, "DistrictId": 1, "Latitude": 22.680723, "Longitude": 120.319529, "IVRNo": 5708, "EXTVoiceNo": 5762, "traveltime": 0, "holidayTraveltime": 0}, {"Id": "1870", "pgp": 0, "GoBack": 2, "SID": 8102, "NameZh": "\u798f\u6ab3\u65b0\u6751", "RouteId": 8049, "SeqNo": 35, "Terminal": 0, "DistrictId": 1, "Latitude": 22.68629, "Longitude": 120.32061, "IVRNo": 11870, "EXTVoiceNo": 11870, "traveltime": 0, "holidayTraveltime": 0}, {"Id": "7024", "pgp": 0, "GoBack": 2, "SID": 8103, "NameZh": "\u9ad8\u6960\u65b0\u6751", "RouteId": 8049, "SeqNo": 36, "Terminal": 0, "DistrictId": 1, "Latitude": 22.69224, "Longitude": 120.32178, "IVRNo": 476, "EXTVoiceNo": 7024, "traveltime": 0, "holidayTraveltime": 0}, {"Id": "0288", "pgp": 0, "GoBack": 2, "SID": 8104, "NameZh": "\u53f0\u7063\u6642\u5831", "RouteId": 8049, "SeqNo": 37, "Terminal": 0, "DistrictId": 1, "Latitude": 22.69786, "Longitude": 120.32285, "IVRNo": 7023, "EXTVoiceNo": 20288, "traveltime": 0, "holidayTraveltime": 0}, {"Id": "4758", "pgp": 0, "GoBack": 2, "SID": 8105, "NameZh": "\u534a\u5c4f\u5c71(\u9ad8\u6960\u8def)", "RouteId": 8049, "SeqNo": 38, "Terminal": 0, "DistrictId": 1, "Latitude": 22.70023, "Longitude": 120.3233, "IVRNo": 4730, "EXTVoiceNo": 4758, "traveltime": 0, "holidayTraveltime": 0}, {"Id": "7932", "pgp": 0, "GoBack": 2, "SID": 16946, "NameZh": "\u6c34\u7ba1\u8def\u53e3(\u9ad8\u6960\u516c\u8def)", "RouteId": 8049, "SeqNo": 39, "Terminal": 0, "DistrictId": 1, "Latitude": 22.70461, "Longitude": 120.32414, "IVRNo": 7932, "EXTVoiceNo": 7932, "traveltime": 0, "holidayTraveltime": 0}, {"Id": "0163", "pgp": 0, "GoBack": 2, "SID": 8106, "NameZh": "\u4e2d\u83ef\u793e\u5340", "RouteId": 8049, "SeqNo": 40, "Terminal": 0, "DistrictId": 1, "Latitude": 22.7097, "Longitude": 120.3251, "IVRNo": 7020, "EXTVoiceNo": 20163, "traveltime": 0, "holidayTraveltime": 0}, {"Id": "4654", "pgp": 0, "GoBack": 2, "SID": 8107, "NameZh": "\u7a14\u7530\u91cc", "RouteId": 8049, "SeqNo": 41, "Terminal": 0, "DistrictId": 1, "Latitude": 22.7126, "Longitude": 120.3257, "IVRNo": 4654, "EXTVoiceNo": 4654, "traveltime": 0, "holidayTraveltime": 0}, {"Id": "7074", "pgp": 0, "GoBack": 2, "SID": 8109, "NameZh": "\u91d1\u5c6c\u4e2d\u5fc3", "RouteId": 8049, "SeqNo": 42, "Terminal": 0, "DistrictId": 1, "Latitude": 22.71576, "Longitude": 120.32581, "IVRNo": 7074, "EXTVoiceNo": 7074, "traveltime": 0, "holidayTraveltime": 0}, {"Id": "7508", "pgp": 0, "GoBack": 2, "SID": 8110, "NameZh": "\u9ad8\u6960\u9678\u6a4b(\u6377\u904b\u90fd\u6703\u516c\u5712\u7ad9)", "RouteId": 8049, "SeqNo": 43, "Terminal": 0, "DistrictId": 1, "Latitude": 22.72777, "Longitude": 120.32158, "IVRNo": 7508, "EXTVoiceNo": 7508, "traveltime": 0, "holidayTraveltime": 0}, {"Id": "1004", "pgp": 0, "GoBack": 2, "SID": 8111, "NameZh": "\u76e3\u7406\u6240(\u9ad8\u6960\u8def)", "RouteId": 8049, "SeqNo": 44, "Terminal": 0, "DistrictId": 1, "Latitude": 22.73266, "Longitude": 120.32024, "IVRNo": 1004, "EXTVoiceNo": 1004, "traveltime": 0, "holidayTraveltime": 0}, {"Id": "2071", "pgp": 0, "GoBack": 2, "SID": 16902, "NameZh": "\u6377\u904b\u9752\u57d4\u7ad9(\u6210\u529f\u5357\u8def)", "RouteId": 8049, "SeqNo": 45, "Terminal": 0, "DistrictId": 1, "Latitude": 22.74371, "Longitude": 120.3167, "IVRNo": 2071, "EXTVoiceNo": 2071, "traveltime": 0, "holidayTraveltime": 0}, {"Id": "0377", "pgp": 0, "GoBack": 2, "SID": 11944, "NameZh": "\u6210\u529f\u5357\u8def", "RouteId": 8049, "SeqNo": 46, "Terminal": 0, "DistrictId": 1, "Latitude": 22.7506, "Longitude": 120.31408, "IVRNo": 8963, "EXTVoiceNo": 20377, "traveltime": 0, "holidayTraveltime": 0}, {"Id": "2399", "pgp": 0, "GoBack": 2, "SID": 11945, "NameZh": "\u6a4b\u982d\u5e02\u5834", "RouteId": 8049, "SeqNo": 47, "Terminal": 0, "DistrictId": 1, "Latitude": 22.7607, "Longitude": 120.3091, "IVRNo": 807, "EXTVoiceNo": 32399, "traveltime": 0, "holidayTraveltime": 0}, {"Id": "9125", "pgp": 0, "GoBack": 2, "SID": 16954, "NameZh": "\u6377\u904b\u6a4b\u982d\u706b\u8eca\u7ad9", "RouteId": 8049, "SeqNo": 48, "Terminal": 0, "DistrictId": 1, "Latitude": 22.760793, "Longitude": 120.309259, "IVRNo": 7900, "EXTVoiceNo": 9125, "traveltime": 0, "holidayTraveltime": 0}, {"Id": "9641", "pgp": 0, "GoBack": 2, "SID": 16955, "NameZh": "\u5fb7\u677e\u8def\u53e3", "RouteId": 8049, "SeqNo": 49, "Terminal": 0, "DistrictId": 1, "Latitude": 22.763918, "Longitude": 120.307479, "IVRNo": 9541, "EXTVoiceNo": 9641, "traveltime": 0, "holidayTraveltime": 0}, {"Id": "2351", "pgp": 0, "GoBack": 2, "SID": 8706, "NameZh": "\u5927\u907c\u91cc", "RouteId": 8049, "SeqNo": 50, "Terminal": 0, "DistrictId": 1, "Latitude": 22.776868, "Longitude": 120.300474, "IVRNo": 13343, "EXTVoiceNo": 32351, "traveltime": 0, "holidayTraveltime": 0}, {"Id": "0828", "pgp": 0, "GoBack": 2, "SID": 11813, "NameZh": "\u6377\u904b\u5357\u5ca1\u5c71\u7ad9", "RouteId": 8049, "SeqNo": 51, "Terminal": 0, "DistrictId": 1, "Latitude": 22.781124, "Longitude": 120.300244, "IVRNo": 828, "EXTVoiceNo": 828, "traveltime": 0, "holidayTraveltime": 0}, {"Id": "1110", "pgp": 0, "GoBack": 2, "SID": 16958, "NameZh": "\u5ca1\u5c71\u6587\u5316\u4e2d\u5fc3", "RouteId": 8049, "SeqNo": 52, "Terminal": 0, "DistrictId": 1, "Latitude": 22.78406, "Longitude": 120.29732, "IVRNo": 9564, "EXTVoiceNo": 21110, "traveltime": 0, "holidayTraveltime": 0}, {"Id": "9129", "pgp": 0, "GoBack": 2, "SID": 16959, "NameZh": "\u6587\u5316\u8857\u53e3", "RouteId": 8049, "SeqNo": 53, "Terminal": 0, "DistrictId": 1, "Latitude": 22.78859, "Longitude": 120.29659, "IVRNo": 9565, "EXTVoiceNo": 9129, "traveltime": 0, "holidayTraveltime": 0}, {"Id": "6151", "pgp": 0, "GoBack": 2, "SID": 11551, "NameZh": "\u52f5\u5fd7\u65b0\u57ce", "RouteId": 8049, "SeqNo": 54, "Terminal": 0, "DistrictId": 1, "Latitude": 22.790276, "Longitude": 120.296366, "IVRNo": 9281, "EXTVoiceNo": 26151, "traveltime": 0, "holidayTraveltime": 0}, {"Id": "0731", "pgp": 0, "GoBack": 2, "SID": 16960, "NameZh": "\u79fb\u6c11\u7f72", "RouteId": 8049, "SeqNo": 55, "Terminal": 0, "DistrictId": 1, "Latitude": 22.79138, "Longitude": 120.29621, "IVRNo": 9214, "EXTVoiceNo": 20731, "traveltime": 0, "holidayTraveltime": 0}, {"Id": "0230", "pgp": 0, "GoBack": 2, "SID": 11953, "NameZh": "\u6587\u8ce2\u5e02\u5834", "RouteId": 8049, "SeqNo": 56, "Terminal": 0, "DistrictId": 1, "Latitude": 22.79395, "Longitude": 120.29585, "IVRNo": 8308, "EXTVoiceNo": 20230, "traveltime": 0, "holidayTraveltime": 0}, {"Id": "9133", "pgp": 0, "GoBack": 2, "SID": 11954, "NameZh": "\u5ca1\u5c71\u8fb2\u6703", "RouteId": 8049, "SeqNo": 57, "Terminal": 0, "DistrictId": 1, "Latitude": 22.7954, "Longitude": 120.29585, "IVRNo": 9569, "EXTVoiceNo": 9133, "traveltime": 0, "holidayTraveltime": 0}, {"Id": "9134", "pgp": 0, "GoBack": 2, "SID": 16890, "NameZh": "\u5ca1\u5c71\u5340\u516c\u6240", "RouteId": 8049, "SeqNo": 58, "Terminal": 0, "DistrictId": 1, "Latitude": 22.79866, "Longitude": 120.29514, "IVRNo": 9570, "EXTVoiceNo": 9134, "traveltime": 0, "holidayTraveltime": 0}, {"Id": "9135", "pgp": 0, "GoBack": 2, "SID": 11956, "NameZh": "\u6210\u529f\u8def", "RouteId": 8049, "SeqNo": 59, "Terminal": 0, "DistrictId": 1, "Latitude": 22.80145, "Longitude": 120.2955, "IVRNo": 9571, "EXTVoiceNo": 9135, "traveltime": 0, "holidayTraveltime": 0}, {"Id": "9136", "pgp": 0, "GoBack": 2, "SID": 11957, "NameZh": "\u53f0\u4e0a\u8857", "RouteId": 8049, "SeqNo": 60, "Terminal": 0, "DistrictId": 1, "Latitude": 22.80493, "Longitude": 120.29724, "IVRNo": 9572, "EXTVoiceNo": 9136, "traveltime": 0, "holidayTraveltime": 0}, {"Id": "9137", "pgp": 0, "GoBack": 2, "SID": 11958, "NameZh": "\u53f0\u4e0a", "RouteId": 8049, "SeqNo": 61, "Terminal": 0, "DistrictId": 1, "Latitude": 22.80803, "Longitude": 120.29893, "IVRNo": 9573, "EXTVoiceNo": 9137, "traveltime": 0, "holidayTraveltime": 0}, {"Id": "9138", "pgp": 0, "GoBack": 2, "SID": 11959, "NameZh": "\u4e94\u7532\u5c3e\u52a0\u6cb9\u7ad9", "RouteId": 8049, "SeqNo": 62, "Terminal": 0, "DistrictId": 1, "Latitude": 22.81281, "Longitude": 120.30085, "IVRNo": 9574, "EXTVoiceNo": 9138, "traveltime": 0, "holidayTraveltime": 0}, {"Id": "9139", "pgp": 0, "GoBack": 2, "SID": 11960, "NameZh": "\u5357\u5609\u8208", "RouteId": 8049, "SeqNo": 63, "Terminal": 0, "DistrictId": 1, "Latitude": 22.81903, "Longitude": 120.30249, "IVRNo": 9575, "EXTVoiceNo": 9139, "traveltime": 0, "holidayTraveltime": 0}, {"Id": "9140", "pgp": 0, "GoBack": 2, "SID": 11961, "NameZh": "\u4e94\u7532\u5c3e", "RouteId": 8049, "SeqNo": 64, "Terminal": 0, "DistrictId": 1, "Latitude": 22.821274, "Longitude": 120.303205, "IVRNo": 9576, "EXTVoiceNo": 9140, "traveltime": 0, "holidayTraveltime": 0}, {"Id": "9141", "pgp": 0, "GoBack": 2, "SID": 11962, "NameZh": "\u5609\u8208\u570b\u5c0f", "RouteId": 8049, "SeqNo": 65, "Terminal": 0, "DistrictId": 1, "Latitude": 22.821947, "Longitude": 120.30554, "IVRNo": 9577, "EXTVoiceNo": 9141, "traveltime": 0, "holidayTraveltime": 0}, {"Id": "9142", "pgp": 0, "GoBack": 2, "SID": 16971, "NameZh": "\u6f6d\u5e95", "RouteId": 8049, "SeqNo": 66, "Terminal": 0, "DistrictId": 1, "Latitude": 22.82593, "Longitude": 120.30999, "IVRNo": 9578, "EXTVoiceNo": 9142, "traveltime": 0, "holidayTraveltime": 0}, {"Id": "2367", "pgp": 0, "GoBack": 2, "SID": 14131, "NameZh": "\u5609\u5cf0\u91cc\u6d3b\u52d5\u4e2d\u5fc3", "RouteId": 8049, "SeqNo": 67, "Terminal": 0, "DistrictId": 1, "Latitude": 22.827958, "Longitude": 120.312087, "IVRNo": 17955, "EXTVoiceNo": 32367, "traveltime": 0, "holidayTraveltime": 0}, {"Id": "9143", "pgp": 0, "GoBack": 2, "SID": 11964, "NameZh": "\u5609\u5cf0", "RouteId": 8049, "SeqNo": 68, "Terminal": 0, "DistrictId": 1, "Latitude": 22.82986, "Longitude": 120.31382, "IVRNo": 9579, "EXTVoiceNo": 9143, "traveltime": 0, "holidayTraveltime": 0}, {"Id": "6051", "pgp": 0, "GoBack": 2, "SID": 16973, "NameZh": "\u7530\u539d", "RouteId": 8049, "SeqNo": 69, "Terminal": 0, "DistrictId": 1, "Latitude": 22.83722, "Longitude": 120.31793, "IVRNo": 9580, "EXTVoiceNo": 26051, "traveltime": 0, "holidayTraveltime": 0}, {"Id": "6178", "pgp": 0, "GoBack": 2, "SID": 16974, "NameZh": "\u571f\u5eab(\u963f\u84ee)", "RouteId": 8049, "SeqNo": 70, "Terminal": 0, "DistrictId": 1, "Latitude": 22.84262, "Longitude": 120.32076, "IVRNo": 9581, "EXTVoiceNo": 26178, "traveltime": 0, "holidayTraveltime": 0}, {"Id": "9146", "pgp": 0, "GoBack": 2, "SID": 11967, "NameZh": "\u74e6\u7aaf", "RouteId": 8049, "SeqNo": 71, "Terminal": 0, "DistrictId": 1, "Latitude": 22.84605, "Longitude": 120.32358, "IVRNo": 9582, "EXTVoiceNo": 9146, "traveltime": 0, "holidayTraveltime": 0}, {"Id": "9147", "pgp": 0, "GoBack": 2, "SID": 11968, "NameZh": "\u5fa9\u5b89\u570b\u5c0f", "RouteId": 8049, "SeqNo": 72, "Terminal": 0, "DistrictId": 1, "Latitude": 22.84889, "Longitude": 120.32449, "IVRNo": 9583, "EXTVoiceNo": 9147, "traveltime": 0, "holidayTraveltime": 0}, {"Id": "9222", "pgp": 0, "GoBack": 2, "SID": 11969, "NameZh": "\u4e5d\u9b2e", "RouteId": 8049, "SeqNo": 73, "Terminal": 0, "DistrictId": 1, "Latitude": 22.85077, "Longitude": 120.32503, "IVRNo": 9853, "EXTVoiceNo": 9222, "traveltime": 0, "holidayTraveltime": 0}, {"Id": "9148", "pgp": 0, "GoBack": 2, "SID": 16978, "NameZh": "\u57e4\u5b50\u5c3e(\u4e2d\u5c71\u8def)", "RouteId": 8049, "SeqNo": 74, "Terminal": 0, "DistrictId": 1, "Latitude": 22.8598, "Longitude": 120.32439, "IVRNo": 9584, "EXTVoiceNo": 9148, "traveltime": 0, "holidayTraveltime": 0}, {"Id": "9149", "pgp": 0, "GoBack": 2, "SID": 11971, "NameZh": "\u4e2d\u7532\u8def\u53e3", "RouteId": 8049, "SeqNo": 75, "Terminal": 0, "DistrictId": 1, "Latitude": 22.8672, "Longitude": 120.32392, "IVRNo": 9585, "EXTVoiceNo": 9149, "traveltime": 0, "holidayTraveltime": 0}, {"Id": "9150", "pgp": 0, "GoBack": 2, "SID": 11972, "NameZh": "\u5149\u5fb7\u5bfa", "RouteId": 8049, "SeqNo": 76, "Terminal": 0, "DistrictId": 1, "Latitude": 22.87119, "Longitude": 120.32522, "IVRNo": 9586, "EXTVoiceNo": 9150, "traveltime": 0, "holidayTraveltime": 0}, {"Id": "9151", "pgp": 0, "GoBack": 2, "SID": 11973, "NameZh": "\u5357\u84ee", "RouteId": 8049, "SeqNo": 77, "Terminal": 0, "DistrictId": 1, "Latitude": 22.87503, "Longitude": 120.32686, "IVRNo": 9587, "EXTVoiceNo": 9151, "traveltime": 0, "holidayTraveltime": 0}, {"Id": "1188", "pgp": 0, "GoBack": 2, "SID": 16982, "NameZh": "\u963f\u84ee\u4e2d\u5c71\u8def", "RouteId": 8049, "SeqNo": 78, "Terminal": 0, "DistrictId": 1, "Latitude": 22.87737, "Longitude": 120.32797, "IVRNo": 737, "EXTVoiceNo": 21188, "traveltime": 0, "holidayTraveltime": 0}, {"Id": "9153", "pgp": 0, "GoBack": 2, "SID": 11975, "NameZh": "\u963f\u84ee\u5206\u99d0\u6240", "RouteId": 8049, "SeqNo": 79, "Terminal": 0, "DistrictId": 1, "Latitude": 22.87877, "Longitude": 120.32931, "IVRNo": 9589, "EXTVoiceNo": 9153, "traveltime": 0, "holidayTraveltime": 0}, {"Id": "9154", "pgp": 0, "GoBack": 2, "SID": 11976, "NameZh": "\u963f\u84ee", "RouteId": 8049, "SeqNo": 80, "Terminal": 0, "DistrictId": 1, "Latitude": 22.879062, "Longitude": 120.33103, "IVRNo": 9590, "EXTVoiceNo": 9154, "traveltime": 0, "holidayTraveltime": 0}, {"Id": "9155", "pgp": 0, "GoBack": 2, "SID": 16985, "NameZh": "\u963f\u84ee\u4e2d\u6b63\u8def(\u548c\u5e73\u8def\u53e3)", "RouteId": 8049, "SeqNo": 81, "Terminal": 0, "DistrictId": 1, "Latitude": 22.880614, "Longitude": 120.332945, "IVRNo": 7148, "EXTVoiceNo": 9155, "traveltime": 0, "holidayTraveltime": 0}, {"Id": "1187", "pgp": 0, "GoBack": 2, "SID": 11978, "NameZh": "\u5de5\u696d\u5340(\u963f\u84ee)", "RouteId": 8049, "SeqNo": 82, "Terminal": 0, "DistrictId": 1, "Latitude": 22.88131, "Longitude": 120.3373, "IVRNo": 477, "EXTVoiceNo": 21187, "traveltime": 0, "holidayTraveltime": 0}, {"Id": "9157", "pgp": 0, "GoBack": 2, "SID": 11979, "NameZh": "\u6e90\u52dd\u793e\u5340", "RouteId": 8049, "SeqNo": 83, "Terminal": 0, "DistrictId": 1, "Latitude": 22.88156, "Longitude": 120.33967, "IVRNo": 9593, "EXTVoiceNo": 9157, "traveltime": 0, "holidayTraveltime": 0}, {"Id": "9158", "pgp": 0, "GoBack": 2, "SID": 11980, "NameZh": "\u78da\u5b50\u7aaf", "RouteId": 8049, "SeqNo": 84, "Terminal": 0, "DistrictId": 1, "Latitude": 22.88165, "Longitude": 120.34215, "IVRNo": 9594, "EXTVoiceNo": 9158, "traveltime": 0, "holidayTraveltime": 0}, {"Id": "9159", "pgp": 0, "GoBack": 2, "SID": 11981, "NameZh": "\u5927\u57e4", "RouteId": 8049, "SeqNo": 85, "Terminal": 0, "DistrictId": 1, "Latitude": 22.88044, "Longitude": 120.34637, "IVRNo": 10219, "EXTVoiceNo": 9159, "traveltime": 0, "holidayTraveltime": 0}, {"Id": "9160", "pgp": 0, "GoBack": 2, "SID": 11982, "NameZh": "\u5357\u5d17\u5c71", "RouteId": 8049, "SeqNo": 86, "Terminal": 0, "DistrictId": 1, "Latitude": 22.87821, "Longitude": 120.35001, "IVRNo": 9596, "EXTVoiceNo": 9160, "traveltime": 0, "holidayTraveltime": 0}, {"Id": "9161", "pgp": 0, "GoBack": 2, "SID": 16991, "NameZh": "\u5cf0\u5c71\u91cc", "RouteId": 8049, "SeqNo": 87, "Terminal": 0, "DistrictId": 1, "Latitude": 22.87614, "Longitude": 120.35348, "IVRNo": 9597, "EXTVoiceNo": 9161, "traveltime": 0, "holidayTraveltime": 0}, {"Id": "9162", "pgp": 0, "GoBack": 2, "SID": 11984, "NameZh": "\u5d17\u5c71\u982d", "RouteId": 8049, "SeqNo": 88, "Terminal": 0, "DistrictId": 1, "Latitude": 22.87457, "Longitude": 120.35587, "IVRNo": 9598, "EXTVoiceNo": 9162, "traveltime": 0, "holidayTraveltime": 0}, {"Id": "9163", "pgp": 0, "GoBack": 2, "SID": 11985, "NameZh": "\u5d17\u5c71\u982d\u6eab\u6cc9", "RouteId": 8049, "SeqNo": 89, "Terminal": 0, "DistrictId": 1, "Latitude": 22.87404, "Longitude": 120.356962, "IVRNo": 9599, "EXTVoiceNo": 9163, "traveltime": 0, "holidayTraveltime": 0}, {"Id": "9164", "pgp": 0, "GoBack": 2, "SID": 11986, "NameZh": "\u5d17\u5b89\u8def", "RouteId": 8049, "SeqNo": 90, "Terminal": 1, "DistrictId": 1, "Latitude": 22.872795, "Longitude": 120.358777, "IVRNo": 9600, "EXTVoiceNo": 9164, "traveltime": 0, "holidayTraveltime": 0}]}