{"en": [{"Id": "5026", "pgp": 0, "GoBack": 1, "SID": 8815, "NameZh": "THSR Zuoying Station", "RouteId": 8507, "SeqNo": 1, "Terminal": 0, "DistrictId": 1, "Latitude": 22.686962, "Longitude": 120.308698, "IVRNo": 5026, "EXTVoiceNo": 5026, "traveltime": 0, "holidayTraveltime": 0}, {"Id": "1208", "pgp": 0, "GoBack": 1, "SID": 13141, "NameZh": "Renlin Rd. Intersection (Chengguan Rd. Section 2)", "RouteId": 8507, "SeqNo": 2, "Terminal": 0, "DistrictId": 1, "Latitude": 22.70217, "Longitude": 120.36, "IVRNo": 1664, "EXTVoiceNo": 21208, "traveltime": 0, "holidayTraveltime": 0}, {"Id": "9992", "pgp": 0, "GoBack": 1, "SID": 13145, "NameZh": "E-Da Outlet Mall", "RouteId": 8507, "SeqNo": 3, "Terminal": 0, "DistrictId": 1, "Latitude": 22.72987, "Longitude": 120.40282, "IVRNo": 5425, "EXTVoiceNo": 19992, "traveltime": 0, "holidayTraveltime": 0}, {"Id": "6120", "pgp": 0, "GoBack": 1, "SID": 14825, "NameZh": "E-Da World Station", "RouteId": 8507, "SeqNo": 4, "Terminal": 0, "DistrictId": 1, "Latitude": 22.729888, "Longitude": 120.407238, "IVRNo": 1671, "EXTVoiceNo": 26120, "traveltime": 0, "holidayTraveltime": 0}, {"Id": "0346", "pgp": 0, "GoBack": 1, "SID": 17942, "NameZh": "Sianfong Temple Station", "RouteId": 8507, "SeqNo": 5, "Terminal": 0, "DistrictId": 1, "Latitude": 22.727291, "Longitude": 120.423266, "IVRNo": 1224, "EXTVoiceNo": 346, "traveltime": 0, "holidayTraveltime": 0}, {"Id": "2378", "pgp": 0, "GoBack": 1, "SID": 19033, "NameZh": "Sanhe Village", "RouteId": 8507, "SeqNo": 6, "Terminal": 0, "DistrictId": 1, "Latitude": 22.724545, "Longitude": 120.429542, "IVRNo": 32378, "EXTVoiceNo": 32378, "traveltime": 0, "holidayTraveltime": 0}, {"Id": "6112", "pgp": 0, "GoBack": 1, "SID": 9169, "NameZh": "Pingan Bridge", "RouteId": 8507, "SeqNo": 7, "Terminal": 0, "DistrictId": 1, "Latitude": 22.719987, "Longitude": 120.436852, "IVRNo": 3409, "EXTVoiceNo": 26112, "traveltime": 0, "holidayTraveltime": 0}, {"Id": "9118", "pgp": 0, "GoBack": 1, "SID": 11815, "NameZh": "Sipu Junior High School", "RouteId": 8507, "SeqNo": 8, "Terminal": 0, "DistrictId": 1, "Latitude": 22.71938, "Longitude": 120.44371, "IVRNo": 5365, "EXTVoiceNo": 9118, "traveltime": 0, "holidayTraveltime": 0}, {"Id": "0334", "pgp": 0, "GoBack": 1, "SID": 19080, "NameZh": "Sipu Elementary School", "RouteId": 8507, "SeqNo": 9, "Terminal": 0, "DistrictId": 1, "Latitude": 22.722433, "Longitude": 120.443438, "IVRNo": 334, "EXTVoiceNo": 334, "traveltime": 0, "holidayTraveltime": 0}, {"Id": "0134", "pgp": 0, "GoBack": 1, "SID": 12576, "NameZh": "Sipu Police Station", "RouteId": 8507, "SeqNo": 10, "Terminal": 0, "DistrictId": 1, "Latitude": 22.727637, "Longitude": 120.444526, "IVRNo": 134, "EXTVoiceNo": 134, "traveltime": 0, "holidayTraveltime": 0}, {"Id": "2298", "pgp": 0, "GoBack": 1, "SID": 9177, "NameZh": "Majhuyuan", "RouteId": 8507, "SeqNo": 11, "Terminal": 0, "DistrictId": 1, "Latitude": 22.746179, "Longitude": 120.447179, "IVRNo": 3263, "EXTVoiceNo": 32298, "traveltime": 0, "holidayTraveltime": 0}, {"Id": "0395", "pgp": 0, "GoBack": 1, "SID": 9213, "NameZh": "Fo Guang Shan", "RouteId": 8507, "SeqNo": 12, "Terminal": 0, "DistrictId": 1, "Latitude": 22.74931, "Longitude": 120.44748, "IVRNo": 395, "EXTVoiceNo": 395, "traveltime": 0, "holidayTraveltime": 0}, {"Id": "0396", "pgp": 0, "GoBack": 1, "SID": 12722, "NameZh": "Fo Guang Shan Buddha Museum", "RouteId": 8507, "SeqNo": 13, "Terminal": 1, "DistrictId": 1, "Latitude": 22.75497, "Longitude": 120.44615, "IVRNo": 396, "EXTVoiceNo": 396, "traveltime": 0, "holidayTraveltime": 0}, {"Id": "0396", "pgp": 0, "GoBack": 2, "SID": 12362, "NameZh": "Fo Guang Shan Buddha Museum", "RouteId": 8507, "SeqNo": 1, "Terminal": 0, "DistrictId": 1, "Latitude": 22.754891, "Longitude": 120.447555, "IVRNo": 396, "EXTVoiceNo": 396, "traveltime": 0, "holidayTraveltime": 0}, {"Id": "0395", "pgp": 0, "GoBack": 2, "SID": 12721, "NameZh": "Fo Guang Shan", "RouteId": 8507, "SeqNo": 2, "Terminal": 0, "DistrictId": 1, "Latitude": 22.74932, "Longitude": 120.44748, "IVRNo": 395, "EXTVoiceNo": 395, "traveltime": 0, "holidayTraveltime": 0}, {"Id": "2298", "pgp": 0, "GoBack": 2, "SID": 9212, "NameZh": "Majhuyuan", "RouteId": 8507, "SeqNo": 3, "Terminal": 0, "DistrictId": 1, "Latitude": 22.746391, "Longitude": 120.446991, "IVRNo": 3263, "EXTVoiceNo": 32298, "traveltime": 0, "holidayTraveltime": 0}, {"Id": "0134", "pgp": 0, "GoBack": 2, "SID": 12481, "NameZh": "Sipu Police Station", "RouteId": 8507, "SeqNo": 4, "Terminal": 0, "DistrictId": 1, "Latitude": 22.72768, "Longitude": 120.4445, "IVRNo": 134, "EXTVoiceNo": 134, "traveltime": 0, "holidayTraveltime": 0}, {"Id": "0334", "pgp": 0, "GoBack": 2, "SID": 19081, "NameZh": "Sipu Elementary School", "RouteId": 8507, "SeqNo": 5, "Terminal": 0, "DistrictId": 1, "Latitude": 22.722599, "Longitude": 120.443312, "IVRNo": 334, "EXTVoiceNo": 334, "traveltime": 0, "holidayTraveltime": 0}, {"Id": "9118", "pgp": 0, "GoBack": 2, "SID": 11816, "NameZh": "Sipu Junior High School", "RouteId": 8507, "SeqNo": 6, "Terminal": 0, "DistrictId": 1, "Latitude": 22.71856, "Longitude": 120.4433, "IVRNo": 5365, "EXTVoiceNo": 9118, "traveltime": 0, "holidayTraveltime": 0}, {"Id": "6112", "pgp": 0, "GoBack": 2, "SID": 9220, "NameZh": "Pingan Bridge", "RouteId": 8507, "SeqNo": 7, "Terminal": 0, "DistrictId": 1, "Latitude": 22.720232, "Longitude": 120.436683, "IVRNo": 3409, "EXTVoiceNo": 26112, "traveltime": 0, "holidayTraveltime": 0}, {"Id": "2378", "pgp": 0, "GoBack": 2, "SID": 19034, "NameZh": "Sanhe Village", "RouteId": 8507, "SeqNo": 8, "Terminal": 0, "DistrictId": 1, "Latitude": 22.724686, "Longitude": 120.429628, "IVRNo": 32378, "EXTVoiceNo": 32378, "traveltime": 0, "holidayTraveltime": 0}, {"Id": "0346", "pgp": 0, "GoBack": 2, "SID": 17943, "NameZh": "Sianfong Temple Station", "RouteId": 8507, "SeqNo": 9, "Terminal": 0, "DistrictId": 1, "Latitude": 22.727563, "Longitude": 120.423073, "IVRNo": 1224, "EXTVoiceNo": 346, "traveltime": 0, "holidayTraveltime": 0}, {"Id": "6120", "pgp": 0, "GoBack": 2, "SID": 14826, "NameZh": "E-Da World Station", "RouteId": 8507, "SeqNo": 10, "Terminal": 0, "DistrictId": 1, "Latitude": 22.72972, "Longitude": 120.40679, "IVRNo": 1671, "EXTVoiceNo": 26120, "traveltime": 0, "holidayTraveltime": 0}, {"Id": "9992", "pgp": 0, "GoBack": 2, "SID": 13146, "NameZh": "E-Da Outlet Mall", "RouteId": 8507, "SeqNo": 11, "Terminal": 0, "DistrictId": 1, "Latitude": 22.72987, "Longitude": 120.40282, "IVRNo": 5425, "EXTVoiceNo": 19992, "traveltime": 0, "holidayTraveltime": 0}, {"Id": "1208", "pgp": 0, "GoBack": 2, "SID": 13142, "NameZh": "Renlin Rd. Intersection (Chengguan Rd. Section 2)", "RouteId": 8507, "SeqNo": 12, "Terminal": 0, "DistrictId": 1, "Latitude": 22.70252, "Longitude": 120.35947, "IVRNo": 1664, "EXTVoiceNo": 21208, "traveltime": 0, "holidayTraveltime": 0}, {"Id": "5026", "pgp": 0, "GoBack": 2, "SID": 13305, "NameZh": "THSR Zuoying Station", "RouteId": 8507, "SeqNo": 13, "Terminal": 1, "DistrictId": 1, "Latitude": 22.687215, "Longitude": 120.309019, "IVRNo": 5026, "EXTVoiceNo": 5026, "traveltime": 0, "holidayTraveltime": 0}], "zh": [{"Id": "5026", "pgp": 0, "GoBack": 1, "SID": 8815, "NameZh": "\u9ad8\u9435\u5de6\u71df\u7ad9", "RouteId": 8507, "SeqNo": 1, "Terminal": 0, "DistrictId": 1, "Latitude": 22.686962, "Longitude": 120.308698, "IVRNo": 5026, "EXTVoiceNo": 5026, "traveltime": 0, "holidayTraveltime": 0}, {"Id": "1208", "pgp": 0, "GoBack": 1, "SID": 13141, "NameZh": "\u4ec1\u6797\u8def\u53e3(\u6f84\u89c0\u8def\u4e8c\u6bb5)", "RouteId": 8507, "SeqNo": 2, "Terminal": 0, "DistrictId": 1, "Latitude": 22.70217, "Longitude": 120.36, "IVRNo": 1664, "EXTVoiceNo": 21208, "traveltime": 0, "holidayTraveltime": 0}, {"Id": "9992", "pgp": 0, "GoBack": 1, "SID": 13145, "NameZh": "\u8cfc\u7269\u5ee3\u5834\u7ad9", "RouteId": 8507, "SeqNo": 3, "Terminal": 0, "DistrictId": 1, "Latitude": 22.72987, "Longitude": 120.40282, "IVRNo": 5425, "EXTVoiceNo": 19992, "traveltime": 0, "holidayTraveltime": 0}, {"Id": "6120", "pgp": 0, "GoBack": 1, "SID": 14825, "NameZh": "\u7fa9\u5927\u4e16\u754c\u7ad9", "RouteId": 8507, "SeqNo": 4, "Terminal": 0, "DistrictId": 1, "Latitude": 22.729888, "Longitude": 120.407238, "IVRNo": 1671, "EXTVoiceNo": 26120, "traveltime": 0, "holidayTraveltime": 0}, {"Id": "0346", "pgp": 0, "GoBack": 1, "SID": 17942, "NameZh": "\u4ed9\u5cf0\u5bae\u7ad9", "RouteId": 8507, "SeqNo": 5, "Terminal": 0, "DistrictId": 1, "Latitude": 22.727291, "Longitude": 120.423266, "IVRNo": 1224, "EXTVoiceNo": 346, "traveltime": 0, "holidayTraveltime": 0}, {"Id": "2378", "pgp": 0, "GoBack": 1, "SID": 19033, "NameZh": "\u4e09\u548c\u91cc", "RouteId": 8507, "SeqNo": 6, "Terminal": 0, "DistrictId": 1, "Latitude": 22.724545, "Longitude": 120.429542, "IVRNo": 32378, "EXTVoiceNo": 32378, "traveltime": 0, "holidayTraveltime": 0}, {"Id": "6112", "pgp": 0, "GoBack": 1, "SID": 9169, "NameZh": "\u5e73\u5b89\u6a4b", "RouteId": 8507, "SeqNo": 7, "Terminal": 0, "DistrictId": 1, "Latitude": 22.719987, "Longitude": 120.436852, "IVRNo": 3409, "EXTVoiceNo": 26112, "traveltime": 0, "holidayTraveltime": 0}, {"Id": "9118", "pgp": 0, "GoBack": 1, "SID": 11815, "NameZh": "\u6eaa\u57d4\u570b\u4e2d", "RouteId": 8507, "SeqNo": 8, "Terminal": 0, "DistrictId": 1, "Latitude": 22.71938, "Longitude": 120.44371, "IVRNo": 5365, "EXTVoiceNo": 9118, "traveltime": 0, "holidayTraveltime": 0}, {"Id": "0334", "pgp": 0, "GoBack": 1, "SID": 19080, "NameZh": "\u6eaa\u57d4\u570b\u5c0f", "RouteId": 8507, "SeqNo": 9, "Terminal": 0, "DistrictId": 1, "Latitude": 22.722433, "Longitude": 120.443438, "IVRNo": 334, "EXTVoiceNo": 334, "traveltime": 0, "holidayTraveltime": 0}, {"Id": "0134", "pgp": 0, "GoBack": 1, "SID": 12576, "NameZh": "\u6eaa\u57d4\u6d3e\u51fa\u6240", "RouteId": 8507, "SeqNo": 10, "Terminal": 0, "DistrictId": 1, "Latitude": 22.727637, "Longitude": 120.444526, "IVRNo": 134, "EXTVoiceNo": 134, "traveltime": 0, "holidayTraveltime": 0}, {"Id": "2298", "pgp": 0, "GoBack": 1, "SID": 9177, "NameZh": "\u9ebb\u7af9\u5712", "RouteId": 8507, "SeqNo": 11, "Terminal": 0, "DistrictId": 1, "Latitude": 22.746179, "Longitude": 120.447179, "IVRNo": 3263, "EXTVoiceNo": 32298, "traveltime": 0, "holidayTraveltime": 0}, {"Id": "0395", "pgp": 0, "GoBack": 1, "SID": 9213, "NameZh": "\u4f5b\u5149\u5c71", "RouteId": 8507, "SeqNo": 12, "Terminal": 0, "DistrictId": 1, "Latitude": 22.74931, "Longitude": 120.44748, "IVRNo": 395, "EXTVoiceNo": 395, "traveltime": 0, "holidayTraveltime": 0}, {"Id": "0396", "pgp": 0, "GoBack": 1, "SID": 12722, "NameZh": "\u4f5b\u9640\u7d00\u5ff5\u9928", "RouteId": 8507, "SeqNo": 13, "Terminal": 1, "DistrictId": 1, "Latitude": 22.75497, "Longitude": 120.44615, "IVRNo": 396, "EXTVoiceNo": 396, "traveltime": 0, "holidayTraveltime": 0}, {"Id": "0396", "pgp": 0, "GoBack": 2, "SID": 12362, "NameZh": "\u4f5b\u9640\u7d00\u5ff5\u9928", "RouteId": 8507, "SeqNo": 1, "Terminal": 0, "DistrictId": 1, "Latitude": 22.754891, "Longitude": 120.447555, "IVRNo": 396, "EXTVoiceNo": 396, "traveltime": 0, "holidayTraveltime": 0}, {"Id": "0395", "pgp": 0, "GoBack": 2, "SID": 12721, "NameZh": "\u4f5b\u5149\u5c71", "RouteId": 8507, "SeqNo": 2, "Terminal": 0, "DistrictId": 1, "Latitude": 22.74932, "Longitude": 120.44748, "IVRNo": 395, "EXTVoiceNo": 395, "traveltime": 0, "holidayTraveltime": 0}, {"Id": "2298", "pgp": 0, "GoBack": 2, "SID": 9212, "NameZh": "\u9ebb\u7af9\u5712", "RouteId": 8507, "SeqNo": 3, "Terminal": 0, "DistrictId": 1, "Latitude": 22.746391, "Longitude": 120.446991, "IVRNo": 3263, "EXTVoiceNo": 32298, "traveltime": 0, "holidayTraveltime": 0}, {"Id": "0134", "pgp": 0, "GoBack": 2, "SID": 12481, "NameZh": "\u6eaa\u57d4\u6d3e\u51fa\u6240", "RouteId": 8507, "SeqNo": 4, "Terminal": 0, "DistrictId": 1, "Latitude": 22.72768, "Longitude": 120.4445, "IVRNo": 134, "EXTVoiceNo": 134, "traveltime": 0, "holidayTraveltime": 0}, {"Id": "0334", "pgp": 0, "GoBack": 2, "SID": 19081, "NameZh": "\u6eaa\u57d4\u570b\u5c0f", "RouteId": 8507, "SeqNo": 5, "Terminal": 0, "DistrictId": 1, "Latitude": 22.722599, "Longitude": 120.443312, "IVRNo": 334, "EXTVoiceNo": 334, "traveltime": 0, "holidayTraveltime": 0}, {"Id": "9118", "pgp": 0, "GoBack": 2, "SID": 11816, "NameZh": "\u6eaa\u57d4\u570b\u4e2d", "RouteId": 8507, "SeqNo": 6, "Terminal": 0, "DistrictId": 1, "Latitude": 22.71856, "Longitude": 120.4433, "IVRNo": 5365, "EXTVoiceNo": 9118, "traveltime": 0, "holidayTraveltime": 0}, {"Id": "6112", "pgp": 0, "GoBack": 2, "SID": 9220, "NameZh": "\u5e73\u5b89\u6a4b", "RouteId": 8507, "SeqNo": 7, "Terminal": 0, "DistrictId": 1, "Latitude": 22.720232, "Longitude": 120.436683, "IVRNo": 3409, "EXTVoiceNo": 26112, "traveltime": 0, "holidayTraveltime": 0}, {"Id": "2378", "pgp": 0, "GoBack": 2, "SID": 19034, "NameZh": "\u4e09\u548c\u91cc", "RouteId": 8507, "SeqNo": 8, "Terminal": 0, "DistrictId": 1, "Latitude": 22.724686, "Longitude": 120.429628, "IVRNo": 32378, "EXTVoiceNo": 32378, "traveltime": 0, "holidayTraveltime": 0}, {"Id": "0346", "pgp": 0, "GoBack": 2, "SID": 17943, "NameZh": "\u4ed9\u5cf0\u5bae\u7ad9", "RouteId": 8507, "SeqNo": 9, "Terminal": 0, "DistrictId": 1, "Latitude": 22.727563, "Longitude": 120.423073, "IVRNo": 1224, "EXTVoiceNo": 346, "traveltime": 0, "holidayTraveltime": 0}, {"Id": "6120", "pgp": 0, "GoBack": 2, "SID": 14826, "NameZh": "\u7fa9\u5927\u4e16\u754c\u7ad9", "RouteId": 8507, "SeqNo": 10, "Terminal": 0, "DistrictId": 1, "Latitude": 22.72972, "Longitude": 120.40679, "IVRNo": 1671, "EXTVoiceNo": 26120, "traveltime": 0, "holidayTraveltime": 0}, {"Id": "9992", "pgp": 0, "GoBack": 2, "SID": 13146, "NameZh": "\u8cfc\u7269\u5ee3\u5834\u7ad9", "RouteId": 8507, "SeqNo": 11, "Terminal": 0, "DistrictId": 1, "Latitude": 22.72987, "Longitude": 120.40282, "IVRNo": 5425, "EXTVoiceNo": 19992, "traveltime": 0, "holidayTraveltime": 0}, {"Id": "1208", "pgp": 0, "GoBack": 2, "SID": 13142, "NameZh": "\u4ec1\u6797\u8def\u53e3(\u6f84\u89c0\u8def\u4e8c\u6bb5)", "RouteId": 8507, "SeqNo": 12, "Terminal": 0, "DistrictId": 1, "Latitude": 22.70252, "Longitude": 120.35947, "IVRNo": 1664, "EXTVoiceNo": 21208, "traveltime": 0, "holidayTraveltime": 0}, {"Id": "5026", "pgp": 0, "GoBack": 2, "SID": 13305, "NameZh": "\u9ad8\u9435\u5de6\u71df\u7ad9", "RouteId": 8507, "SeqNo": 13, "Terminal": 1, "DistrictId": 1, "Latitude": 22.687215, "Longitude": 120.309019, "IVRNo": 5026, "EXTVoiceNo": 5026, "traveltime": 0, "holidayTraveltime": 0}]}