{"en": [{"Id": "0412", "pgp": 0, "GoBack": 1, "SID": 2891, "NameZh": "Kaohsiung Train Station (MRT Kaohsiung Main Station)", "RouteId": 56, "SeqNo": 1, "Terminal": 0, "DistrictId": 1, "Latitude": 22.636963, "Longitude": 120.302214, "IVRNo": 412, "EXTVoiceNo": 412, "traveltime": 0, "holidayTraveltime": 0}, {"Id": "0243", "pgp": 0, "GoBack": 1, "SID": 662, "NameZh": "Cisian 2nd Rd.", "RouteId": 56, "SeqNo": 2, "Terminal": 0, "DistrictId": 1, "Latitude": 22.634643, "Longitude": 120.300634, "IVRNo": 243, "EXTVoiceNo": 243, "traveltime": 0, "holidayTraveltime": 0}, {"Id": "0244", "pgp": 0, "GoBack": 1, "SID": 657, "NameZh": "Zihli Rd. Intersection", "RouteId": 56, "SeqNo": 3, "Terminal": 0, "DistrictId": 1, "Latitude": 22.633978, "Longitude": 120.298272, "IVRNo": 244, "EXTVoiceNo": 244, "traveltime": 0, "holidayTraveltime": 0}, {"Id": "1427", "pgp": 0, "GoBack": 1, "SID": 652, "NameZh": "Jhonghua Rd. Intersection (Cisian 2nd Rd.)", "RouteId": 56, "SeqNo": 4, "Terminal": 0, "DistrictId": 1, "Latitude": 22.633186, "Longitude": 120.295856, "IVRNo": 1427, "EXTVoiceNo": 1427, "traveltime": 0, "holidayTraveltime": 0}, {"Id": "1428", "pgp": 0, "GoBack": 1, "SID": 647, "NameZh": "Zihciang Rd. Intersection", "RouteId": 56, "SeqNo": 5, "Terminal": 0, "DistrictId": 1, "Latitude": 22.632344, "Longitude": 120.293378, "IVRNo": 1428, "EXTVoiceNo": 1428, "traveltime": 0, "holidayTraveltime": 0}, {"Id": "1429", "pgp": 0, "GoBack": 1, "SID": 644, "NameZh": "Chenggong 1st Rd. Intersection", "RouteId": 56, "SeqNo": 6, "Terminal": 0, "DistrictId": 1, "Latitude": 22.631606, "Longitude": 120.29115, "IVRNo": 1429, "EXTVoiceNo": 1429, "traveltime": 0, "holidayTraveltime": 0}, {"Id": "6100", "pgp": 0, "GoBack": 1, "SID": 638, "NameZh": "Hedong Rd. Intersection", "RouteId": 56, "SeqNo": 7, "Terminal": 0, "DistrictId": 1, "Latitude": 22.63054, "Longitude": 120.287719, "IVRNo": 8746, "EXTVoiceNo": 26100, "traveltime": 0, "holidayTraveltime": 0}, {"Id": "9501", "pgp": 0, "GoBack": 1, "SID": 11347, "NameZh": "Fubei Rd.", "RouteId": 56, "SeqNo": 8, "Terminal": 0, "DistrictId": 1, "Latitude": 22.62929, "Longitude": 120.28545, "IVRNo": 9501, "EXTVoiceNo": 9501, "traveltime": 0, "holidayTraveltime": 0}, {"Id": "4000", "pgp": 0, "GoBack": 1, "SID": 2658, "NameZh": "MRT Yanchengpu Station (Daren Rd.)", "RouteId": 56, "SeqNo": 9, "Terminal": 0, "DistrictId": 1, "Latitude": 22.625203, "Longitude": 120.285357, "IVRNo": 4000, "EXTVoiceNo": 4000, "traveltime": 0, "holidayTraveltime": 0}, {"Id": "0424", "pgp": 0, "GoBack": 1, "SID": 2957, "NameZh": "Dajhih Rd. (Guangrong Elementary School)", "RouteId": 56, "SeqNo": 10, "Terminal": 0, "DistrictId": 1, "Latitude": 22.623516, "Longitude": 120.2866, "IVRNo": 115, "EXTVoiceNo": 424, "traveltime": 0, "holidayTraveltime": 0}, {"Id": "0423", "pgp": 0, "GoBack": 1, "SID": 2950, "NameZh": "MRT Yanchengpu Station (Wufu 4th Rd.)", "RouteId": 56, "SeqNo": 11, "Terminal": 0, "DistrictId": 1, "Latitude": 22.623167, "Longitude": 120.284262, "IVRNo": 426, "EXTVoiceNo": 423, "traveltime": 0, "holidayTraveltime": 0}, {"Id": "0021", "pgp": 0, "GoBack": 1, "SID": 2224, "NameZh": "Wufu Lainan St. Intersection", "RouteId": 56, "SeqNo": 12, "Terminal": 0, "DistrictId": 1, "Latitude": 22.624031, "Longitude": 120.282657, "IVRNo": 21, "EXTVoiceNo": 21, "traveltime": 0, "holidayTraveltime": 0}, {"Id": "0031", "pgp": 0, "GoBack": 1, "SID": 2178, "NameZh": "Jianguo 4th Rd. Intersection", "RouteId": 56, "SeqNo": 13, "Terminal": 0, "DistrictId": 1, "Latitude": 22.625086, "Longitude": 120.280364, "IVRNo": 31, "EXTVoiceNo": 31, "traveltime": 0, "holidayTraveltime": 0}, {"Id": "4603", "pgp": 0, "GoBack": 1, "SID": 3134, "NameZh": "Kinma Military Hostel", "RouteId": 56, "SeqNo": 14, "Terminal": 0, "DistrictId": 1, "Latitude": 22.62776, "Longitude": 120.279232, "IVRNo": 4216, "EXTVoiceNo": 4603, "traveltime": 0, "holidayTraveltime": 0}, {"Id": "8032", "pgp": 0, "GoBack": 1, "SID": 2933, "NameZh": "Taiwan Power Company (Gushan)", "RouteId": 56, "SeqNo": 15, "Terminal": 0, "DistrictId": 1, "Latitude": 22.63015, "Longitude": 120.28075, "IVRNo": 4209, "EXTVoiceNo": 8032, "traveltime": 0, "holidayTraveltime": 0}, {"Id": "4210", "pgp": 0, "GoBack": 1, "SID": 2941, "NameZh": "Gushan Police Station", "RouteId": 56, "SeqNo": 16, "Terminal": 0, "DistrictId": 1, "Latitude": 22.6347, "Longitude": 120.282683, "IVRNo": 4210, "EXTVoiceNo": 4210, "traveltime": 0, "holidayTraveltime": 0}, {"Id": "4778", "pgp": 0, "GoBack": 1, "SID": 18429, "NameZh": "Gushan Administration Center (Singlong)", "RouteId": 56, "SeqNo": 17, "Terminal": 0, "DistrictId": 1, "Latitude": 22.636048, "Longitude": 120.280626, "IVRNo": 1295, "EXTVoiceNo": 4778, "traveltime": 0, "holidayTraveltime": 0}, {"Id": "4711", "pgp": 0, "GoBack": 1, "SID": 3206, "NameZh": "Yuanheng Temple (Singlong Rd.)", "RouteId": 56, "SeqNo": 18, "Terminal": 0, "DistrictId": 1, "Latitude": 22.637737, "Longitude": 120.279368, "IVRNo": 1160, "EXTVoiceNo": 4711, "traveltime": 0, "holidayTraveltime": 0}, {"Id": "4801", "pgp": 0, "GoBack": 1, "SID": 3514, "NameZh": "Wanshou Mountain Bridge", "RouteId": 56, "SeqNo": 19, "Terminal": 0, "DistrictId": 1, "Latitude": 22.635867, "Longitude": 120.2792, "IVRNo": 4801, "EXTVoiceNo": 4801, "traveltime": 0, "holidayTraveltime": 0}, {"Id": "4227", "pgp": 0, "GoBack": 1, "SID": 2948, "NameZh": "Shoushan Parking Lot", "RouteId": 56, "SeqNo": 20, "Terminal": 0, "DistrictId": 1, "Latitude": 22.634796, "Longitude": 120.279764, "IVRNo": 4227, "EXTVoiceNo": 4227, "traveltime": 0, "holidayTraveltime": 0}, {"Id": "4802", "pgp": 0, "GoBack": 1, "SID": 3515, "NameZh": "Shoushan Entrance", "RouteId": 56, "SeqNo": 21, "Terminal": 0, "DistrictId": 1, "Latitude": 22.6348, "Longitude": 120.277517, "IVRNo": 4802, "EXTVoiceNo": 4802, "traveltime": 0, "holidayTraveltime": 0}, {"Id": "4803", "pgp": 0, "GoBack": 1, "SID": 3517, "NameZh": "Shoushan Zoo", "RouteId": 56, "SeqNo": 22, "Terminal": 1, "DistrictId": 1, "Latitude": 22.633966, "Longitude": 120.276463, "IVRNo": 4803, "EXTVoiceNo": 4803, "traveltime": 0, "holidayTraveltime": 0}, {"Id": "4803", "pgp": 0, "GoBack": 2, "SID": 3518, "NameZh": "Shoushan Zoo", "RouteId": 56, "SeqNo": 1, "Terminal": 0, "DistrictId": 1, "Latitude": 22.633914, "Longitude": 120.275905, "IVRNo": 4803, "EXTVoiceNo": 4803, "traveltime": 0, "holidayTraveltime": 0}, {"Id": "4804", "pgp": 0, "GoBack": 2, "SID": 3519, "NameZh": "Martyrs Shrine", "RouteId": 56, "SeqNo": 2, "Terminal": 0, "DistrictId": 1, "Latitude": 22.62924, "Longitude": 120.277517, "IVRNo": 4635, "EXTVoiceNo": 4804, "traveltime": 0, "holidayTraveltime": 0}, {"Id": "9181", "pgp": 0, "GoBack": 2, "SID": 6748, "NameZh": "Lover View Area", "RouteId": 56, "SeqNo": 3, "Terminal": 0, "DistrictId": 1, "Latitude": 22.62535, "Longitude": 120.27444, "IVRNo": 5, "EXTVoiceNo": 9181, "traveltime": 0, "holidayTraveltime": 0}, {"Id": "0031", "pgp": 0, "GoBack": 2, "SID": 1375, "NameZh": "Jianguo 4th Rd. Intersection", "RouteId": 56, "SeqNo": 4, "Terminal": 0, "DistrictId": 1, "Latitude": 22.625078, "Longitude": 120.280656, "IVRNo": 31, "EXTVoiceNo": 31, "traveltime": 0, "holidayTraveltime": 0}, {"Id": "0021", "pgp": 0, "GoBack": 2, "SID": 1219, "NameZh": "Wufu Lainan St. Intersection", "RouteId": 56, "SeqNo": 5, "Terminal": 0, "DistrictId": 1, "Latitude": 22.624189, "Longitude": 120.282456, "IVRNo": 21, "EXTVoiceNo": 21, "traveltime": 0, "holidayTraveltime": 0}, {"Id": "0423", "pgp": 0, "GoBack": 2, "SID": 2966, "NameZh": "MRT Yanchengpu Station (Wufu 4th Rd.)", "RouteId": 56, "SeqNo": 6, "Terminal": 0, "DistrictId": 1, "Latitude": 22.623031, "Longitude": 120.284753, "IVRNo": 426, "EXTVoiceNo": 423, "traveltime": 0, "holidayTraveltime": 0}, {"Id": "0424", "pgp": 0, "GoBack": 2, "SID": 2964, "NameZh": "Dajhih Rd. (Guangrong Elementary School)", "RouteId": 56, "SeqNo": 7, "Terminal": 0, "DistrictId": 1, "Latitude": 22.623619, "Longitude": 120.286557, "IVRNo": 115, "EXTVoiceNo": 424, "traveltime": 0, "holidayTraveltime": 0}, {"Id": "4000", "pgp": 0, "GoBack": 2, "SID": 2652, "NameZh": "MRT Yanchengpu Station (Daren Rd.)", "RouteId": 56, "SeqNo": 8, "Terminal": 0, "DistrictId": 1, "Latitude": 22.625194, "Longitude": 120.285163, "IVRNo": 4000, "EXTVoiceNo": 4000, "traveltime": 0, "holidayTraveltime": 0}, {"Id": "9501", "pgp": 0, "GoBack": 2, "SID": 11346, "NameZh": "Fubei Rd.", "RouteId": 56, "SeqNo": 9, "Terminal": 0, "DistrictId": 1, "Latitude": 22.62885, "Longitude": 120.28555, "IVRNo": 9501, "EXTVoiceNo": 9501, "traveltime": 0, "holidayTraveltime": 0}, {"Id": "6100", "pgp": 0, "GoBack": 2, "SID": 633, "NameZh": "Hedong Rd. Intersection", "RouteId": 56, "SeqNo": 10, "Terminal": 0, "DistrictId": 1, "Latitude": 22.630619, "Longitude": 120.287719, "IVRNo": 8746, "EXTVoiceNo": 26100, "traveltime": 0, "holidayTraveltime": 0}, {"Id": "1429", "pgp": 0, "GoBack": 2, "SID": 627, "NameZh": "Chenggong 1st Rd. Intersection", "RouteId": 56, "SeqNo": 11, "Terminal": 0, "DistrictId": 1, "Latitude": 22.631592, "Longitude": 120.290567, "IVRNo": 1429, "EXTVoiceNo": 1429, "traveltime": 0, "holidayTraveltime": 0}, {"Id": "1428", "pgp": 0, "GoBack": 2, "SID": 622, "NameZh": "Zihciang Rd. Intersection", "RouteId": 56, "SeqNo": 12, "Terminal": 0, "DistrictId": 1, "Latitude": 22.632569, "Longitude": 120.293517, "IVRNo": 1428, "EXTVoiceNo": 1428, "traveltime": 0, "holidayTraveltime": 0}, {"Id": "1427", "pgp": 0, "GoBack": 2, "SID": 621, "NameZh": "Jhonghua Rd. Intersection (Cisian 2nd Rd.)", "RouteId": 56, "SeqNo": 13, "Terminal": 0, "DistrictId": 1, "Latitude": 22.633385, "Longitude": 120.295989, "IVRNo": 1427, "EXTVoiceNo": 1427, "traveltime": 0, "holidayTraveltime": 0}, {"Id": "0244", "pgp": 0, "GoBack": 2, "SID": 1657, "NameZh": "Zihli Rd. Intersection", "RouteId": 56, "SeqNo": 14, "Terminal": 0, "DistrictId": 1, "Latitude": 22.634175, "Longitude": 120.298358, "IVRNo": 244, "EXTVoiceNo": 244, "traveltime": 0, "holidayTraveltime": 0}, {"Id": "0243", "pgp": 0, "GoBack": 2, "SID": 1656, "NameZh": "Cisian 2nd Rd.", "RouteId": 56, "SeqNo": 15, "Terminal": 0, "DistrictId": 1, "Latitude": 22.634789, "Longitude": 120.300733, "IVRNo": 243, "EXTVoiceNo": 243, "traveltime": 0, "holidayTraveltime": 0}, {"Id": "1445", "pgp": 0, "GoBack": 2, "SID": 670, "NameZh": "Jhongshan 1st Rd. Intersection", "RouteId": 56, "SeqNo": 16, "Terminal": 0, "DistrictId": 1, "Latitude": 22.634432, "Longitude": 120.303517, "IVRNo": 1445, "EXTVoiceNo": 1445, "traveltime": 0, "holidayTraveltime": 0}, {"Id": "0411", "pgp": 0, "GoBack": 2, "SID": 11348, "NameZh": "Linsen Rd. Intersection", "RouteId": 56, "SeqNo": 17, "Terminal": 0, "DistrictId": 1, "Latitude": 22.637686, "Longitude": 120.304303, "IVRNo": 92, "EXTVoiceNo": 411, "traveltime": 0, "holidayTraveltime": 0}, {"Id": "0412", "pgp": 0, "GoBack": 2, "SID": 1618, "NameZh": "Kaohsiung Train Station (MRT Kaohsiung Main Station)", "RouteId": 56, "SeqNo": 18, "Terminal": 1, "DistrictId": 1, "Latitude": 22.636963, "Longitude": 120.302214, "IVRNo": 412, "EXTVoiceNo": 412, "traveltime": 0, "holidayTraveltime": 0}], "zh": [{"Id": "0412", "pgp": 0, "GoBack": 1, "SID": 2891, "NameZh": "\u9ad8\u96c4\u706b\u8eca\u7ad9(\u6377\u904b\u9ad8\u96c4\u8eca\u7ad9)", "RouteId": 56, "SeqNo": 1, "Terminal": 0, "DistrictId": 1, "Latitude": 22.636963, "Longitude": 120.302214, "IVRNo": 412, "EXTVoiceNo": 412, "traveltime": 0, "holidayTraveltime": 0}, {"Id": "0243", "pgp": 0, "GoBack": 1, "SID": 662, "NameZh": "\u4e03\u8ce2\u4e8c\u8def", "RouteId": 56, "SeqNo": 2, "Terminal": 0, "DistrictId": 1, "Latitude": 22.634643, "Longitude": 120.300634, "IVRNo": 243, "EXTVoiceNo": 243, "traveltime": 0, "holidayTraveltime": 0}, {"Id": "0244", "pgp": 0, "GoBack": 1, "SID": 657, "NameZh": "\u81ea\u7acb\u8def\u53e3", "RouteId": 56, "SeqNo": 3, "Terminal": 0, "DistrictId": 1, "Latitude": 22.633978, "Longitude": 120.298272, "IVRNo": 244, "EXTVoiceNo": 244, "traveltime": 0, "holidayTraveltime": 0}, {"Id": "1427", "pgp": 0, "GoBack": 1, "SID": 652, "NameZh": "\u4e2d\u83ef\u8def\u53e3(\u4e03\u8ce2\u4e8c\u8def)", "RouteId": 56, "SeqNo": 4, "Terminal": 0, "DistrictId": 1, "Latitude": 22.633186, "Longitude": 120.295856, "IVRNo": 1427, "EXTVoiceNo": 1427, "traveltime": 0, "holidayTraveltime": 0}, {"Id": "1428", "pgp": 0, "GoBack": 1, "SID": 647, "NameZh": "\u81ea\u5f37\u8def\u53e3", "RouteId": 56, "SeqNo": 5, "Terminal": 0, "DistrictId": 1, "Latitude": 22.632344, "Longitude": 120.293378, "IVRNo": 1428, "EXTVoiceNo": 1428, "traveltime": 0, "holidayTraveltime": 0}, {"Id": "1429", "pgp": 0, "GoBack": 1, "SID": 644, "NameZh": "\u6210\u529f\u4e00\u8def\u53e3", "RouteId": 56, "SeqNo": 6, "Terminal": 0, "DistrictId": 1, "Latitude": 22.631606, "Longitude": 120.29115, "IVRNo": 1429, "EXTVoiceNo": 1429, "traveltime": 0, "holidayTraveltime": 0}, {"Id": "6100", "pgp": 0, "GoBack": 1, "SID": 638, "NameZh": "\u6cb3\u6771\u8def\u53e3", "RouteId": 56, "SeqNo": 7, "Terminal": 0, "DistrictId": 1, "Latitude": 22.63054, "Longitude": 120.287719, "IVRNo": 8746, "EXTVoiceNo": 26100, "traveltime": 0, "holidayTraveltime": 0}, {"Id": "9501", "pgp": 0, "GoBack": 1, "SID": 11347, "NameZh": "\u5e9c\u5317\u8def", "RouteId": 56, "SeqNo": 8, "Terminal": 0, "DistrictId": 1, "Latitude": 22.62929, "Longitude": 120.28545, "IVRNo": 9501, "EXTVoiceNo": 9501, "traveltime": 0, "holidayTraveltime": 0}, {"Id": "4000", "pgp": 0, "GoBack": 1, "SID": 2658, "NameZh": "\u6377\u904b\u9e7d\u57d5\u57d4\u7ad9(\u5927\u4ec1\u8def)", "RouteId": 56, "SeqNo": 9, "Terminal": 0, "DistrictId": 1, "Latitude": 22.625203, "Longitude": 120.285357, "IVRNo": 4000, "EXTVoiceNo": 4000, "traveltime": 0, "holidayTraveltime": 0}, {"Id": "0424", "pgp": 0, "GoBack": 1, "SID": 2957, "NameZh": "\u5927\u667a\u8def(\u5149\u69ae\u570b\u5c0f)", "RouteId": 56, "SeqNo": 10, "Terminal": 0, "DistrictId": 1, "Latitude": 22.623516, "Longitude": 120.2866, "IVRNo": 115, "EXTVoiceNo": 424, "traveltime": 0, "holidayTraveltime": 0}, {"Id": "0423", "pgp": 0, "GoBack": 1, "SID": 2950, "NameZh": "\u6377\u904b\u9e7d\u57d5\u57d4\u7ad9(\u4e94\u798f\u56db\u8def)", "RouteId": 56, "SeqNo": 11, "Terminal": 0, "DistrictId": 1, "Latitude": 22.623167, "Longitude": 120.284262, "IVRNo": 426, "EXTVoiceNo": 423, "traveltime": 0, "holidayTraveltime": 0}, {"Id": "0021", "pgp": 0, "GoBack": 1, "SID": 2224, "NameZh": "\u4e94\u798f\u7028\u5357\u8857\u53e3", "RouteId": 56, "SeqNo": 12, "Terminal": 0, "DistrictId": 1, "Latitude": 22.624031, "Longitude": 120.282657, "IVRNo": 21, "EXTVoiceNo": 21, "traveltime": 0, "holidayTraveltime": 0}, {"Id": "0031", "pgp": 0, "GoBack": 1, "SID": 2178, "NameZh": "\u5efa\u570b\u56db\u8def\u53e3", "RouteId": 56, "SeqNo": 13, "Terminal": 0, "DistrictId": 1, "Latitude": 22.625086, "Longitude": 120.280364, "IVRNo": 31, "EXTVoiceNo": 31, "traveltime": 0, "holidayTraveltime": 0}, {"Id": "4603", "pgp": 0, "GoBack": 1, "SID": 3134, "NameZh": "\u91d1\u99ac\u8cd3\u9928", "RouteId": 56, "SeqNo": 14, "Terminal": 0, "DistrictId": 1, "Latitude": 22.62776, "Longitude": 120.279232, "IVRNo": 4216, "EXTVoiceNo": 4603, "traveltime": 0, "holidayTraveltime": 0}, {"Id": "8032", "pgp": 0, "GoBack": 1, "SID": 2933, "NameZh": "\u96fb\u529b\u516c\u53f8(\u9f13\u5c71)", "RouteId": 56, "SeqNo": 15, "Terminal": 0, "DistrictId": 1, "Latitude": 22.63015, "Longitude": 120.28075, "IVRNo": 4209, "EXTVoiceNo": 8032, "traveltime": 0, "holidayTraveltime": 0}, {"Id": "4210", "pgp": 0, "GoBack": 1, "SID": 2941, "NameZh": "\u9f13\u5c71\u6d3e\u51fa\u6240", "RouteId": 56, "SeqNo": 16, "Terminal": 0, "DistrictId": 1, "Latitude": 22.6347, "Longitude": 120.282683, "IVRNo": 4210, "EXTVoiceNo": 4210, "traveltime": 0, "holidayTraveltime": 0}, {"Id": "4778", "pgp": 0, "GoBack": 1, "SID": 18429, "NameZh": "\u9f13\u5c71\u884c\u653f\u4e2d\u5fc3(\u8208\u9686)", "RouteId": 56, "SeqNo": 17, "Terminal": 0, "DistrictId": 1, "Latitude": 22.636048, "Longitude": 120.280626, "IVRNo": 1295, "EXTVoiceNo": 4778, "traveltime": 0, "holidayTraveltime": 0}, {"Id": "4711", "pgp": 0, "GoBack": 1, "SID": 3206, "NameZh": "\u5143\u4ea8\u5bfa(\u8208\u9686\u8def)", "RouteId": 56, "SeqNo": 18, "Terminal": 0, "DistrictId": 1, "Latitude": 22.637737, "Longitude": 120.279368, "IVRNo": 1160, "EXTVoiceNo": 4711, "traveltime": 0, "holidayTraveltime": 0}, {"Id": "4801", "pgp": 0, "GoBack": 1, "SID": 3514, "NameZh": "\u842c\u58fd\u5c71\u6a4b", "RouteId": 56, "SeqNo": 19, "Terminal": 0, "DistrictId": 1, "Latitude": 22.635867, "Longitude": 120.2792, "IVRNo": 4801, "EXTVoiceNo": 4801, "traveltime": 0, "holidayTraveltime": 0}, {"Id": "4227", "pgp": 0, "GoBack": 1, "SID": 2948, "NameZh": "\u58fd\u5c71\u505c\u8eca\u5834", "RouteId": 56, "SeqNo": 20, "Terminal": 0, "DistrictId": 1, "Latitude": 22.634796, "Longitude": 120.279764, "IVRNo": 4227, "EXTVoiceNo": 4227, "traveltime": 0, "holidayTraveltime": 0}, {"Id": "4802", "pgp": 0, "GoBack": 1, "SID": 3515, "NameZh": "\u58fd\u5c71\u767b\u5c71\u53e3", "RouteId": 56, "SeqNo": 21, "Terminal": 0, "DistrictId": 1, "Latitude": 22.6348, "Longitude": 120.277517, "IVRNo": 4802, "EXTVoiceNo": 4802, "traveltime": 0, "holidayTraveltime": 0}, {"Id": "4803", "pgp": 0, "GoBack": 1, "SID": 3517, "NameZh": "\u58fd\u5c71\u52d5\u7269\u5712", "RouteId": 56, "SeqNo": 22, "Terminal": 1, "DistrictId": 1, "Latitude": 22.633966, "Longitude": 120.276463, "IVRNo": 4803, "EXTVoiceNo": 4803, "traveltime": 0, "holidayTraveltime": 0}, {"Id": "4803", "pgp": 0, "GoBack": 2, "SID": 3518, "NameZh": "\u58fd\u5c71\u52d5\u7269\u5712", "RouteId": 56, "SeqNo": 1, "Terminal": 0, "DistrictId": 1, "Latitude": 22.633914, "Longitude": 120.275905, "IVRNo": 4803, "EXTVoiceNo": 4803, "traveltime": 0, "holidayTraveltime": 0}, {"Id": "4804", "pgp": 0, "GoBack": 2, "SID": 3519, "NameZh": "\u5fe0\u70c8\u7960", "RouteId": 56, "SeqNo": 2, "Terminal": 0, "DistrictId": 1, "Latitude": 22.62924, "Longitude": 120.277517, "IVRNo": 4635, "EXTVoiceNo": 4804, "traveltime": 0, "holidayTraveltime": 0}, {"Id": "9181", "pgp": 0, "GoBack": 2, "SID": 6748, "NameZh": "\u60c5\u4eba\u89c0\u666f\u53f0", "RouteId": 56, "SeqNo": 3, "Terminal": 0, "DistrictId": 1, "Latitude": 22.62535, "Longitude": 120.27444, "IVRNo": 5, "EXTVoiceNo": 9181, "traveltime": 0, "holidayTraveltime": 0}, {"Id": "0031", "pgp": 0, "GoBack": 2, "SID": 1375, "NameZh": "\u5efa\u570b\u56db\u8def\u53e3", "RouteId": 56, "SeqNo": 4, "Terminal": 0, "DistrictId": 1, "Latitude": 22.625078, "Longitude": 120.280656, "IVRNo": 31, "EXTVoiceNo": 31, "traveltime": 0, "holidayTraveltime": 0}, {"Id": "0021", "pgp": 0, "GoBack": 2, "SID": 1219, "NameZh": "\u4e94\u798f\u7028\u5357\u8857\u53e3", "RouteId": 56, "SeqNo": 5, "Terminal": 0, "DistrictId": 1, "Latitude": 22.624189, "Longitude": 120.282456, "IVRNo": 21, "EXTVoiceNo": 21, "traveltime": 0, "holidayTraveltime": 0}, {"Id": "0423", "pgp": 0, "GoBack": 2, "SID": 2966, "NameZh": "\u6377\u904b\u9e7d\u57d5\u57d4\u7ad9(\u4e94\u798f\u56db\u8def)", "RouteId": 56, "SeqNo": 6, "Terminal": 0, "DistrictId": 1, "Latitude": 22.623031, "Longitude": 120.284753, "IVRNo": 426, "EXTVoiceNo": 423, "traveltime": 0, "holidayTraveltime": 0}, {"Id": "0424", "pgp": 0, "GoBack": 2, "SID": 2964, "NameZh": "\u5927\u667a\u8def(\u5149\u69ae\u570b\u5c0f)", "RouteId": 56, "SeqNo": 7, "Terminal": 0, "DistrictId": 1, "Latitude": 22.623619, "Longitude": 120.286557, "IVRNo": 115, "EXTVoiceNo": 424, "traveltime": 0, "holidayTraveltime": 0}, {"Id": "4000", "pgp": 0, "GoBack": 2, "SID": 2652, "NameZh": "\u6377\u904b\u9e7d\u57d5\u57d4\u7ad9(\u5927\u4ec1\u8def)", "RouteId": 56, "SeqNo": 8, "Terminal": 0, "DistrictId": 1, "Latitude": 22.625194, "Longitude": 120.285163, "IVRNo": 4000, "EXTVoiceNo": 4000, "traveltime": 0, "holidayTraveltime": 0}, {"Id": "9501", "pgp": 0, "GoBack": 2, "SID": 11346, "NameZh": "\u5e9c\u5317\u8def", "RouteId": 56, "SeqNo": 9, "Terminal": 0, "DistrictId": 1, "Latitude": 22.62885, "Longitude": 120.28555, "IVRNo": 9501, "EXTVoiceNo": 9501, "traveltime": 0, "holidayTraveltime": 0}, {"Id": "6100", "pgp": 0, "GoBack": 2, "SID": 633, "NameZh": "\u6cb3\u6771\u8def\u53e3", "RouteId": 56, "SeqNo": 10, "Terminal": 0, "DistrictId": 1, "Latitude": 22.630619, "Longitude": 120.287719, "IVRNo": 8746, "EXTVoiceNo": 26100, "traveltime": 0, "holidayTraveltime": 0}, {"Id": "1429", "pgp": 0, "GoBack": 2, "SID": 627, "NameZh": "\u6210\u529f\u4e00\u8def\u53e3", "RouteId": 56, "SeqNo": 11, "Terminal": 0, "DistrictId": 1, "Latitude": 22.631592, "Longitude": 120.290567, "IVRNo": 1429, "EXTVoiceNo": 1429, "traveltime": 0, "holidayTraveltime": 0}, {"Id": "1428", "pgp": 0, "GoBack": 2, "SID": 622, "NameZh": "\u81ea\u5f37\u8def\u53e3", "RouteId": 56, "SeqNo": 12, "Terminal": 0, "DistrictId": 1, "Latitude": 22.632569, "Longitude": 120.293517, "IVRNo": 1428, "EXTVoiceNo": 1428, "traveltime": 0, "holidayTraveltime": 0}, {"Id": "1427", "pgp": 0, "GoBack": 2, "SID": 621, "NameZh": "\u4e2d\u83ef\u8def\u53e3(\u4e03\u8ce2\u4e8c\u8def)", "RouteId": 56, "SeqNo": 13, "Terminal": 0, "DistrictId": 1, "Latitude": 22.633385, "Longitude": 120.295989, "IVRNo": 1427, "EXTVoiceNo": 1427, "traveltime": 0, "holidayTraveltime": 0}, {"Id": "0244", "pgp": 0, "GoBack": 2, "SID": 1657, "NameZh": "\u81ea\u7acb\u8def\u53e3", "RouteId": 56, "SeqNo": 14, "Terminal": 0, "DistrictId": 1, "Latitude": 22.634175, "Longitude": 120.298358, "IVRNo": 244, "EXTVoiceNo": 244, "traveltime": 0, "holidayTraveltime": 0}, {"Id": "0243", "pgp": 0, "GoBack": 2, "SID": 1656, "NameZh": "\u4e03\u8ce2\u4e8c\u8def", "RouteId": 56, "SeqNo": 15, "Terminal": 0, "DistrictId": 1, "Latitude": 22.634789, "Longitude": 120.300733, "IVRNo": 243, "EXTVoiceNo": 243, "traveltime": 0, "holidayTraveltime": 0}, {"Id": "1445", "pgp": 0, "GoBack": 2, "SID": 670, "NameZh": "\u4e2d\u5c71\u4e00\u8def\u53e3", "RouteId": 56, "SeqNo": 16, "Terminal": 0, "DistrictId": 1, "Latitude": 22.634432, "Longitude": 120.303517, "IVRNo": 1445, "EXTVoiceNo": 1445, "traveltime": 0, "holidayTraveltime": 0}, {"Id": "0411", "pgp": 0, "GoBack": 2, "SID": 11348, "NameZh": "\u6797\u68ee\u8def\u53e3", "RouteId": 56, "SeqNo": 17, "Terminal": 0, "DistrictId": 1, "Latitude": 22.637686, "Longitude": 120.304303, "IVRNo": 92, "EXTVoiceNo": 411, "traveltime": 0, "holidayTraveltime": 0}, {"Id": "0412", "pgp": 0, "GoBack": 2, "SID": 1618, "NameZh": "\u9ad8\u96c4\u706b\u8eca\u7ad9(\u6377\u904b\u9ad8\u96c4\u8eca\u7ad9)", "RouteId": 56, "SeqNo": 18, "Terminal": 1, "DistrictId": 1, "Latitude": 22.636963, "Longitude": 120.302214, "IVRNo": 412, "EXTVoiceNo": 412, "traveltime": 0, "holidayTraveltime": 0}]}