{"en": [{"Id": "3412", "pgp": 0, "GoBack": 1, "SID": 17279, "NameZh": "Cishan Bus Transfer Station", "RouteId": 8036, "SeqNo": 1, "Terminal": 0, "DistrictId": 1, "Latitude": 22.883651, "Longitude": 120.484555, "IVRNo": 9717, "EXTVoiceNo": 13412, "traveltime": 0, "holidayTraveltime": 0}, {"Id": "9718", "pgp": 0, "GoBack": 1, "SID": 16786, "NameZh": "Yanping Rd. (Cishan District Office)", "RouteId": 8036, "SeqNo": 2, "Terminal": 0, "DistrictId": 1, "Latitude": 22.88761, "Longitude": 120.483247, "IVRNo": 9718, "EXTVoiceNo": 9718, "traveltime": 0, "holidayTraveltime": 0}, {"Id": "9374", "pgp": 0, "GoBack": 1, "SID": 2669, "NameZh": "Cishan Market", "RouteId": 8036, "SeqNo": 3, "Terminal": 0, "DistrictId": 1, "Latitude": 22.8899, "Longitude": 120.48332, "IVRNo": 9953, "EXTVoiceNo": 9374, "traveltime": 0, "holidayTraveltime": 0}, {"Id": "1197", "pgp": 0, "GoBack": 1, "SID": 17276, "NameZh": "Jhonghua Rd. Intersection (Ci)", "RouteId": 8036, "SeqNo": 4, "Terminal": 0, "DistrictId": 1, "Latitude": 22.89278, "Longitude": 120.4833, "IVRNo": 1180, "EXTVoiceNo": 21197, "traveltime": 0, "holidayTraveltime": 0}, {"Id": "1828", "pgp": 0, "GoBack": 1, "SID": 16789, "NameZh": "Cishan North Station", "RouteId": 8036, "SeqNo": 5, "Terminal": 0, "DistrictId": 1, "Latitude": 22.896043, "Longitude": 120.483457, "IVRNo": 9142, "EXTVoiceNo": 11828, "traveltime": 0, "holidayTraveltime": 0}, {"Id": "3413", "pgp": 0, "GoBack": 1, "SID": 13910, "NameZh": "Ci Shan Agricultural and Industrial Senior High School", "RouteId": 8036, "SeqNo": 6, "Terminal": 0, "DistrictId": 1, "Latitude": 22.90193, "Longitude": 120.4833, "IVRNo": 1255, "EXTVoiceNo": 13413, "traveltime": 0, "holidayTraveltime": 0}, {"Id": "0200", "pgp": 0, "GoBack": 1, "SID": 16791, "NameZh": "Lioujhangli", "RouteId": 8036, "SeqNo": 7, "Terminal": 0, "DistrictId": 1, "Latitude": 22.90867, "Longitude": 120.49043, "IVRNo": 10391, "EXTVoiceNo": 20200, "traveltime": 0, "holidayTraveltime": 0}, {"Id": "9372", "pgp": 0, "GoBack": 1, "SID": 2610, "NameZh": "Longshanlin Community", "RouteId": 8036, "SeqNo": 8, "Terminal": 0, "DistrictId": 1, "Latitude": 22.912333, "Longitude": 120.493057, "IVRNo": 9054, "EXTVoiceNo": 9372, "traveltime": 0, "holidayTraveltime": 0}, {"Id": "1575", "pgp": 0, "GoBack": 1, "SID": 16792, "NameZh": "Yuanfu Village", "RouteId": 8036, "SeqNo": 9, "Terminal": 0, "DistrictId": 1, "Latitude": 22.91598, "Longitude": 120.49455, "IVRNo": 11575, "EXTVoiceNo": 11575, "traveltime": 0, "holidayTraveltime": 0}, {"Id": "0057", "pgp": 0, "GoBack": 1, "SID": 16793, "NameZh": "Kouaijhuangnei", "RouteId": 8036, "SeqNo": 10, "Terminal": 0, "DistrictId": 1, "Latitude": 22.920286, "Longitude": 120.496293, "IVRNo": 10126, "EXTVoiceNo": 20057, "traveltime": 0, "holidayTraveltime": 0}, {"Id": "0056", "pgp": 0, "GoBack": 1, "SID": 16794, "NameZh": "Kouai", "RouteId": 8036, "SeqNo": 11, "Terminal": 0, "DistrictId": 1, "Latitude": 22.92235, "Longitude": 120.49714, "IVRNo": 10124, "EXTVoiceNo": 20056, "traveltime": 0, "holidayTraveltime": 0}, {"Id": "1698", "pgp": 0, "GoBack": 1, "SID": 16795, "NameZh": "Gouping Rd. Intersection", "RouteId": 8036, "SeqNo": 12, "Terminal": 0, "DistrictId": 1, "Latitude": 22.923041, "Longitude": 120.497693, "IVRNo": 11698, "EXTVoiceNo": 11698, "traveltime": 0, "holidayTraveltime": 0}, {"Id": "2058", "pgp": 0, "GoBack": 1, "SID": 16796, "NameZh": "Jiouyuantang Pond", "RouteId": 8036, "SeqNo": 13, "Terminal": 0, "DistrictId": 1, "Latitude": 22.92461, "Longitude": 120.49435, "IVRNo": 12058, "EXTVoiceNo": 12058, "traveltime": 0, "holidayTraveltime": 0}, {"Id": "0834", "pgp": 0, "GoBack": 1, "SID": 16797, "NameZh": "Siyuan Pond", "RouteId": 8036, "SeqNo": 14, "Terminal": 0, "DistrictId": 1, "Latitude": 22.92739, "Longitude": 120.49278, "IVRNo": 10834, "EXTVoiceNo": 10834, "traveltime": 0, "holidayTraveltime": 0}, {"Id": "1162", "pgp": 0, "GoBack": 1, "SID": 16798, "NameZh": "Dabuwei", "RouteId": 8036, "SeqNo": 15, "Terminal": 0, "DistrictId": 1, "Latitude": 22.93154, "Longitude": 120.49327, "IVRNo": 10189, "EXTVoiceNo": 21162, "traveltime": 0, "holidayTraveltime": 0}, {"Id": "1160", "pgp": 0, "GoBack": 1, "SID": 16799, "NameZh": "Dabu", "RouteId": 8036, "SeqNo": 16, "Terminal": 0, "DistrictId": 1, "Latitude": 22.938792, "Longitude": 120.492151, "IVRNo": 10185, "EXTVoiceNo": 21160, "traveltime": 0, "holidayTraveltime": 0}, {"Id": "1192", "pgp": 0, "GoBack": 1, "SID": 16800, "NameZh": "Hongtuci", "RouteId": 8036, "SeqNo": 17, "Terminal": 0, "DistrictId": 1, "Latitude": 22.94435, "Longitude": 120.49179, "IVRNo": 11192, "EXTVoiceNo": 11192, "traveltime": 0, "holidayTraveltime": 0}, {"Id": "1236", "pgp": 0, "GoBack": 1, "SID": 16801, "NameZh": "Taizu Temple", "RouteId": 8036, "SeqNo": 18, "Terminal": 0, "DistrictId": 1, "Latitude": 22.94837, "Longitude": 120.49143, "IVRNo": 10428, "EXTVoiceNo": 21236, "traveltime": 0, "holidayTraveltime": 0}, {"Id": "1528", "pgp": 0, "GoBack": 1, "SID": 16802, "NameZh": "Laizaikeng", "RouteId": 8036, "SeqNo": 19, "Terminal": 0, "DistrictId": 1, "Latitude": 22.95522, "Longitude": 120.49371, "IVRNo": 11528, "EXTVoiceNo": 11528, "traveltime": 0, "holidayTraveltime": 0}, {"Id": "1224", "pgp": 0, "GoBack": 1, "SID": 16803, "NameZh": "Puding", "RouteId": 8036, "SeqNo": 20, "Terminal": 0, "DistrictId": 1, "Latitude": 22.95972, "Longitude": 120.49548, "IVRNo": 11224, "EXTVoiceNo": 11224, "traveltime": 0, "holidayTraveltime": 0}, {"Id": "2006", "pgp": 0, "GoBack": 1, "SID": 16804, "NameZh": "Longshan Rd. Intersection", "RouteId": 8036, "SeqNo": 21, "Terminal": 0, "DistrictId": 1, "Latitude": 22.96571, "Longitude": 120.49776, "IVRNo": 12006, "EXTVoiceNo": 12006, "traveltime": 0, "holidayTraveltime": 0}, {"Id": "2081", "pgp": 0, "GoBack": 1, "SID": 16805, "NameZh": "Baolin", "RouteId": 8036, "SeqNo": 22, "Terminal": 0, "DistrictId": 1, "Latitude": 22.96769, "Longitude": 120.49771, "IVRNo": 12081, "EXTVoiceNo": 12081, "traveltime": 0, "holidayTraveltime": 0}, {"Id": "2073", "pgp": 0, "GoBack": 1, "SID": 16806, "NameZh": "Baoshan Park", "RouteId": 8036, "SeqNo": 23, "Terminal": 0, "DistrictId": 1, "Latitude": 22.97204, "Longitude": 120.49762, "IVRNo": 12073, "EXTVoiceNo": 12073, "traveltime": 0, "holidayTraveltime": 0}, {"Id": "0612", "pgp": 0, "GoBack": 1, "SID": 16807, "NameZh": "Shihzaiweiliao", "RouteId": 8036, "SeqNo": 24, "Terminal": 0, "DistrictId": 1, "Latitude": 22.97558, "Longitude": 120.49758, "IVRNo": 10612, "EXTVoiceNo": 10612, "traveltime": 0, "holidayTraveltime": 0}, {"Id": "0700", "pgp": 0, "GoBack": 1, "SID": 16808, "NameZh": "Tianluoku", "RouteId": 8036, "SeqNo": 25, "Terminal": 0, "DistrictId": 1, "Latitude": 22.97821, "Longitude": 120.49787, "IVRNo": 10700, "EXTVoiceNo": 10700, "traveltime": 0, "holidayTraveltime": 0}, {"Id": "1443", "pgp": 0, "GoBack": 1, "SID": 16809, "NameZh": "Dingjhuang", "RouteId": 8036, "SeqNo": 26, "Terminal": 0, "DistrictId": 1, "Latitude": 22.9823, "Longitude": 120.50043, "IVRNo": 11443, "EXTVoiceNo": 11443, "traveltime": 0, "holidayTraveltime": 0}, {"Id": "0683", "pgp": 0, "GoBack": 1, "SID": 16810, "NameZh": "Yongsing Community", "RouteId": 8036, "SeqNo": 27, "Terminal": 0, "DistrictId": 1, "Latitude": 22.98558, "Longitude": 120.50172, "IVRNo": 10683, "EXTVoiceNo": 10683, "traveltime": 0, "holidayTraveltime": 0}, {"Id": "2066", "pgp": 0, "GoBack": 1, "SID": 16811, "NameZh": "Tengkengkou", "RouteId": 8036, "SeqNo": 28, "Terminal": 0, "DistrictId": 1, "Latitude": 22.9885, "Longitude": 120.50224, "IVRNo": 12066, "EXTVoiceNo": 12066, "traveltime": 0, "holidayTraveltime": 0}, {"Id": "1094", "pgp": 0, "GoBack": 1, "SID": 16812, "NameZh": "Nangouping", "RouteId": 8036, "SeqNo": 29, "Terminal": 0, "DistrictId": 1, "Latitude": 22.9905, "Longitude": 120.50168, "IVRNo": 11094, "EXTVoiceNo": 11094, "traveltime": 0, "holidayTraveltime": 0}, {"Id": "1979", "pgp": 0, "GoBack": 1, "SID": 16813, "NameZh": "Singtian Temple", "RouteId": 8036, "SeqNo": 30, "Terminal": 0, "DistrictId": 1, "Latitude": 22.99273, "Longitude": 120.50069, "IVRNo": 11979, "EXTVoiceNo": 11979, "traveltime": 0, "holidayTraveltime": 0}, {"Id": "1696", "pgp": 0, "GoBack": 1, "SID": 16814, "NameZh": "Gouping", "RouteId": 8036, "SeqNo": 31, "Terminal": 0, "DistrictId": 1, "Latitude": 22.99418, "Longitude": 120.5009, "IVRNo": 11696, "EXTVoiceNo": 11696, "traveltime": 0, "holidayTraveltime": 0}, {"Id": "2000", "pgp": 0, "GoBack": 1, "SID": 16815, "NameZh": "Toushe", "RouteId": 8036, "SeqNo": 32, "Terminal": 0, "DistrictId": 1, "Latitude": 22.99921, "Longitude": 120.50276, "IVRNo": 12000, "EXTVoiceNo": 12000, "traveltime": 0, "holidayTraveltime": 0}, {"Id": "1461", "pgp": 0, "GoBack": 1, "SID": 16816, "NameZh": "Dingtoushe", "RouteId": 8036, "SeqNo": 33, "Terminal": 0, "DistrictId": 1, "Latitude": 23.00135, "Longitude": 120.50338, "IVRNo": 11461, "EXTVoiceNo": 11461, "traveltime": 0, "holidayTraveltime": 0}, {"Id": "0794", "pgp": 0, "GoBack": 1, "SID": 16817, "NameZh": "Jhuwei", "RouteId": 8036, "SeqNo": 34, "Terminal": 0, "DistrictId": 1, "Latitude": 23.00332, "Longitude": 120.507966, "IVRNo": 10794, "EXTVoiceNo": 10794, "traveltime": 0, "holidayTraveltime": 0}, {"Id": "8927", "pgp": 0, "GoBack": 1, "SID": 5417, "NameZh": "Dacijiao (Neimen)", "RouteId": 8036, "SeqNo": 35, "Terminal": 0, "DistrictId": 1, "Latitude": 23.00589, "Longitude": 120.51048, "IVRNo": 8927, "EXTVoiceNo": 8927, "traveltime": 0, "holidayTraveltime": 0}, {"Id": "1006", "pgp": 0, "GoBack": 1, "SID": 16819, "NameZh": "Jinjhu Elementary School", "RouteId": 8036, "SeqNo": 36, "Terminal": 0, "DistrictId": 1, "Latitude": 23.00896, "Longitude": 120.51373, "IVRNo": 11006, "EXTVoiceNo": 11006, "traveltime": 0, "holidayTraveltime": 0}, {"Id": "1002", "pgp": 0, "GoBack": 1, "SID": 16820, "NameZh": "Jingualiao", "RouteId": 8036, "SeqNo": 37, "Terminal": 0, "DistrictId": 1, "Latitude": 23.012848, "Longitude": 120.51993, "IVRNo": 11002, "EXTVoiceNo": 11002, "traveltime": 0, "holidayTraveltime": 0}, {"Id": "0790", "pgp": 0, "GoBack": 1, "SID": 16821, "NameZh": "Jhufong Temple", "RouteId": 8036, "SeqNo": 38, "Terminal": 1, "DistrictId": 1, "Latitude": 23.01384, "Longitude": 120.5239, "IVRNo": 10790, "EXTVoiceNo": 10790, "traveltime": 0, "holidayTraveltime": 0}, {"Id": "0790", "pgp": 0, "GoBack": 2, "SID": 16822, "NameZh": "Jhufong Temple", "RouteId": 8036, "SeqNo": 1, "Terminal": 0, "DistrictId": 1, "Latitude": 23.01384, "Longitude": 120.52386, "IVRNo": 10790, "EXTVoiceNo": 10790, "traveltime": 0, "holidayTraveltime": 0}, {"Id": "1002", "pgp": 0, "GoBack": 2, "SID": 16823, "NameZh": "Jingualiao", "RouteId": 8036, "SeqNo": 2, "Terminal": 0, "DistrictId": 1, "Latitude": 23.01296, "Longitude": 120.51993, "IVRNo": 11002, "EXTVoiceNo": 11002, "traveltime": 0, "holidayTraveltime": 0}, {"Id": "1006", "pgp": 0, "GoBack": 2, "SID": 16824, "NameZh": "Jinjhu Elementary School", "RouteId": 8036, "SeqNo": 3, "Terminal": 0, "DistrictId": 1, "Latitude": 23.009032, "Longitude": 120.513646, "IVRNo": 11006, "EXTVoiceNo": 11006, "traveltime": 0, "holidayTraveltime": 0}, {"Id": "8927", "pgp": 0, "GoBack": 2, "SID": 5419, "NameZh": "Dacijiao (Neimen)", "RouteId": 8036, "SeqNo": 4, "Terminal": 0, "DistrictId": 1, "Latitude": 23.00594, "Longitude": 120.51042, "IVRNo": 8927, "EXTVoiceNo": 8927, "traveltime": 0, "holidayTraveltime": 0}, {"Id": "0794", "pgp": 0, "GoBack": 2, "SID": 16826, "NameZh": "Jhuwei", "RouteId": 8036, "SeqNo": 5, "Terminal": 0, "DistrictId": 1, "Latitude": 23.00344, "Longitude": 120.508, "IVRNo": 10794, "EXTVoiceNo": 10794, "traveltime": 0, "holidayTraveltime": 0}, {"Id": "1461", "pgp": 0, "GoBack": 2, "SID": 16827, "NameZh": "Dingtoushe", "RouteId": 8036, "SeqNo": 6, "Terminal": 0, "DistrictId": 1, "Latitude": 23.00136, "Longitude": 120.50327, "IVRNo": 11461, "EXTVoiceNo": 11461, "traveltime": 0, "holidayTraveltime": 0}, {"Id": "2000", "pgp": 0, "GoBack": 2, "SID": 16828, "NameZh": "Toushe", "RouteId": 8036, "SeqNo": 7, "Terminal": 0, "DistrictId": 1, "Latitude": 22.999245, "Longitude": 120.502645, "IVRNo": 12000, "EXTVoiceNo": 12000, "traveltime": 0, "holidayTraveltime": 0}, {"Id": "1696", "pgp": 0, "GoBack": 2, "SID": 16829, "NameZh": "Gouping", "RouteId": 8036, "SeqNo": 8, "Terminal": 0, "DistrictId": 1, "Latitude": 22.99422, "Longitude": 120.50082, "IVRNo": 11696, "EXTVoiceNo": 11696, "traveltime": 0, "holidayTraveltime": 0}, {"Id": "1979", "pgp": 0, "GoBack": 2, "SID": 16830, "NameZh": "Singtian Temple", "RouteId": 8036, "SeqNo": 9, "Terminal": 0, "DistrictId": 1, "Latitude": 22.99268, "Longitude": 120.500586, "IVRNo": 11979, "EXTVoiceNo": 11979, "traveltime": 0, "holidayTraveltime": 0}, {"Id": "1094", "pgp": 0, "GoBack": 2, "SID": 16831, "NameZh": "Nangouping", "RouteId": 8036, "SeqNo": 10, "Terminal": 0, "DistrictId": 1, "Latitude": 22.990455, "Longitude": 120.501556, "IVRNo": 11094, "EXTVoiceNo": 11094, "traveltime": 0, "holidayTraveltime": 0}, {"Id": "2066", "pgp": 0, "GoBack": 2, "SID": 16832, "NameZh": "Tengkengkou", "RouteId": 8036, "SeqNo": 11, "Terminal": 0, "DistrictId": 1, "Latitude": 22.98854, "Longitude": 120.50214, "IVRNo": 12066, "EXTVoiceNo": 12066, "traveltime": 0, "holidayTraveltime": 0}, {"Id": "0683", "pgp": 0, "GoBack": 2, "SID": 16833, "NameZh": "Yongsing Community", "RouteId": 8036, "SeqNo": 12, "Terminal": 0, "DistrictId": 1, "Latitude": 22.9857, "Longitude": 120.50172, "IVRNo": 10683, "EXTVoiceNo": 10683, "traveltime": 0, "holidayTraveltime": 0}, {"Id": "1443", "pgp": 0, "GoBack": 2, "SID": 16834, "NameZh": "Dingjhuang", "RouteId": 8036, "SeqNo": 13, "Terminal": 0, "DistrictId": 1, "Latitude": 22.982372, "Longitude": 120.500292, "IVRNo": 11443, "EXTVoiceNo": 11443, "traveltime": 0, "holidayTraveltime": 0}, {"Id": "0700", "pgp": 0, "GoBack": 2, "SID": 16835, "NameZh": "Tianluoku", "RouteId": 8036, "SeqNo": 14, "Terminal": 0, "DistrictId": 1, "Latitude": 22.97822, "Longitude": 120.49784, "IVRNo": 10700, "EXTVoiceNo": 10700, "traveltime": 0, "holidayTraveltime": 0}, {"Id": "0612", "pgp": 0, "GoBack": 2, "SID": 16836, "NameZh": "Shihzaiweiliao", "RouteId": 8036, "SeqNo": 15, "Terminal": 0, "DistrictId": 1, "Latitude": 22.9755, "Longitude": 120.49756, "IVRNo": 10612, "EXTVoiceNo": 10612, "traveltime": 0, "holidayTraveltime": 0}, {"Id": "2073", "pgp": 0, "GoBack": 2, "SID": 16837, "NameZh": "Baoshan Park", "RouteId": 8036, "SeqNo": 16, "Terminal": 0, "DistrictId": 1, "Latitude": 22.97207, "Longitude": 120.49756, "IVRNo": 12073, "EXTVoiceNo": 12073, "traveltime": 0, "holidayTraveltime": 0}, {"Id": "2081", "pgp": 0, "GoBack": 2, "SID": 16838, "NameZh": "Baolin", "RouteId": 8036, "SeqNo": 17, "Terminal": 0, "DistrictId": 1, "Latitude": 22.96782, "Longitude": 120.49762, "IVRNo": 12081, "EXTVoiceNo": 12081, "traveltime": 0, "holidayTraveltime": 0}, {"Id": "2006", "pgp": 0, "GoBack": 2, "SID": 16839, "NameZh": "Longshan Rd. Intersection", "RouteId": 8036, "SeqNo": 18, "Terminal": 0, "DistrictId": 1, "Latitude": 22.96563, "Longitude": 120.49765, "IVRNo": 12006, "EXTVoiceNo": 12006, "traveltime": 0, "holidayTraveltime": 0}, {"Id": "1224", "pgp": 0, "GoBack": 2, "SID": 16840, "NameZh": "Puding", "RouteId": 8036, "SeqNo": 19, "Terminal": 0, "DistrictId": 1, "Latitude": 22.96, "Longitude": 120.49556, "IVRNo": 11224, "EXTVoiceNo": 11224, "traveltime": 0, "holidayTraveltime": 0}, {"Id": "1528", "pgp": 0, "GoBack": 2, "SID": 16841, "NameZh": "Laizaikeng", "RouteId": 8036, "SeqNo": 20, "Terminal": 0, "DistrictId": 1, "Latitude": 22.95517, "Longitude": 120.49365, "IVRNo": 11528, "EXTVoiceNo": 11528, "traveltime": 0, "holidayTraveltime": 0}, {"Id": "1236", "pgp": 0, "GoBack": 2, "SID": 16842, "NameZh": "Taizu Temple", "RouteId": 8036, "SeqNo": 21, "Terminal": 0, "DistrictId": 1, "Latitude": 22.94844, "Longitude": 120.49134, "IVRNo": 10428, "EXTVoiceNo": 21236, "traveltime": 0, "holidayTraveltime": 0}, {"Id": "1192", "pgp": 0, "GoBack": 2, "SID": 16843, "NameZh": "Hongtuci", "RouteId": 8036, "SeqNo": 22, "Terminal": 0, "DistrictId": 1, "Latitude": 22.944301, "Longitude": 120.491685, "IVRNo": 11192, "EXTVoiceNo": 11192, "traveltime": 0, "holidayTraveltime": 0}, {"Id": "1160", "pgp": 0, "GoBack": 2, "SID": 16844, "NameZh": "Dabu", "RouteId": 8036, "SeqNo": 23, "Terminal": 0, "DistrictId": 1, "Latitude": 22.93885, "Longitude": 120.49201, "IVRNo": 10185, "EXTVoiceNo": 21160, "traveltime": 0, "holidayTraveltime": 0}, {"Id": "1162", "pgp": 0, "GoBack": 2, "SID": 16845, "NameZh": "Dabuwei", "RouteId": 8036, "SeqNo": 24, "Terminal": 0, "DistrictId": 1, "Latitude": 22.93157, "Longitude": 120.49317, "IVRNo": 10189, "EXTVoiceNo": 21162, "traveltime": 0, "holidayTraveltime": 0}, {"Id": "0834", "pgp": 0, "GoBack": 2, "SID": 16846, "NameZh": "Siyuan Pond", "RouteId": 8036, "SeqNo": 25, "Terminal": 0, "DistrictId": 1, "Latitude": 22.937028, "Longitude": 120.491969, "IVRNo": 10834, "EXTVoiceNo": 10834, "traveltime": 0, "holidayTraveltime": 0}, {"Id": "2058", "pgp": 0, "GoBack": 2, "SID": 16847, "NameZh": "Jiouyuantang Pond", "RouteId": 8036, "SeqNo": 26, "Terminal": 0, "DistrictId": 1, "Latitude": 22.924455, "Longitude": 120.494294, "IVRNo": 12058, "EXTVoiceNo": 12058, "traveltime": 0, "holidayTraveltime": 0}, {"Id": "1698", "pgp": 0, "GoBack": 2, "SID": 16848, "NameZh": "Gouping Rd. Intersection", "RouteId": 8036, "SeqNo": 27, "Terminal": 0, "DistrictId": 1, "Latitude": 22.92309, "Longitude": 120.49761, "IVRNo": 11698, "EXTVoiceNo": 11698, "traveltime": 0, "holidayTraveltime": 0}, {"Id": "0056", "pgp": 0, "GoBack": 2, "SID": 16849, "NameZh": "Kouai", "RouteId": 8036, "SeqNo": 28, "Terminal": 0, "DistrictId": 1, "Latitude": 22.9219, "Longitude": 120.49682, "IVRNo": 10124, "EXTVoiceNo": 20056, "traveltime": 0, "holidayTraveltime": 0}, {"Id": "0057", "pgp": 0, "GoBack": 2, "SID": 16850, "NameZh": "Kouaijhuangnei", "RouteId": 8036, "SeqNo": 29, "Terminal": 0, "DistrictId": 1, "Latitude": 22.92032, "Longitude": 120.4962, "IVRNo": 10126, "EXTVoiceNo": 20057, "traveltime": 0, "holidayTraveltime": 0}, {"Id": "1575", "pgp": 0, "GoBack": 2, "SID": 16851, "NameZh": "Yuanfu Village", "RouteId": 8036, "SeqNo": 30, "Terminal": 0, "DistrictId": 1, "Latitude": 22.91674, "Longitude": 120.49473, "IVRNo": 11575, "EXTVoiceNo": 11575, "traveltime": 0, "holidayTraveltime": 0}, {"Id": "9372", "pgp": 0, "GoBack": 2, "SID": 2611, "NameZh": "Longshanlin Community", "RouteId": 8036, "SeqNo": 31, "Terminal": 0, "DistrictId": 1, "Latitude": 22.912333, "Longitude": 120.493057, "IVRNo": 9054, "EXTVoiceNo": 9372, "traveltime": 0, "holidayTraveltime": 0}, {"Id": "0200", "pgp": 0, "GoBack": 2, "SID": 16852, "NameZh": "Lioujhangli", "RouteId": 8036, "SeqNo": 32, "Terminal": 0, "DistrictId": 1, "Latitude": 22.90897, "Longitude": 120.49066, "IVRNo": 10391, "EXTVoiceNo": 20200, "traveltime": 0, "holidayTraveltime": 0}, {"Id": "3413", "pgp": 0, "GoBack": 2, "SID": 13834, "NameZh": "Ci Shan Agricultural and Industrial Senior High School", "RouteId": 8036, "SeqNo": 33, "Terminal": 0, "DistrictId": 1, "Latitude": 22.90194, "Longitude": 120.483244, "IVRNo": 1255, "EXTVoiceNo": 13413, "traveltime": 0, "holidayTraveltime": 0}, {"Id": "1828", "pgp": 0, "GoBack": 2, "SID": 16854, "NameZh": "Cishan North Station", "RouteId": 8036, "SeqNo": 34, "Terminal": 0, "DistrictId": 1, "Latitude": 22.896043, "Longitude": 120.483457, "IVRNo": 9142, "EXTVoiceNo": 11828, "traveltime": 0, "holidayTraveltime": 0}, {"Id": "1197", "pgp": 0, "GoBack": 2, "SID": 17471, "NameZh": "Jhonghua Rd. Intersection (Ci)", "RouteId": 8036, "SeqNo": 35, "Terminal": 0, "DistrictId": 1, "Latitude": 22.89268, "Longitude": 120.48355, "IVRNo": 1180, "EXTVoiceNo": 21197, "traveltime": 0, "holidayTraveltime": 0}, {"Id": "9374", "pgp": 0, "GoBack": 2, "SID": 2336, "NameZh": "Cishan Market", "RouteId": 8036, "SeqNo": 36, "Terminal": 0, "DistrictId": 1, "Latitude": 22.889889, "Longitude": 120.483465, "IVRNo": 9953, "EXTVoiceNo": 9374, "traveltime": 0, "holidayTraveltime": 0}, {"Id": "9718", "pgp": 0, "GoBack": 2, "SID": 16857, "NameZh": "Yanping Rd. (Cishan District Office)", "RouteId": 8036, "SeqNo": 37, "Terminal": 0, "DistrictId": 1, "Latitude": 22.88762, "Longitude": 120.48313, "IVRNo": 9718, "EXTVoiceNo": 9718, "traveltime": 0, "holidayTraveltime": 0}, {"Id": "3412", "pgp": 0, "GoBack": 2, "SID": 16858, "NameZh": "Cishan Bus Transfer Station", "RouteId": 8036, "SeqNo": 38, "Terminal": 1, "DistrictId": 1, "Latitude": 22.883651, "Longitude": 120.484555, "IVRNo": 9717, "EXTVoiceNo": 13412, "traveltime": 0, "holidayTraveltime": 0}], "zh": [{"Id": "3412", "pgp": 0, "GoBack": 1, "SID": 17279, "NameZh": "\u65d7\u5c71\u8f49\u904b\u7ad9", "RouteId": 8036, "SeqNo": 1, "Terminal": 0, "DistrictId": 1, "Latitude": 22.883651, "Longitude": 120.484555, "IVRNo": 9717, "EXTVoiceNo": 13412, "traveltime": 0, "holidayTraveltime": 0}, {"Id": "9718", "pgp": 0, "GoBack": 1, "SID": 16786, "NameZh": "\u5ef6\u5e73\u8def(\u65d7\u5c71\u5340\u516c\u6240)", "RouteId": 8036, "SeqNo": 2, "Terminal": 0, "DistrictId": 1, "Latitude": 22.88761, "Longitude": 120.483247, "IVRNo": 9718, "EXTVoiceNo": 9718, "traveltime": 0, "holidayTraveltime": 0}, {"Id": "9374", "pgp": 0, "GoBack": 1, "SID": 2669, "NameZh": "\u65d7\u5c71\u5e02\u5834", "RouteId": 8036, "SeqNo": 3, "Terminal": 0, "DistrictId": 1, "Latitude": 22.8899, "Longitude": 120.48332, "IVRNo": 9953, "EXTVoiceNo": 9374, "traveltime": 0, "holidayTraveltime": 0}, {"Id": "1197", "pgp": 0, "GoBack": 1, "SID": 17276, "NameZh": "\u4e2d\u83ef\u8def\u53e3(\u65d7)", "RouteId": 8036, "SeqNo": 4, "Terminal": 0, "DistrictId": 1, "Latitude": 22.89278, "Longitude": 120.4833, "IVRNo": 1180, "EXTVoiceNo": 21197, "traveltime": 0, "holidayTraveltime": 0}, {"Id": "1828", "pgp": 0, "GoBack": 1, "SID": 16789, "NameZh": "\u65d7\u5c71\u5317\u7ad9", "RouteId": 8036, "SeqNo": 5, "Terminal": 0, "DistrictId": 1, "Latitude": 22.896043, "Longitude": 120.483457, "IVRNo": 9142, "EXTVoiceNo": 11828, "traveltime": 0, "holidayTraveltime": 0}, {"Id": "3413", "pgp": 0, "GoBack": 1, "SID": 13910, "NameZh": "\u65d7\u5c71\u8fb2\u5de5", "RouteId": 8036, "SeqNo": 6, "Terminal": 0, "DistrictId": 1, "Latitude": 22.90193, "Longitude": 120.4833, "IVRNo": 1255, "EXTVoiceNo": 13413, "traveltime": 0, "holidayTraveltime": 0}, {"Id": "0200", "pgp": 0, "GoBack": 1, "SID": 16791, "NameZh": "\u516d\u5f35\u7281", "RouteId": 8036, "SeqNo": 7, "Terminal": 0, "DistrictId": 1, "Latitude": 22.90867, "Longitude": 120.49043, "IVRNo": 10391, "EXTVoiceNo": 20200, "traveltime": 0, "holidayTraveltime": 0}, {"Id": "9372", "pgp": 0, "GoBack": 1, "SID": 2610, "NameZh": "\u9f8d\u5c71\u6797\u793e\u5340", "RouteId": 8036, "SeqNo": 8, "Terminal": 0, "DistrictId": 1, "Latitude": 22.912333, "Longitude": 120.493057, "IVRNo": 9054, "EXTVoiceNo": 9372, "traveltime": 0, "holidayTraveltime": 0}, {"Id": "1575", "pgp": 0, "GoBack": 1, "SID": 16792, "NameZh": "\u5713\u5bcc\u91cc", "RouteId": 8036, "SeqNo": 9, "Terminal": 0, "DistrictId": 1, "Latitude": 22.91598, "Longitude": 120.49455, "IVRNo": 11575, "EXTVoiceNo": 11575, "traveltime": 0, "holidayTraveltime": 0}, {"Id": "0057", "pgp": 0, "GoBack": 1, "SID": 16793, "NameZh": "\u53e3\u9698\u5e84\u5167", "RouteId": 8036, "SeqNo": 10, "Terminal": 0, "DistrictId": 1, "Latitude": 22.920286, "Longitude": 120.496293, "IVRNo": 10126, "EXTVoiceNo": 20057, "traveltime": 0, "holidayTraveltime": 0}, {"Id": "0056", "pgp": 0, "GoBack": 1, "SID": 16794, "NameZh": "\u53e3\u9698", "RouteId": 8036, "SeqNo": 11, "Terminal": 0, "DistrictId": 1, "Latitude": 22.92235, "Longitude": 120.49714, "IVRNo": 10124, "EXTVoiceNo": 20056, "traveltime": 0, "holidayTraveltime": 0}, {"Id": "1698", "pgp": 0, "GoBack": 1, "SID": 16795, "NameZh": "\u6e9d\u576a\u8def\u53e3", "RouteId": 8036, "SeqNo": 12, "Terminal": 0, "DistrictId": 1, "Latitude": 22.923041, "Longitude": 120.497693, "IVRNo": 11698, "EXTVoiceNo": 11698, "traveltime": 0, "holidayTraveltime": 0}, {"Id": "2058", "pgp": 0, "GoBack": 1, "SID": 16796, "NameZh": "\u820a\u5713\u6f6d", "RouteId": 8036, "SeqNo": 13, "Terminal": 0, "DistrictId": 1, "Latitude": 22.92461, "Longitude": 120.49435, "IVRNo": 12058, "EXTVoiceNo": 12058, "traveltime": 0, "holidayTraveltime": 0}, {"Id": "0834", "pgp": 0, "GoBack": 1, "SID": 16797, "NameZh": "\u897f\u5713\u6f6d", "RouteId": 8036, "SeqNo": 14, "Terminal": 0, "DistrictId": 1, "Latitude": 22.92739, "Longitude": 120.49278, "IVRNo": 10834, "EXTVoiceNo": 10834, "traveltime": 0, "holidayTraveltime": 0}, {"Id": "1162", "pgp": 0, "GoBack": 1, "SID": 16798, "NameZh": "\u5927\u57d4\u5c3e", "RouteId": 8036, "SeqNo": 15, "Terminal": 0, "DistrictId": 1, "Latitude": 22.93154, "Longitude": 120.49327, "IVRNo": 10189, "EXTVoiceNo": 21162, "traveltime": 0, "holidayTraveltime": 0}, {"Id": "1160", "pgp": 0, "GoBack": 1, "SID": 16799, "NameZh": "\u5927\u57d4", "RouteId": 8036, "SeqNo": 16, "Terminal": 0, "DistrictId": 1, "Latitude": 22.938792, "Longitude": 120.492151, "IVRNo": 10185, "EXTVoiceNo": 21160, "traveltime": 0, "holidayTraveltime": 0}, {"Id": "1192", "pgp": 0, "GoBack": 1, "SID": 16800, "NameZh": "\u7d05\u571f\u5d0e", "RouteId": 8036, "SeqNo": 17, "Terminal": 0, "DistrictId": 1, "Latitude": 22.94435, "Longitude": 120.49179, "IVRNo": 11192, "EXTVoiceNo": 11192, "traveltime": 0, "holidayTraveltime": 0}, {"Id": "1236", "pgp": 0, "GoBack": 1, "SID": 16801, "NameZh": "\u592a\u7956\u5edf", "RouteId": 8036, "SeqNo": 18, "Terminal": 0, "DistrictId": 1, "Latitude": 22.94837, "Longitude": 120.49143, "IVRNo": 10428, "EXTVoiceNo": 21236, "traveltime": 0, "holidayTraveltime": 0}, {"Id": "1528", "pgp": 0, "GoBack": 1, "SID": 16802, "NameZh": "\u840a\u4ed4\u5751", "RouteId": 8036, "SeqNo": 19, "Terminal": 0, "DistrictId": 1, "Latitude": 22.95522, "Longitude": 120.49371, "IVRNo": 11528, "EXTVoiceNo": 11528, "traveltime": 0, "holidayTraveltime": 0}, {"Id": "1224", "pgp": 0, "GoBack": 1, "SID": 16803, "NameZh": "\u57d4\u9802", "RouteId": 8036, "SeqNo": 20, "Terminal": 0, "DistrictId": 1, "Latitude": 22.95972, "Longitude": 120.49548, "IVRNo": 11224, "EXTVoiceNo": 11224, "traveltime": 0, "holidayTraveltime": 0}, {"Id": "2006", "pgp": 0, "GoBack": 1, "SID": 16804, "NameZh": "\u9f8d\u5c71\u8def\u53e3", "RouteId": 8036, "SeqNo": 21, "Terminal": 0, "DistrictId": 1, "Latitude": 22.96571, "Longitude": 120.49776, "IVRNo": 12006, "EXTVoiceNo": 12006, "traveltime": 0, "holidayTraveltime": 0}, {"Id": "2081", "pgp": 0, "GoBack": 1, "SID": 16805, "NameZh": "\u5bf6\u6797", "RouteId": 8036, "SeqNo": 22, "Terminal": 0, "DistrictId": 1, "Latitude": 22.96769, "Longitude": 120.49771, "IVRNo": 12081, "EXTVoiceNo": 12081, "traveltime": 0, "holidayTraveltime": 0}, {"Id": "2073", "pgp": 0, "GoBack": 1, "SID": 16806, "NameZh": "\u5bf6\u5c71\u516c\u5712", "RouteId": 8036, "SeqNo": 23, "Terminal": 0, "DistrictId": 1, "Latitude": 22.97204, "Longitude": 120.49762, "IVRNo": 12073, "EXTVoiceNo": 12073, "traveltime": 0, "holidayTraveltime": 0}, {"Id": "0612", "pgp": 0, "GoBack": 1, "SID": 16807, "NameZh": "\u5e02\u4ed4\u5c3e\u5bee", "RouteId": 8036, "SeqNo": 24, "Terminal": 0, "DistrictId": 1, "Latitude": 22.97558, "Longitude": 120.49758, "IVRNo": 10612, "EXTVoiceNo": 10612, "traveltime": 0, "holidayTraveltime": 0}, {"Id": "0700", "pgp": 0, "GoBack": 1, "SID": 16808, "NameZh": "\u7530\u87ba\u7a9f", "RouteId": 8036, "SeqNo": 25, "Terminal": 0, "DistrictId": 1, "Latitude": 22.97821, "Longitude": 120.49787, "IVRNo": 10700, "EXTVoiceNo": 10700, "traveltime": 0, "holidayTraveltime": 0}, {"Id": "1443", "pgp": 0, "GoBack": 1, "SID": 16809, "NameZh": "\u9802\u5e84", "RouteId": 8036, "SeqNo": 26, "Terminal": 0, "DistrictId": 1, "Latitude": 22.9823, "Longitude": 120.50043, "IVRNo": 11443, "EXTVoiceNo": 11443, "traveltime": 0, "holidayTraveltime": 0}, {"Id": "0683", "pgp": 0, "GoBack": 1, "SID": 16810, "NameZh": "\u6c38\u8208\u793e\u5340", "RouteId": 8036, "SeqNo": 27, "Terminal": 0, "DistrictId": 1, "Latitude": 22.98558, "Longitude": 120.50172, "IVRNo": 10683, "EXTVoiceNo": 10683, "traveltime": 0, "holidayTraveltime": 0}, {"Id": "2066", "pgp": 0, "GoBack": 1, "SID": 16811, "NameZh": "\u85e4\u5751\u53e3", "RouteId": 8036, "SeqNo": 28, "Terminal": 0, "DistrictId": 1, "Latitude": 22.9885, "Longitude": 120.50224, "IVRNo": 12066, "EXTVoiceNo": 12066, "traveltime": 0, "holidayTraveltime": 0}, {"Id": "1094", "pgp": 0, "GoBack": 1, "SID": 16812, "NameZh": "\u5357\u6e9d\u576a", "RouteId": 8036, "SeqNo": 29, "Terminal": 0, "DistrictId": 1, "Latitude": 22.9905, "Longitude": 120.50168, "IVRNo": 11094, "EXTVoiceNo": 11094, "traveltime": 0, "holidayTraveltime": 0}, {"Id": "1979", "pgp": 0, "GoBack": 1, "SID": 16813, "NameZh": "\u8208\u5929\u5bae", "RouteId": 8036, "SeqNo": 30, "Terminal": 0, "DistrictId": 1, "Latitude": 22.99273, "Longitude": 120.50069, "IVRNo": 11979, "EXTVoiceNo": 11979, "traveltime": 0, "holidayTraveltime": 0}, {"Id": "1696", "pgp": 0, "GoBack": 1, "SID": 16814, "NameZh": "\u6e9d\u576a", "RouteId": 8036, "SeqNo": 31, "Terminal": 0, "DistrictId": 1, "Latitude": 22.99418, "Longitude": 120.5009, "IVRNo": 11696, "EXTVoiceNo": 11696, "traveltime": 0, "holidayTraveltime": 0}, {"Id": "2000", "pgp": 0, "GoBack": 1, "SID": 16815, "NameZh": "\u982d\u793e", "RouteId": 8036, "SeqNo": 32, "Terminal": 0, "DistrictId": 1, "Latitude": 22.99921, "Longitude": 120.50276, "IVRNo": 12000, "EXTVoiceNo": 12000, "traveltime": 0, "holidayTraveltime": 0}, {"Id": "1461", "pgp": 0, "GoBack": 1, "SID": 16816, "NameZh": "\u9802\u982d\u793e", "RouteId": 8036, "SeqNo": 33, "Terminal": 0, "DistrictId": 1, "Latitude": 23.00135, "Longitude": 120.50338, "IVRNo": 11461, "EXTVoiceNo": 11461, "traveltime": 0, "holidayTraveltime": 0}, {"Id": "0794", "pgp": 0, "GoBack": 1, "SID": 16817, "NameZh": "\u7af9\u570d", "RouteId": 8036, "SeqNo": 34, "Terminal": 0, "DistrictId": 1, "Latitude": 23.00332, "Longitude": 120.507966, "IVRNo": 10794, "EXTVoiceNo": 10794, "traveltime": 0, "holidayTraveltime": 0}, {"Id": "8927", "pgp": 0, "GoBack": 1, "SID": 5417, "NameZh": "\u5927\u5d0e\u8173(\u5167\u9580)", "RouteId": 8036, "SeqNo": 35, "Terminal": 0, "DistrictId": 1, "Latitude": 23.00589, "Longitude": 120.51048, "IVRNo": 8927, "EXTVoiceNo": 8927, "traveltime": 0, "holidayTraveltime": 0}, {"Id": "1006", "pgp": 0, "GoBack": 1, "SID": 16819, "NameZh": "\u91d1\u7af9\u570b\u5c0f", "RouteId": 8036, "SeqNo": 36, "Terminal": 0, "DistrictId": 1, "Latitude": 23.00896, "Longitude": 120.51373, "IVRNo": 11006, "EXTVoiceNo": 11006, "traveltime": 0, "holidayTraveltime": 0}, {"Id": "1002", "pgp": 0, "GoBack": 1, "SID": 16820, "NameZh": "\u91d1\u74dc\u5bee", "RouteId": 8036, "SeqNo": 37, "Terminal": 0, "DistrictId": 1, "Latitude": 23.012848, "Longitude": 120.51993, "IVRNo": 11002, "EXTVoiceNo": 11002, "traveltime": 0, "holidayTraveltime": 0}, {"Id": "0790", "pgp": 0, "GoBack": 1, "SID": 16821, "NameZh": "\u7af9\u5cf0\u5bfa", "RouteId": 8036, "SeqNo": 38, "Terminal": 1, "DistrictId": 1, "Latitude": 23.01384, "Longitude": 120.5239, "IVRNo": 10790, "EXTVoiceNo": 10790, "traveltime": 0, "holidayTraveltime": 0}, {"Id": "0790", "pgp": 0, "GoBack": 2, "SID": 16822, "NameZh": "\u7af9\u5cf0\u5bfa", "RouteId": 8036, "SeqNo": 1, "Terminal": 0, "DistrictId": 1, "Latitude": 23.01384, "Longitude": 120.52386, "IVRNo": 10790, "EXTVoiceNo": 10790, "traveltime": 0, "holidayTraveltime": 0}, {"Id": "1002", "pgp": 0, "GoBack": 2, "SID": 16823, "NameZh": "\u91d1\u74dc\u5bee", "RouteId": 8036, "SeqNo": 2, "Terminal": 0, "DistrictId": 1, "Latitude": 23.01296, "Longitude": 120.51993, "IVRNo": 11002, "EXTVoiceNo": 11002, "traveltime": 0, "holidayTraveltime": 0}, {"Id": "1006", "pgp": 0, "GoBack": 2, "SID": 16824, "NameZh": "\u91d1\u7af9\u570b\u5c0f", "RouteId": 8036, "SeqNo": 3, "Terminal": 0, "DistrictId": 1, "Latitude": 23.009032, "Longitude": 120.513646, "IVRNo": 11006, "EXTVoiceNo": 11006, "traveltime": 0, "holidayTraveltime": 0}, {"Id": "8927", "pgp": 0, "GoBack": 2, "SID": 5419, "NameZh": "\u5927\u5d0e\u8173(\u5167\u9580)", "RouteId": 8036, "SeqNo": 4, "Terminal": 0, "DistrictId": 1, "Latitude": 23.00594, "Longitude": 120.51042, "IVRNo": 8927, "EXTVoiceNo": 8927, "traveltime": 0, "holidayTraveltime": 0}, {"Id": "0794", "pgp": 0, "GoBack": 2, "SID": 16826, "NameZh": "\u7af9\u570d", "RouteId": 8036, "SeqNo": 5, "Terminal": 0, "DistrictId": 1, "Latitude": 23.00344, "Longitude": 120.508, "IVRNo": 10794, "EXTVoiceNo": 10794, "traveltime": 0, "holidayTraveltime": 0}, {"Id": "1461", "pgp": 0, "GoBack": 2, "SID": 16827, "NameZh": "\u9802\u982d\u793e", "RouteId": 8036, "SeqNo": 6, "Terminal": 0, "DistrictId": 1, "Latitude": 23.00136, "Longitude": 120.50327, "IVRNo": 11461, "EXTVoiceNo": 11461, "traveltime": 0, "holidayTraveltime": 0}, {"Id": "2000", "pgp": 0, "GoBack": 2, "SID": 16828, "NameZh": "\u982d\u793e", "RouteId": 8036, "SeqNo": 7, "Terminal": 0, "DistrictId": 1, "Latitude": 22.999245, "Longitude": 120.502645, "IVRNo": 12000, "EXTVoiceNo": 12000, "traveltime": 0, "holidayTraveltime": 0}, {"Id": "1696", "pgp": 0, "GoBack": 2, "SID": 16829, "NameZh": "\u6e9d\u576a", "RouteId": 8036, "SeqNo": 8, "Terminal": 0, "DistrictId": 1, "Latitude": 22.99422, "Longitude": 120.50082, "IVRNo": 11696, "EXTVoiceNo": 11696, "traveltime": 0, "holidayTraveltime": 0}, {"Id": "1979", "pgp": 0, "GoBack": 2, "SID": 16830, "NameZh": "\u8208\u5929\u5bae", "RouteId": 8036, "SeqNo": 9, "Terminal": 0, "DistrictId": 1, "Latitude": 22.99268, "Longitude": 120.500586, "IVRNo": 11979, "EXTVoiceNo": 11979, "traveltime": 0, "holidayTraveltime": 0}, {"Id": "1094", "pgp": 0, "GoBack": 2, "SID": 16831, "NameZh": "\u5357\u6e9d\u576a", "RouteId": 8036, "SeqNo": 10, "Terminal": 0, "DistrictId": 1, "Latitude": 22.990455, "Longitude": 120.501556, "IVRNo": 11094, "EXTVoiceNo": 11094, "traveltime": 0, "holidayTraveltime": 0}, {"Id": "2066", "pgp": 0, "GoBack": 2, "SID": 16832, "NameZh": "\u85e4\u5751\u53e3", "RouteId": 8036, "SeqNo": 11, "Terminal": 0, "DistrictId": 1, "Latitude": 22.98854, "Longitude": 120.50214, "IVRNo": 12066, "EXTVoiceNo": 12066, "traveltime": 0, "holidayTraveltime": 0}, {"Id": "0683", "pgp": 0, "GoBack": 2, "SID": 16833, "NameZh": "\u6c38\u8208\u793e\u5340", "RouteId": 8036, "SeqNo": 12, "Terminal": 0, "DistrictId": 1, "Latitude": 22.9857, "Longitude": 120.50172, "IVRNo": 10683, "EXTVoiceNo": 10683, "traveltime": 0, "holidayTraveltime": 0}, {"Id": "1443", "pgp": 0, "GoBack": 2, "SID": 16834, "NameZh": "\u9802\u5e84", "RouteId": 8036, "SeqNo": 13, "Terminal": 0, "DistrictId": 1, "Latitude": 22.982372, "Longitude": 120.500292, "IVRNo": 11443, "EXTVoiceNo": 11443, "traveltime": 0, "holidayTraveltime": 0}, {"Id": "0700", "pgp": 0, "GoBack": 2, "SID": 16835, "NameZh": "\u7530\u87ba\u7a9f", "RouteId": 8036, "SeqNo": 14, "Terminal": 0, "DistrictId": 1, "Latitude": 22.97822, "Longitude": 120.49784, "IVRNo": 10700, "EXTVoiceNo": 10700, "traveltime": 0, "holidayTraveltime": 0}, {"Id": "0612", "pgp": 0, "GoBack": 2, "SID": 16836, "NameZh": "\u5e02\u4ed4\u5c3e\u5bee", "RouteId": 8036, "SeqNo": 15, "Terminal": 0, "DistrictId": 1, "Latitude": 22.9755, "Longitude": 120.49756, "IVRNo": 10612, "EXTVoiceNo": 10612, "traveltime": 0, "holidayTraveltime": 0}, {"Id": "2073", "pgp": 0, "GoBack": 2, "SID": 16837, "NameZh": "\u5bf6\u5c71\u516c\u5712", "RouteId": 8036, "SeqNo": 16, "Terminal": 0, "DistrictId": 1, "Latitude": 22.97207, "Longitude": 120.49756, "IVRNo": 12073, "EXTVoiceNo": 12073, "traveltime": 0, "holidayTraveltime": 0}, {"Id": "2081", "pgp": 0, "GoBack": 2, "SID": 16838, "NameZh": "\u5bf6\u6797", "RouteId": 8036, "SeqNo": 17, "Terminal": 0, "DistrictId": 1, "Latitude": 22.96782, "Longitude": 120.49762, "IVRNo": 12081, "EXTVoiceNo": 12081, "traveltime": 0, "holidayTraveltime": 0}, {"Id": "2006", "pgp": 0, "GoBack": 2, "SID": 16839, "NameZh": "\u9f8d\u5c71\u8def\u53e3", "RouteId": 8036, "SeqNo": 18, "Terminal": 0, "DistrictId": 1, "Latitude": 22.96563, "Longitude": 120.49765, "IVRNo": 12006, "EXTVoiceNo": 12006, "traveltime": 0, "holidayTraveltime": 0}, {"Id": "1224", "pgp": 0, "GoBack": 2, "SID": 16840, "NameZh": "\u57d4\u9802", "RouteId": 8036, "SeqNo": 19, "Terminal": 0, "DistrictId": 1, "Latitude": 22.96, "Longitude": 120.49556, "IVRNo": 11224, "EXTVoiceNo": 11224, "traveltime": 0, "holidayTraveltime": 0}, {"Id": "1528", "pgp": 0, "GoBack": 2, "SID": 16841, "NameZh": "\u840a\u4ed4\u5751", "RouteId": 8036, "SeqNo": 20, "Terminal": 0, "DistrictId": 1, "Latitude": 22.95517, "Longitude": 120.49365, "IVRNo": 11528, "EXTVoiceNo": 11528, "traveltime": 0, "holidayTraveltime": 0}, {"Id": "1236", "pgp": 0, "GoBack": 2, "SID": 16842, "NameZh": "\u592a\u7956\u5edf", "RouteId": 8036, "SeqNo": 21, "Terminal": 0, "DistrictId": 1, "Latitude": 22.94844, "Longitude": 120.49134, "IVRNo": 10428, "EXTVoiceNo": 21236, "traveltime": 0, "holidayTraveltime": 0}, {"Id": "1192", "pgp": 0, "GoBack": 2, "SID": 16843, "NameZh": "\u7d05\u571f\u5d0e", "RouteId": 8036, "SeqNo": 22, "Terminal": 0, "DistrictId": 1, "Latitude": 22.944301, "Longitude": 120.491685, "IVRNo": 11192, "EXTVoiceNo": 11192, "traveltime": 0, "holidayTraveltime": 0}, {"Id": "1160", "pgp": 0, "GoBack": 2, "SID": 16844, "NameZh": "\u5927\u57d4", "RouteId": 8036, "SeqNo": 23, "Terminal": 0, "DistrictId": 1, "Latitude": 22.93885, "Longitude": 120.49201, "IVRNo": 10185, "EXTVoiceNo": 21160, "traveltime": 0, "holidayTraveltime": 0}, {"Id": "1162", "pgp": 0, "GoBack": 2, "SID": 16845, "NameZh": "\u5927\u57d4\u5c3e", "RouteId": 8036, "SeqNo": 24, "Terminal": 0, "DistrictId": 1, "Latitude": 22.93157, "Longitude": 120.49317, "IVRNo": 10189, "EXTVoiceNo": 21162, "traveltime": 0, "holidayTraveltime": 0}, {"Id": "0834", "pgp": 0, "GoBack": 2, "SID": 16846, "NameZh": "\u897f\u5713\u6f6d", "RouteId": 8036, "SeqNo": 25, "Terminal": 0, "DistrictId": 1, "Latitude": 22.937028, "Longitude": 120.491969, "IVRNo": 10834, "EXTVoiceNo": 10834, "traveltime": 0, "holidayTraveltime": 0}, {"Id": "2058", "pgp": 0, "GoBack": 2, "SID": 16847, "NameZh": "\u820a\u5713\u6f6d", "RouteId": 8036, "SeqNo": 26, "Terminal": 0, "DistrictId": 1, "Latitude": 22.924455, "Longitude": 120.494294, "IVRNo": 12058, "EXTVoiceNo": 12058, "traveltime": 0, "holidayTraveltime": 0}, {"Id": "1698", "pgp": 0, "GoBack": 2, "SID": 16848, "NameZh": "\u6e9d\u576a\u8def\u53e3", "RouteId": 8036, "SeqNo": 27, "Terminal": 0, "DistrictId": 1, "Latitude": 22.92309, "Longitude": 120.49761, "IVRNo": 11698, "EXTVoiceNo": 11698, "traveltime": 0, "holidayTraveltime": 0}, {"Id": "0056", "pgp": 0, "GoBack": 2, "SID": 16849, "NameZh": "\u53e3\u9698", "RouteId": 8036, "SeqNo": 28, "Terminal": 0, "DistrictId": 1, "Latitude": 22.9219, "Longitude": 120.49682, "IVRNo": 10124, "EXTVoiceNo": 20056, "traveltime": 0, "holidayTraveltime": 0}, {"Id": "0057", "pgp": 0, "GoBack": 2, "SID": 16850, "NameZh": "\u53e3\u9698\u5e84\u5167", "RouteId": 8036, "SeqNo": 29, "Terminal": 0, "DistrictId": 1, "Latitude": 22.92032, "Longitude": 120.4962, "IVRNo": 10126, "EXTVoiceNo": 20057, "traveltime": 0, "holidayTraveltime": 0}, {"Id": "1575", "pgp": 0, "GoBack": 2, "SID": 16851, "NameZh": "\u5713\u5bcc\u91cc", "RouteId": 8036, "SeqNo": 30, "Terminal": 0, "DistrictId": 1, "Latitude": 22.91674, "Longitude": 120.49473, "IVRNo": 11575, "EXTVoiceNo": 11575, "traveltime": 0, "holidayTraveltime": 0}, {"Id": "9372", "pgp": 0, "GoBack": 2, "SID": 2611, "NameZh": "\u9f8d\u5c71\u6797\u793e\u5340", "RouteId": 8036, "SeqNo": 31, "Terminal": 0, "DistrictId": 1, "Latitude": 22.912333, "Longitude": 120.493057, "IVRNo": 9054, "EXTVoiceNo": 9372, "traveltime": 0, "holidayTraveltime": 0}, {"Id": "0200", "pgp": 0, "GoBack": 2, "SID": 16852, "NameZh": "\u516d\u5f35\u7281", "RouteId": 8036, "SeqNo": 32, "Terminal": 0, "DistrictId": 1, "Latitude": 22.90897, "Longitude": 120.49066, "IVRNo": 10391, "EXTVoiceNo": 20200, "traveltime": 0, "holidayTraveltime": 0}, {"Id": "3413", "pgp": 0, "GoBack": 2, "SID": 13834, "NameZh": "\u65d7\u5c71\u8fb2\u5de5", "RouteId": 8036, "SeqNo": 33, "Terminal": 0, "DistrictId": 1, "Latitude": 22.90194, "Longitude": 120.483244, "IVRNo": 1255, "EXTVoiceNo": 13413, "traveltime": 0, "holidayTraveltime": 0}, {"Id": "1828", "pgp": 0, "GoBack": 2, "SID": 16854, "NameZh": "\u65d7\u5c71\u5317\u7ad9", "RouteId": 8036, "SeqNo": 34, "Terminal": 0, "DistrictId": 1, "Latitude": 22.896043, "Longitude": 120.483457, "IVRNo": 9142, "EXTVoiceNo": 11828, "traveltime": 0, "holidayTraveltime": 0}, {"Id": "1197", "pgp": 0, "GoBack": 2, "SID": 17471, "NameZh": "\u4e2d\u83ef\u8def\u53e3(\u65d7)", "RouteId": 8036, "SeqNo": 35, "Terminal": 0, "DistrictId": 1, "Latitude": 22.89268, "Longitude": 120.48355, "IVRNo": 1180, "EXTVoiceNo": 21197, "traveltime": 0, "holidayTraveltime": 0}, {"Id": "9374", "pgp": 0, "GoBack": 2, "SID": 2336, "NameZh": "\u65d7\u5c71\u5e02\u5834", "RouteId": 8036, "SeqNo": 36, "Terminal": 0, "DistrictId": 1, "Latitude": 22.889889, "Longitude": 120.483465, "IVRNo": 9953, "EXTVoiceNo": 9374, "traveltime": 0, "holidayTraveltime": 0}, {"Id": "9718", "pgp": 0, "GoBack": 2, "SID": 16857, "NameZh": "\u5ef6\u5e73\u8def(\u65d7\u5c71\u5340\u516c\u6240)", "RouteId": 8036, "SeqNo": 37, "Terminal": 0, "DistrictId": 1, "Latitude": 22.88762, "Longitude": 120.48313, "IVRNo": 9718, "EXTVoiceNo": 9718, "traveltime": 0, "holidayTraveltime": 0}, {"Id": "3412", "pgp": 0, "GoBack": 2, "SID": 16858, "NameZh": "\u65d7\u5c71\u8f49\u904b\u7ad9", "RouteId": 8036, "SeqNo": 38, "Terminal": 1, "DistrictId": 1, "Latitude": 22.883651, "Longitude": 120.484555, "IVRNo": 9717, "EXTVoiceNo": 13412, "traveltime": 0, "holidayTraveltime": 0}]}