{"en": [{"Id": "5026", "pgp": 0, "GoBack": 1, "SID": 3633, "NameZh": "THSR Zuoying Station", "RouteId": 90, "SeqNo": 1, "Terminal": 0, "DistrictId": 1, "Latitude": 22.686962, "Longitude": 120.308698, "IVRNo": 5026, "EXTVoiceNo": 5026, "traveltime": 0, "holidayTraveltime": 0}, {"Id": "5917", "pgp": 0, "GoBack": 1, "SID": 4440, "NameZh": "Jhongping Rd. Intersection", "RouteId": 90, "SeqNo": 2, "Terminal": 0, "DistrictId": 1, "Latitude": 22.685474, "Longitude": 120.311033, "IVRNo": 5759, "EXTVoiceNo": 5917, "traveltime": 0, "holidayTraveltime": 0}, {"Id": "8301", "pgp": 0, "GoBack": 1, "SID": 17865, "NameZh": "Huasia Rd. Intersection (Chongai Rd.)", "RouteId": 90, "SeqNo": 3, "Terminal": 0, "DistrictId": 1, "Latitude": 22.68703, "Longitude": 120.313691, "IVRNo": 5619, "EXTVoiceNo": 8301, "traveltime": 0, "holidayTraveltime": 0}, {"Id": "8963", "pgp": 0, "GoBack": 1, "SID": 5267, "NameZh": "Wunzih Rd. Intersection", "RouteId": 90, "SeqNo": 4, "Terminal": 0, "DistrictId": 1, "Latitude": 22.685404, "Longitude": 120.315508, "IVRNo": 7704, "EXTVoiceNo": 8963, "traveltime": 0, "holidayTraveltime": 0}, {"Id": "5923", "pgp": 0, "GoBack": 1, "SID": 4289, "NameZh": "Jhongai Rd. (Hsin Chuan Senior High School)", "RouteId": 90, "SeqNo": 5, "Terminal": 0, "DistrictId": 1, "Latitude": 22.68324, "Longitude": 120.318701, "IVRNo": 5709, "EXTVoiceNo": 5923, "traveltime": 0, "holidayTraveltime": 0}, {"Id": "5762", "pgp": 0, "GoBack": 1, "SID": 4336, "NameZh": "Kaohsiung Municipal Hsinchuang Senior High School (Minzu 1st Rd.)", "RouteId": 90, "SeqNo": 6, "Terminal": 0, "DistrictId": 1, "Latitude": 22.68083, "Longitude": 120.31938, "IVRNo": 5708, "EXTVoiceNo": 5762, "traveltime": 0, "holidayTraveltime": 0}, {"Id": "5206", "pgp": 0, "GoBack": 1, "SID": 3869, "NameZh": "Dajhong Rd. Intersection (Minzu 1st Rd.)", "RouteId": 90, "SeqNo": 7, "Terminal": 0, "DistrictId": 1, "Latitude": 22.67753, "Longitude": 120.318623, "IVRNo": 2210, "EXTVoiceNo": 5206, "traveltime": 0, "holidayTraveltime": 0}, {"Id": "1043", "pgp": 0, "GoBack": 1, "SID": 3873, "NameZh": "Caigong Rd. Intersection (Minzu 1st Rd.)", "RouteId": 90, "SeqNo": 8, "Terminal": 0, "DistrictId": 1, "Latitude": 22.674505, "Longitude": 120.318044, "IVRNo": 1043, "EXTVoiceNo": 1043, "traveltime": 0, "holidayTraveltime": 0}, {"Id": "5208", "pgp": 0, "GoBack": 1, "SID": 3875, "NameZh": "Wenzao Ursuline University of Languages  (Minzu 1st Rd.)", "RouteId": 90, "SeqNo": 9, "Terminal": 0, "DistrictId": 1, "Latitude": 22.670638, "Longitude": 120.317293, "IVRNo": 453, "EXTVoiceNo": 5208, "traveltime": 0, "holidayTraveltime": 0}, {"Id": "5408", "pgp": 0, "GoBack": 1, "SID": 4624, "NameZh": "Tiansiang Rd. Intersection (Minzu 1st Rd..)", "RouteId": 90, "SeqNo": 10, "Terminal": 0, "DistrictId": 1, "Latitude": 22.667598, "Longitude": 120.316704, "IVRNo": 2213, "EXTVoiceNo": 5408, "traveltime": 0, "holidayTraveltime": 0}, {"Id": "7032", "pgp": 0, "GoBack": 1, "SID": 4629, "NameZh": "Minzu Yucheng Rd. Intersection", "RouteId": 90, "SeqNo": 11, "Terminal": 0, "DistrictId": 1, "Latitude": 22.664685, "Longitude": 120.316171, "IVRNo": 2214, "EXTVoiceNo": 7032, "traveltime": 0, "holidayTraveltime": 0}, {"Id": "5213", "pgp": 0, "GoBack": 1, "SID": 3888, "NameZh": "Minzu Rd. (Mingcheng Rd. Intersection)", "RouteId": 90, "SeqNo": 12, "Terminal": 0, "DistrictId": 1, "Latitude": 22.661627, "Longitude": 120.315775, "IVRNo": 43, "EXTVoiceNo": 5213, "traveltime": 0, "holidayTraveltime": 0}, {"Id": "1164", "pgp": 0, "GoBack": 1, "SID": 3890, "NameZh": "Minzu Dashun Rd. Intersection", "RouteId": 90, "SeqNo": 13, "Terminal": 0, "DistrictId": 1, "Latitude": 22.657775, "Longitude": 120.315416, "IVRNo": 4030, "EXTVoiceNo": 21164, "traveltime": 0, "holidayTraveltime": 0}, {"Id": "5215", "pgp": 0, "GoBack": 1, "SID": 3895, "NameZh": "Longfong Temple", "RouteId": 90, "SeqNo": 14, "Terminal": 0, "DistrictId": 1, "Latitude": 22.652769, "Longitude": 120.315011, "IVRNo": 5215, "EXTVoiceNo": 5215, "traveltime": 0, "holidayTraveltime": 0}, {"Id": "3447", "pgp": 0, "GoBack": 1, "SID": 3896, "NameZh": "Wanzihnei", "RouteId": 90, "SeqNo": 15, "Terminal": 0, "DistrictId": 1, "Latitude": 22.648755, "Longitude": 120.314755, "IVRNo": 5216, "EXTVoiceNo": 13447, "traveltime": 0, "holidayTraveltime": 0}, {"Id": "7377", "pgp": 0, "GoBack": 1, "SID": 1473, "NameZh": "Vegetable & Fruit Company", "RouteId": 90, "SeqNo": 16, "Terminal": 0, "DistrictId": 1, "Latitude": 22.645005, "Longitude": 120.314188, "IVRNo": 232, "EXTVoiceNo": 7377, "traveltime": 0, "holidayTraveltime": 0}, {"Id": "0501", "pgp": 0, "GoBack": 1, "SID": 3900, "NameZh": "Minzu Community (Minzu 1st Rd.)", "RouteId": 90, "SeqNo": 17, "Terminal": 0, "DistrictId": 1, "Latitude": 22.640933, "Longitude": 120.313982, "IVRNo": 501, "EXTVoiceNo": 501, "traveltime": 0, "holidayTraveltime": 0}, {"Id": "7801", "pgp": 0, "GoBack": 1, "SID": 5325, "NameZh": "MRT Sinyi Elementary School Station", "RouteId": 90, "SeqNo": 18, "Terminal": 0, "DistrictId": 1, "Latitude": 22.631975, "Longitude": 120.313253, "IVRNo": 7801, "EXTVoiceNo": 7801, "traveltime": 0, "holidayTraveltime": 0}, {"Id": "0059", "pgp": 0, "GoBack": 1, "SID": 17878, "NameZh": "Wufu 1st Rd. Intersection", "RouteId": 90, "SeqNo": 19, "Terminal": 0, "DistrictId": 1, "Latitude": 22.62706, "Longitude": 120.3142, "IVRNo": 946, "EXTVoiceNo": 59, "traveltime": 0, "holidayTraveltime": 0}, {"Id": "8754", "pgp": 0, "GoBack": 1, "SID": 5707, "NameZh": "Siamen St. Intersection", "RouteId": 90, "SeqNo": 20, "Terminal": 0, "DistrictId": 1, "Latitude": 22.62533, "Longitude": 120.314962, "IVRNo": 8754, "EXTVoiceNo": 8754, "traveltime": 0, "holidayTraveltime": 0}, {"Id": "1018", "pgp": 0, "GoBack": 1, "SID": 111, "NameZh": "Lingya 1st Rd. Intersection", "RouteId": 90, "SeqNo": 21, "Terminal": 0, "DistrictId": 1, "Latitude": 22.622479, "Longitude": 120.316016, "IVRNo": 1018, "EXTVoiceNo": 1018, "traveltime": 0, "holidayTraveltime": 0}, {"Id": "4082", "pgp": 0, "GoBack": 1, "SID": 2832, "NameZh": "Fu Hwa Senior High School", "RouteId": 90, "SeqNo": 22, "Terminal": 0, "DistrictId": 1, "Latitude": 22.620711, "Longitude": 120.314262, "IVRNo": 4013, "EXTVoiceNo": 4082, "traveltime": 0, "holidayTraveltime": 0}, {"Id": "1121", "pgp": 0, "GoBack": 1, "SID": 2835, "NameZh": "Kaohsiung City Hall (Sihwei 3rd Rd.)", "RouteId": 90, "SeqNo": 23, "Terminal": 0, "DistrictId": 1, "Latitude": 22.619993, "Longitude": 120.311472, "IVRNo": 1121, "EXTVoiceNo": 1121, "traveltime": 0, "holidayTraveltime": 0}, {"Id": "0673", "pgp": 0, "GoBack": 1, "SID": 2838, "NameZh": "Jhongsiao Rd. Intersection (Sihwei 3rd Rd.)", "RouteId": 90, "SeqNo": 24, "Terminal": 0, "DistrictId": 1, "Latitude": 22.618785, "Longitude": 120.308211, "IVRNo": 673, "EXTVoiceNo": 673, "traveltime": 0, "holidayTraveltime": 0}, {"Id": "1216", "pgp": 0, "GoBack": 1, "SID": 2842, "NameZh": "Lingya Junior High School", "RouteId": 90, "SeqNo": 25, "Terminal": 0, "DistrictId": 1, "Latitude": 22.61769, "Longitude": 120.305019, "IVRNo": 1216, "EXTVoiceNo": 1216, "traveltime": 0, "holidayTraveltime": 0}, {"Id": "2047", "pgp": 0, "GoBack": 1, "SID": 1111, "NameZh": "Singjhong 2nd Rd. Intersection", "RouteId": 90, "SeqNo": 26, "Terminal": 0, "DistrictId": 1, "Latitude": 22.616011, "Longitude": 120.303516, "IVRNo": 2047, "EXTVoiceNo": 2047, "traveltime": 0, "holidayTraveltime": 0}, {"Id": "2371", "pgp": 0, "GoBack": 1, "SID": 7891, "NameZh": "Shin Kong Mitsukoshi Department Store (MRT Sandou Shopping District Station)", "RouteId": 90, "SeqNo": 27, "Terminal": 1, "DistrictId": 1, "Latitude": 22.614334, "Longitude": 120.305857, "IVRNo": 2046, "EXTVoiceNo": 32371, "traveltime": 0, "holidayTraveltime": 0}, {"Id": "2371", "pgp": 0, "GoBack": 2, "SID": 7186, "NameZh": "Shin Kong Mitsukoshi Department Store (MRT Sandou Shopping District Station)", "RouteId": 90, "SeqNo": 1, "Terminal": 0, "DistrictId": 1, "Latitude": 22.614785, "Longitude": 120.307253, "IVRNo": 2046, "EXTVoiceNo": 32371, "traveltime": 0, "holidayTraveltime": 0}, {"Id": "1645", "pgp": 0, "GoBack": 2, "SID": 883, "NameZh": "Sanduo 3rd Rd.", "RouteId": 90, "SeqNo": 2, "Terminal": 0, "DistrictId": 1, "Latitude": 22.615387, "Longitude": 120.309122, "IVRNo": 1619, "EXTVoiceNo": 1645, "traveltime": 0, "holidayTraveltime": 0}, {"Id": "1646", "pgp": 0, "GoBack": 2, "SID": 888, "NameZh": "Renai 3rd St. Intersection", "RouteId": 90, "SeqNo": 3, "Terminal": 0, "DistrictId": 1, "Latitude": 22.615972, "Longitude": 120.310922, "IVRNo": 1618, "EXTVoiceNo": 1646, "traveltime": 0, "holidayTraveltime": 0}, {"Id": "3313", "pgp": 0, "GoBack": 2, "SID": 2344, "NameZh": "Singjhong Rd. Intersection", "RouteId": 90, "SeqNo": 4, "Terminal": 0, "DistrictId": 1, "Latitude": 22.617608, "Longitude": 120.3112, "IVRNo": 3313, "EXTVoiceNo": 3313, "traveltime": 0, "holidayTraveltime": 0}, {"Id": "1121", "pgp": 0, "GoBack": 2, "SID": 2674, "NameZh": "Kaohsiung City Hall (Sihwei 3rd Rd.)", "RouteId": 90, "SeqNo": 5, "Terminal": 0, "DistrictId": 1, "Latitude": 22.619498, "Longitude": 120.311826, "IVRNo": 1121, "EXTVoiceNo": 1121, "traveltime": 0, "holidayTraveltime": 0}, {"Id": "4082", "pgp": 0, "GoBack": 2, "SID": 2677, "NameZh": "Fu Hwa Senior High School", "RouteId": 90, "SeqNo": 6, "Terminal": 0, "DistrictId": 1, "Latitude": 22.6205, "Longitude": 120.3142, "IVRNo": 4013, "EXTVoiceNo": 4082, "traveltime": 0, "holidayTraveltime": 0}, {"Id": "1018", "pgp": 0, "GoBack": 2, "SID": 66, "NameZh": "Lingya 1st Rd. Intersection", "RouteId": 90, "SeqNo": 7, "Terminal": 0, "DistrictId": 1, "Latitude": 22.622473, "Longitude": 120.316248, "IVRNo": 1018, "EXTVoiceNo": 1018, "traveltime": 0, "holidayTraveltime": 0}, {"Id": "1033", "pgp": 0, "GoBack": 2, "SID": 68, "NameZh": "Cingnian Rd. Intersection (Guanghua 1st Rd.)", "RouteId": 90, "SeqNo": 8, "Terminal": 0, "DistrictId": 1, "Latitude": 22.623501, "Longitude": 120.31582, "IVRNo": 1033, "EXTVoiceNo": 1033, "traveltime": 0, "holidayTraveltime": 0}, {"Id": "0059", "pgp": 0, "GoBack": 2, "SID": 223, "NameZh": "Wufu 1st Rd. Intersection", "RouteId": 90, "SeqNo": 9, "Terminal": 0, "DistrictId": 1, "Latitude": 22.6263, "Longitude": 120.31473, "IVRNo": 946, "EXTVoiceNo": 59, "traveltime": 0, "holidayTraveltime": 0}, {"Id": "7801", "pgp": 0, "GoBack": 2, "SID": 5326, "NameZh": "MRT Sinyi Elementary School Station", "RouteId": 90, "SeqNo": 10, "Terminal": 0, "DistrictId": 1, "Latitude": 22.631906, "Longitude": 120.313382, "IVRNo": 7801, "EXTVoiceNo": 7801, "traveltime": 0, "holidayTraveltime": 0}, {"Id": "0501", "pgp": 0, "GoBack": 2, "SID": 3914, "NameZh": "Minzu Community (Minzu 1st Rd.)", "RouteId": 90, "SeqNo": 11, "Terminal": 0, "DistrictId": 1, "Latitude": 22.6409, "Longitude": 120.314216, "IVRNo": 501, "EXTVoiceNo": 501, "traveltime": 0, "holidayTraveltime": 0}, {"Id": "7377", "pgp": 0, "GoBack": 2, "SID": 1766, "NameZh": "Vegetable & Fruit Company", "RouteId": 90, "SeqNo": 12, "Terminal": 0, "DistrictId": 1, "Latitude": 22.645033, "Longitude": 120.31448, "IVRNo": 232, "EXTVoiceNo": 7377, "traveltime": 0, "holidayTraveltime": 0}, {"Id": "3447", "pgp": 0, "GoBack": 2, "SID": 3917, "NameZh": "Wanzihnei", "RouteId": 90, "SeqNo": 13, "Terminal": 0, "DistrictId": 1, "Latitude": 22.648883, "Longitude": 120.314983, "IVRNo": 5216, "EXTVoiceNo": 13447, "traveltime": 0, "holidayTraveltime": 0}, {"Id": "5215", "pgp": 0, "GoBack": 2, "SID": 3920, "NameZh": "Longfong Temple", "RouteId": 90, "SeqNo": 14, "Terminal": 0, "DistrictId": 1, "Latitude": 22.652623, "Longitude": 120.315175, "IVRNo": 5215, "EXTVoiceNo": 5215, "traveltime": 0, "holidayTraveltime": 0}, {"Id": "1164", "pgp": 0, "GoBack": 2, "SID": 3923, "NameZh": "Minzu Dashun Rd. Intersection", "RouteId": 90, "SeqNo": 15, "Terminal": 0, "DistrictId": 1, "Latitude": 22.656722, "Longitude": 120.315472, "IVRNo": 4030, "EXTVoiceNo": 21164, "traveltime": 0, "holidayTraveltime": 0}, {"Id": "5213", "pgp": 0, "GoBack": 2, "SID": 3926, "NameZh": "Minzu Rd. (Mingcheng Rd. Intersection)", "RouteId": 90, "SeqNo": 16, "Terminal": 0, "DistrictId": 1, "Latitude": 22.661294, "Longitude": 120.316005, "IVRNo": 43, "EXTVoiceNo": 5213, "traveltime": 0, "holidayTraveltime": 0}, {"Id": "7032", "pgp": 0, "GoBack": 2, "SID": 8245, "NameZh": "Minzu Yucheng Rd. Intersection", "RouteId": 90, "SeqNo": 17, "Terminal": 0, "DistrictId": 1, "Latitude": 22.664938, "Longitude": 120.316375, "IVRNo": 2214, "EXTVoiceNo": 7032, "traveltime": 0, "holidayTraveltime": 0}, {"Id": "5408", "pgp": 0, "GoBack": 2, "SID": 4635, "NameZh": "Tiansiang Rd. Intersection (Minzu 1st Rd..)", "RouteId": 90, "SeqNo": 18, "Terminal": 0, "DistrictId": 1, "Latitude": 22.667395, "Longitude": 120.316844, "IVRNo": 2213, "EXTVoiceNo": 5408, "traveltime": 0, "holidayTraveltime": 0}, {"Id": "5208", "pgp": 0, "GoBack": 2, "SID": 3942, "NameZh": "Wenzao Ursuline University of Languages  (Minzu 1st Rd.)", "RouteId": 90, "SeqNo": 19, "Terminal": 0, "DistrictId": 1, "Latitude": 22.670691, "Longitude": 120.317487, "IVRNo": 453, "EXTVoiceNo": 5208, "traveltime": 0, "holidayTraveltime": 0}, {"Id": "1043", "pgp": 0, "GoBack": 2, "SID": 3944, "NameZh": "Caigong Rd. Intersection (Minzu 1st Rd.)", "RouteId": 90, "SeqNo": 20, "Terminal": 0, "DistrictId": 1, "Latitude": 22.674663, "Longitude": 120.318256, "IVRNo": 1043, "EXTVoiceNo": 1043, "traveltime": 0, "holidayTraveltime": 0}, {"Id": "5206", "pgp": 0, "GoBack": 2, "SID": 3946, "NameZh": "Dajhong Rd. Intersection (Minzu 1st Rd.)", "RouteId": 90, "SeqNo": 21, "Terminal": 0, "DistrictId": 1, "Latitude": 22.678058, "Longitude": 120.31893, "IVRNo": 2210, "EXTVoiceNo": 5206, "traveltime": 0, "holidayTraveltime": 0}, {"Id": "5762", "pgp": 0, "GoBack": 2, "SID": 4288, "NameZh": "Kaohsiung Municipal Hsinchuang Senior High School (Minzu 1st Rd.)", "RouteId": 90, "SeqNo": 22, "Terminal": 0, "DistrictId": 1, "Latitude": 22.680711, "Longitude": 120.319445, "IVRNo": 5708, "EXTVoiceNo": 5762, "traveltime": 0, "holidayTraveltime": 0}, {"Id": "5923", "pgp": 0, "GoBack": 2, "SID": 4331, "NameZh": "Jhongai Rd. (Hsin Chuan Senior High School)", "RouteId": 90, "SeqNo": 23, "Terminal": 0, "DistrictId": 1, "Latitude": 22.683458, "Longitude": 120.317835, "IVRNo": 5709, "EXTVoiceNo": 5923, "traveltime": 0, "holidayTraveltime": 0}, {"Id": "8963", "pgp": 0, "GoBack": 2, "SID": 5301, "NameZh": "Wunzih Rd. Intersection", "RouteId": 90, "SeqNo": 24, "Terminal": 0, "DistrictId": 1, "Latitude": 22.685482, "Longitude": 120.315524, "IVRNo": 7704, "EXTVoiceNo": 8963, "traveltime": 0, "holidayTraveltime": 0}, {"Id": "8301", "pgp": 0, "GoBack": 2, "SID": 17866, "NameZh": "Huasia Rd. Intersection (Chongai Rd.)", "RouteId": 90, "SeqNo": 25, "Terminal": 0, "DistrictId": 1, "Latitude": 22.687078, "Longitude": 120.313745, "IVRNo": 5619, "EXTVoiceNo": 8301, "traveltime": 0, "holidayTraveltime": 0}, {"Id": "5069", "pgp": 0, "GoBack": 2, "SID": 5330, "NameZh": "Shin Kong Mitsukoshi Department Store (Kaohsiung Zuoying)", "RouteId": 90, "SeqNo": 26, "Terminal": 0, "DistrictId": 1, "Latitude": 22.688939, "Longitude": 120.310724, "IVRNo": 111, "EXTVoiceNo": 5069, "traveltime": 0, "holidayTraveltime": 0}, {"Id": "5026", "pgp": 0, "GoBack": 2, "SID": 14817, "NameZh": "THSR Zuoying Station", "RouteId": 90, "SeqNo": 27, "Terminal": 1, "DistrictId": 1, "Latitude": 22.687959, "Longitude": 120.309779, "IVRNo": 5026, "EXTVoiceNo": 5026, "traveltime": 0, "holidayTraveltime": 0}], "zh": [{"Id": "5026", "pgp": 0, "GoBack": 1, "SID": 3633, "NameZh": "\u9ad8\u9435\u5de6\u71df\u7ad9", "RouteId": 90, "SeqNo": 1, "Terminal": 0, "DistrictId": 1, "Latitude": 22.686962, "Longitude": 120.308698, "IVRNo": 5026, "EXTVoiceNo": 5026, "traveltime": 0, "holidayTraveltime": 0}, {"Id": "5917", "pgp": 0, "GoBack": 1, "SID": 4440, "NameZh": "\u91cd\u5e73\u8def\u53e3", "RouteId": 90, "SeqNo": 2, "Terminal": 0, "DistrictId": 1, "Latitude": 22.685474, "Longitude": 120.311033, "IVRNo": 5759, "EXTVoiceNo": 5917, "traveltime": 0, "holidayTraveltime": 0}, {"Id": "8301", "pgp": 0, "GoBack": 1, "SID": 17865, "NameZh": "\u83ef\u590f\u8def\u53e3(\u91cd\u611b\u8def)", "RouteId": 90, "SeqNo": 3, "Terminal": 0, "DistrictId": 1, "Latitude": 22.68703, "Longitude": 120.313691, "IVRNo": 5619, "EXTVoiceNo": 8301, "traveltime": 0, "holidayTraveltime": 0}, {"Id": "8963", "pgp": 0, "GoBack": 1, "SID": 5267, "NameZh": "\u6587\u81ea\u8def\u53e3", "RouteId": 90, "SeqNo": 4, "Terminal": 0, "DistrictId": 1, "Latitude": 22.685404, "Longitude": 120.315508, "IVRNo": 7704, "EXTVoiceNo": 8963, "traveltime": 0, "holidayTraveltime": 0}, {"Id": "5923", "pgp": 0, "GoBack": 1, "SID": 4289, "NameZh": "\u91cd\u611b\u8def(\u65b0\u838a\u9ad8\u4e2d)", "RouteId": 90, "SeqNo": 5, "Terminal": 0, "DistrictId": 1, "Latitude": 22.68324, "Longitude": 120.318701, "IVRNo": 5709, "EXTVoiceNo": 5923, "traveltime": 0, "holidayTraveltime": 0}, {"Id": "5762", "pgp": 0, "GoBack": 1, "SID": 4336, "NameZh": "\u65b0\u838a\u9ad8\u4e2d(\u6c11\u65cf\u4e00\u8def)", "RouteId": 90, "SeqNo": 6, "Terminal": 0, "DistrictId": 1, "Latitude": 22.68083, "Longitude": 120.31938, "IVRNo": 5708, "EXTVoiceNo": 5762, "traveltime": 0, "holidayTraveltime": 0}, {"Id": "5206", "pgp": 0, "GoBack": 1, "SID": 3869, "NameZh": "\u5927\u4e2d\u8def\u53e3(\u6c11\u65cf\u4e00\u8def)", "RouteId": 90, "SeqNo": 7, "Terminal": 0, "DistrictId": 1, "Latitude": 22.67753, "Longitude": 120.318623, "IVRNo": 2210, "EXTVoiceNo": 5206, "traveltime": 0, "holidayTraveltime": 0}, {"Id": "1043", "pgp": 0, "GoBack": 1, "SID": 3873, "NameZh": "\u83dc\u516c\u8def\u53e3(\u6c11\u65cf\u4e00\u8def)", "RouteId": 90, "SeqNo": 8, "Terminal": 0, "DistrictId": 1, "Latitude": 22.674505, "Longitude": 120.318044, "IVRNo": 1043, "EXTVoiceNo": 1043, "traveltime": 0, "holidayTraveltime": 0}, {"Id": "5208", "pgp": 0, "GoBack": 1, "SID": 3875, "NameZh": "\u6587\u85fb\u5916\u8a9e\u5927\u5b78(\u6c11\u65cf\u4e00\u8def)", "RouteId": 90, "SeqNo": 9, "Terminal": 0, "DistrictId": 1, "Latitude": 22.670638, "Longitude": 120.317293, "IVRNo": 453, "EXTVoiceNo": 5208, "traveltime": 0, "holidayTraveltime": 0}, {"Id": "5408", "pgp": 0, "GoBack": 1, "SID": 4624, "NameZh": "\u5929\u7965\u8def\u53e3(\u6c11\u65cf\u4e00\u8def)", "RouteId": 90, "SeqNo": 10, "Terminal": 0, "DistrictId": 1, "Latitude": 22.667598, "Longitude": 120.316704, "IVRNo": 2213, "EXTVoiceNo": 5408, "traveltime": 0, "holidayTraveltime": 0}, {"Id": "7032", "pgp": 0, "GoBack": 1, "SID": 4629, "NameZh": "\u6c11\u65cf\u88d5\u8aa0\u8def\u53e3", "RouteId": 90, "SeqNo": 11, "Terminal": 0, "DistrictId": 1, "Latitude": 22.664685, "Longitude": 120.316171, "IVRNo": 2214, "EXTVoiceNo": 7032, "traveltime": 0, "holidayTraveltime": 0}, {"Id": "5213", "pgp": 0, "GoBack": 1, "SID": 3888, "NameZh": "\u6c11\u65cf\u8def(\u660e\u8aa0\u8def\u53e3)", "RouteId": 90, "SeqNo": 12, "Terminal": 0, "DistrictId": 1, "Latitude": 22.661627, "Longitude": 120.315775, "IVRNo": 43, "EXTVoiceNo": 5213, "traveltime": 0, "holidayTraveltime": 0}, {"Id": "1164", "pgp": 0, "GoBack": 1, "SID": 3890, "NameZh": "\u6c11\u65cf\u5927\u9806\u8def\u53e3", "RouteId": 90, "SeqNo": 13, "Terminal": 0, "DistrictId": 1, "Latitude": 22.657775, "Longitude": 120.315416, "IVRNo": 4030, "EXTVoiceNo": 21164, "traveltime": 0, "holidayTraveltime": 0}, {"Id": "5215", "pgp": 0, "GoBack": 1, "SID": 3895, "NameZh": "\u9686\u5cf0\u5bfa", "RouteId": 90, "SeqNo": 14, "Terminal": 0, "DistrictId": 1, "Latitude": 22.652769, "Longitude": 120.315011, "IVRNo": 5215, "EXTVoiceNo": 5215, "traveltime": 0, "holidayTraveltime": 0}, {"Id": "3447", "pgp": 0, "GoBack": 1, "SID": 3896, "NameZh": "\u7063\u4ed4\u5167", "RouteId": 90, "SeqNo": 15, "Terminal": 0, "DistrictId": 1, "Latitude": 22.648755, "Longitude": 120.314755, "IVRNo": 5216, "EXTVoiceNo": 13447, "traveltime": 0, "holidayTraveltime": 0}, {"Id": "7377", "pgp": 0, "GoBack": 1, "SID": 1473, "NameZh": "\u679c\u83dc\u516c\u53f8", "RouteId": 90, "SeqNo": 16, "Terminal": 0, "DistrictId": 1, "Latitude": 22.645005, "Longitude": 120.314188, "IVRNo": 232, "EXTVoiceNo": 7377, "traveltime": 0, "holidayTraveltime": 0}, {"Id": "0501", "pgp": 0, "GoBack": 1, "SID": 3900, "NameZh": "\u6c11\u65cf\u793e\u5340(\u6c11\u65cf\u4e00\u8def)", "RouteId": 90, "SeqNo": 17, "Terminal": 0, "DistrictId": 1, "Latitude": 22.640933, "Longitude": 120.313982, "IVRNo": 501, "EXTVoiceNo": 501, "traveltime": 0, "holidayTraveltime": 0}, {"Id": "7801", "pgp": 0, "GoBack": 1, "SID": 5325, "NameZh": "\u6377\u904b\u4fe1\u7fa9\u570b\u5c0f\u7ad9", "RouteId": 90, "SeqNo": 18, "Terminal": 0, "DistrictId": 1, "Latitude": 22.631975, "Longitude": 120.313253, "IVRNo": 7801, "EXTVoiceNo": 7801, "traveltime": 0, "holidayTraveltime": 0}, {"Id": "0059", "pgp": 0, "GoBack": 1, "SID": 17878, "NameZh": "\u4e94\u798f\u4e00\u8def\u53e3", "RouteId": 90, "SeqNo": 19, "Terminal": 0, "DistrictId": 1, "Latitude": 22.62706, "Longitude": 120.3142, "IVRNo": 946, "EXTVoiceNo": 59, "traveltime": 0, "holidayTraveltime": 0}, {"Id": "8754", "pgp": 0, "GoBack": 1, "SID": 5707, "NameZh": "\u5ec8\u9580\u8857\u53e3", "RouteId": 90, "SeqNo": 20, "Terminal": 0, "DistrictId": 1, "Latitude": 22.62533, "Longitude": 120.314962, "IVRNo": 8754, "EXTVoiceNo": 8754, "traveltime": 0, "holidayTraveltime": 0}, {"Id": "1018", "pgp": 0, "GoBack": 1, "SID": 111, "NameZh": "\u82d3\u96c5\u4e00\u8def\u53e3", "RouteId": 90, "SeqNo": 21, "Terminal": 0, "DistrictId": 1, "Latitude": 22.622479, "Longitude": 120.316016, "IVRNo": 1018, "EXTVoiceNo": 1018, "traveltime": 0, "holidayTraveltime": 0}, {"Id": "4082", "pgp": 0, "GoBack": 1, "SID": 2832, "NameZh": "\u5fa9\u83ef\u4e2d\u5b78", "RouteId": 90, "SeqNo": 22, "Terminal": 0, "DistrictId": 1, "Latitude": 22.620711, "Longitude": 120.314262, "IVRNo": 4013, "EXTVoiceNo": 4082, "traveltime": 0, "holidayTraveltime": 0}, {"Id": "1121", "pgp": 0, "GoBack": 1, "SID": 2835, "NameZh": "\u5e02\u653f\u5927\u6a13(\u56db\u7dad\u4e09\u8def)", "RouteId": 90, "SeqNo": 23, "Terminal": 0, "DistrictId": 1, "Latitude": 22.619993, "Longitude": 120.311472, "IVRNo": 1121, "EXTVoiceNo": 1121, "traveltime": 0, "holidayTraveltime": 0}, {"Id": "0673", "pgp": 0, "GoBack": 1, "SID": 2838, "NameZh": "\u5fe0\u5b5d\u8def\u53e3(\u56db\u7dad\u4e09\u8def)", "RouteId": 90, "SeqNo": 24, "Terminal": 0, "DistrictId": 1, "Latitude": 22.618785, "Longitude": 120.308211, "IVRNo": 673, "EXTVoiceNo": 673, "traveltime": 0, "holidayTraveltime": 0}, {"Id": "1216", "pgp": 0, "GoBack": 1, "SID": 2842, "NameZh": "\u82d3\u96c5\u570b\u4e2d", "RouteId": 90, "SeqNo": 25, "Terminal": 0, "DistrictId": 1, "Latitude": 22.61769, "Longitude": 120.305019, "IVRNo": 1216, "EXTVoiceNo": 1216, "traveltime": 0, "holidayTraveltime": 0}, {"Id": "2047", "pgp": 0, "GoBack": 1, "SID": 1111, "NameZh": "\u8208\u4e2d\u4e8c\u8def\u53e3", "RouteId": 90, "SeqNo": 26, "Terminal": 0, "DistrictId": 1, "Latitude": 22.616011, "Longitude": 120.303516, "IVRNo": 2047, "EXTVoiceNo": 2047, "traveltime": 0, "holidayTraveltime": 0}, {"Id": "2371", "pgp": 0, "GoBack": 1, "SID": 7891, "NameZh": "\u65b0\u5149\u4e09\u8d8a(\u6377\u904b\u4e09\u591a\u5546\u5708\u7ad9)", "RouteId": 90, "SeqNo": 27, "Terminal": 1, "DistrictId": 1, "Latitude": 22.614334, "Longitude": 120.305857, "IVRNo": 2046, "EXTVoiceNo": 32371, "traveltime": 0, "holidayTraveltime": 0}, {"Id": "2371", "pgp": 0, "GoBack": 2, "SID": 7186, "NameZh": "\u65b0\u5149\u4e09\u8d8a(\u6377\u904b\u4e09\u591a\u5546\u5708\u7ad9)", "RouteId": 90, "SeqNo": 1, "Terminal": 0, "DistrictId": 1, "Latitude": 22.614785, "Longitude": 120.307253, "IVRNo": 2046, "EXTVoiceNo": 32371, "traveltime": 0, "holidayTraveltime": 0}, {"Id": "1645", "pgp": 0, "GoBack": 2, "SID": 883, "NameZh": "\u4e09\u591a\u4e09\u8def", "RouteId": 90, "SeqNo": 2, "Terminal": 0, "DistrictId": 1, "Latitude": 22.615387, "Longitude": 120.309122, "IVRNo": 1619, "EXTVoiceNo": 1645, "traveltime": 0, "holidayTraveltime": 0}, {"Id": "1646", "pgp": 0, "GoBack": 2, "SID": 888, "NameZh": "\u4ec1\u611b\u4e09\u8857\u53e3", "RouteId": 90, "SeqNo": 3, "Terminal": 0, "DistrictId": 1, "Latitude": 22.615972, "Longitude": 120.310922, "IVRNo": 1618, "EXTVoiceNo": 1646, "traveltime": 0, "holidayTraveltime": 0}, {"Id": "3313", "pgp": 0, "GoBack": 2, "SID": 2344, "NameZh": "\u8208\u4e2d\u8def\u53e3", "RouteId": 90, "SeqNo": 4, "Terminal": 0, "DistrictId": 1, "Latitude": 22.617608, "Longitude": 120.3112, "IVRNo": 3313, "EXTVoiceNo": 3313, "traveltime": 0, "holidayTraveltime": 0}, {"Id": "1121", "pgp": 0, "GoBack": 2, "SID": 2674, "NameZh": "\u5e02\u653f\u5927\u6a13(\u56db\u7dad\u4e09\u8def)", "RouteId": 90, "SeqNo": 5, "Terminal": 0, "DistrictId": 1, "Latitude": 22.619498, "Longitude": 120.311826, "IVRNo": 1121, "EXTVoiceNo": 1121, "traveltime": 0, "holidayTraveltime": 0}, {"Id": "4082", "pgp": 0, "GoBack": 2, "SID": 2677, "NameZh": "\u5fa9\u83ef\u4e2d\u5b78", "RouteId": 90, "SeqNo": 6, "Terminal": 0, "DistrictId": 1, "Latitude": 22.6205, "Longitude": 120.3142, "IVRNo": 4013, "EXTVoiceNo": 4082, "traveltime": 0, "holidayTraveltime": 0}, {"Id": "1018", "pgp": 0, "GoBack": 2, "SID": 66, "NameZh": "\u82d3\u96c5\u4e00\u8def\u53e3", "RouteId": 90, "SeqNo": 7, "Terminal": 0, "DistrictId": 1, "Latitude": 22.622473, "Longitude": 120.316248, "IVRNo": 1018, "EXTVoiceNo": 1018, "traveltime": 0, "holidayTraveltime": 0}, {"Id": "1033", "pgp": 0, "GoBack": 2, "SID": 68, "NameZh": "\u9752\u5e74\u8def\u53e3(\u5149\u83ef\u4e00\u8def)", "RouteId": 90, "SeqNo": 8, "Terminal": 0, "DistrictId": 1, "Latitude": 22.623501, "Longitude": 120.31582, "IVRNo": 1033, "EXTVoiceNo": 1033, "traveltime": 0, "holidayTraveltime": 0}, {"Id": "0059", "pgp": 0, "GoBack": 2, "SID": 223, "NameZh": "\u4e94\u798f\u4e00\u8def\u53e3", "RouteId": 90, "SeqNo": 9, "Terminal": 0, "DistrictId": 1, "Latitude": 22.6263, "Longitude": 120.31473, "IVRNo": 946, "EXTVoiceNo": 59, "traveltime": 0, "holidayTraveltime": 0}, {"Id": "7801", "pgp": 0, "GoBack": 2, "SID": 5326, "NameZh": "\u6377\u904b\u4fe1\u7fa9\u570b\u5c0f\u7ad9", "RouteId": 90, "SeqNo": 10, "Terminal": 0, "DistrictId": 1, "Latitude": 22.631906, "Longitude": 120.313382, "IVRNo": 7801, "EXTVoiceNo": 7801, "traveltime": 0, "holidayTraveltime": 0}, {"Id": "0501", "pgp": 0, "GoBack": 2, "SID": 3914, "NameZh": "\u6c11\u65cf\u793e\u5340(\u6c11\u65cf\u4e00\u8def)", "RouteId": 90, "SeqNo": 11, "Terminal": 0, "DistrictId": 1, "Latitude": 22.6409, "Longitude": 120.314216, "IVRNo": 501, "EXTVoiceNo": 501, "traveltime": 0, "holidayTraveltime": 0}, {"Id": "7377", "pgp": 0, "GoBack": 2, "SID": 1766, "NameZh": "\u679c\u83dc\u516c\u53f8", "RouteId": 90, "SeqNo": 12, "Terminal": 0, "DistrictId": 1, "Latitude": 22.645033, "Longitude": 120.31448, "IVRNo": 232, "EXTVoiceNo": 7377, "traveltime": 0, "holidayTraveltime": 0}, {"Id": "3447", "pgp": 0, "GoBack": 2, "SID": 3917, "NameZh": "\u7063\u4ed4\u5167", "RouteId": 90, "SeqNo": 13, "Terminal": 0, "DistrictId": 1, "Latitude": 22.648883, "Longitude": 120.314983, "IVRNo": 5216, "EXTVoiceNo": 13447, "traveltime": 0, "holidayTraveltime": 0}, {"Id": "5215", "pgp": 0, "GoBack": 2, "SID": 3920, "NameZh": "\u9686\u5cf0\u5bfa", "RouteId": 90, "SeqNo": 14, "Terminal": 0, "DistrictId": 1, "Latitude": 22.652623, "Longitude": 120.315175, "IVRNo": 5215, "EXTVoiceNo": 5215, "traveltime": 0, "holidayTraveltime": 0}, {"Id": "1164", "pgp": 0, "GoBack": 2, "SID": 3923, "NameZh": "\u6c11\u65cf\u5927\u9806\u8def\u53e3", "RouteId": 90, "SeqNo": 15, "Terminal": 0, "DistrictId": 1, "Latitude": 22.656722, "Longitude": 120.315472, "IVRNo": 4030, "EXTVoiceNo": 21164, "traveltime": 0, "holidayTraveltime": 0}, {"Id": "5213", "pgp": 0, "GoBack": 2, "SID": 3926, "NameZh": "\u6c11\u65cf\u8def(\u660e\u8aa0\u8def\u53e3)", "RouteId": 90, "SeqNo": 16, "Terminal": 0, "DistrictId": 1, "Latitude": 22.661294, "Longitude": 120.316005, "IVRNo": 43, "EXTVoiceNo": 5213, "traveltime": 0, "holidayTraveltime": 0}, {"Id": "7032", "pgp": 0, "GoBack": 2, "SID": 8245, "NameZh": "\u6c11\u65cf\u88d5\u8aa0\u8def\u53e3", "RouteId": 90, "SeqNo": 17, "Terminal": 0, "DistrictId": 1, "Latitude": 22.664938, "Longitude": 120.316375, "IVRNo": 2214, "EXTVoiceNo": 7032, "traveltime": 0, "holidayTraveltime": 0}, {"Id": "5408", "pgp": 0, "GoBack": 2, "SID": 4635, "NameZh": "\u5929\u7965\u8def\u53e3(\u6c11\u65cf\u4e00\u8def)", "RouteId": 90, "SeqNo": 18, "Terminal": 0, "DistrictId": 1, "Latitude": 22.667395, "Longitude": 120.316844, "IVRNo": 2213, "EXTVoiceNo": 5408, "traveltime": 0, "holidayTraveltime": 0}, {"Id": "5208", "pgp": 0, "GoBack": 2, "SID": 3942, "NameZh": "\u6587\u85fb\u5916\u8a9e\u5927\u5b78(\u6c11\u65cf\u4e00\u8def)", "RouteId": 90, "SeqNo": 19, "Terminal": 0, "DistrictId": 1, "Latitude": 22.670691, "Longitude": 120.317487, "IVRNo": 453, "EXTVoiceNo": 5208, "traveltime": 0, "holidayTraveltime": 0}, {"Id": "1043", "pgp": 0, "GoBack": 2, "SID": 3944, "NameZh": "\u83dc\u516c\u8def\u53e3(\u6c11\u65cf\u4e00\u8def)", "RouteId": 90, "SeqNo": 20, "Terminal": 0, "DistrictId": 1, "Latitude": 22.674663, "Longitude": 120.318256, "IVRNo": 1043, "EXTVoiceNo": 1043, "traveltime": 0, "holidayTraveltime": 0}, {"Id": "5206", "pgp": 0, "GoBack": 2, "SID": 3946, "NameZh": "\u5927\u4e2d\u8def\u53e3(\u6c11\u65cf\u4e00\u8def)", "RouteId": 90, "SeqNo": 21, "Terminal": 0, "DistrictId": 1, "Latitude": 22.678058, "Longitude": 120.31893, "IVRNo": 2210, "EXTVoiceNo": 5206, "traveltime": 0, "holidayTraveltime": 0}, {"Id": "5762", "pgp": 0, "GoBack": 2, "SID": 4288, "NameZh": "\u65b0\u838a\u9ad8\u4e2d(\u6c11\u65cf\u4e00\u8def)", "RouteId": 90, "SeqNo": 22, "Terminal": 0, "DistrictId": 1, "Latitude": 22.680711, "Longitude": 120.319445, "IVRNo": 5708, "EXTVoiceNo": 5762, "traveltime": 0, "holidayTraveltime": 0}, {"Id": "5923", "pgp": 0, "GoBack": 2, "SID": 4331, "NameZh": "\u91cd\u611b\u8def(\u65b0\u838a\u9ad8\u4e2d)", "RouteId": 90, "SeqNo": 23, "Terminal": 0, "DistrictId": 1, "Latitude": 22.683458, "Longitude": 120.317835, "IVRNo": 5709, "EXTVoiceNo": 5923, "traveltime": 0, "holidayTraveltime": 0}, {"Id": "8963", "pgp": 0, "GoBack": 2, "SID": 5301, "NameZh": "\u6587\u81ea\u8def\u53e3", "RouteId": 90, "SeqNo": 24, "Terminal": 0, "DistrictId": 1, "Latitude": 22.685482, "Longitude": 120.315524, "IVRNo": 7704, "EXTVoiceNo": 8963, "traveltime": 0, "holidayTraveltime": 0}, {"Id": "8301", "pgp": 0, "GoBack": 2, "SID": 17866, "NameZh": "\u83ef\u590f\u8def\u53e3(\u91cd\u611b\u8def)", "RouteId": 90, "SeqNo": 25, "Terminal": 0, "DistrictId": 1, "Latitude": 22.687078, "Longitude": 120.313745, "IVRNo": 5619, "EXTVoiceNo": 8301, "traveltime": 0, "holidayTraveltime": 0}, {"Id": "5069", "pgp": 0, "GoBack": 2, "SID": 5330, "NameZh": "\u5de6\u71df\u65b0\u5149\u4e09\u8d8a", "RouteId": 90, "SeqNo": 26, "Terminal": 0, "DistrictId": 1, "Latitude": 22.688939, "Longitude": 120.310724, "IVRNo": 111, "EXTVoiceNo": 5069, "traveltime": 0, "holidayTraveltime": 0}, {"Id": "5026", "pgp": 0, "GoBack": 2, "SID": 14817, "NameZh": "\u9ad8\u9435\u5de6\u71df\u7ad9", "RouteId": 90, "SeqNo": 27, "Terminal": 1, "DistrictId": 1, "Latitude": 22.687959, "Longitude": 120.309779, "IVRNo": 5026, "EXTVoiceNo": 5026, "traveltime": 0, "holidayTraveltime": 0}]}