{"en": [{"Id": "2033", "pgp": 0, "GoBack": 1, "SID": 2673, "NameZh": "Shih Chien University (Campus)", "RouteId": 8042, "SeqNo": 1, "Terminal": 0, "DistrictId": 1, "Latitude": 22.904664, "Longitude": 120.467705, "IVRNo": 9996, "EXTVoiceNo": 12033, "traveltime": 0, "holidayTraveltime": 0}, {"Id": "2022", "pgp": 0, "GoBack": 1, "SID": 16777, "NameZh": "Lingding", "RouteId": 8042, "SeqNo": 2, "Terminal": 0, "DistrictId": 1, "Latitude": 22.906832, "Longitude": 120.475079, "IVRNo": 9144, "EXTVoiceNo": 12022, "traveltime": 0, "holidayTraveltime": 0}, {"Id": "1159", "pgp": 0, "GoBack": 1, "SID": 16778, "NameZh": "Chaotian Temple (Ciwun Rd.)", "RouteId": 8042, "SeqNo": 3, "Terminal": 0, "DistrictId": 1, "Latitude": 22.903691, "Longitude": 120.479159, "IVRNo": 1159, "EXTVoiceNo": 1159, "traveltime": 0, "holidayTraveltime": 0}, {"Id": "0478", "pgp": 0, "GoBack": 1, "SID": 2653, "NameZh": "Cishan Motor Vehicles Supervision Station", "RouteId": 8042, "SeqNo": 4, "Terminal": 0, "DistrictId": 1, "Latitude": 22.90052, "Longitude": 120.4791, "IVRNo": 2582, "EXTVoiceNo": 478, "traveltime": 0, "holidayTraveltime": 0}, {"Id": "1828", "pgp": 0, "GoBack": 1, "SID": 17275, "NameZh": "Cishan North Station", "RouteId": 8042, "SeqNo": 5, "Terminal": 0, "DistrictId": 1, "Latitude": 22.896043, "Longitude": 120.483457, "IVRNo": 9142, "EXTVoiceNo": 11828, "traveltime": 0, "holidayTraveltime": 0}, {"Id": "1197", "pgp": 0, "GoBack": 1, "SID": 17276, "NameZh": "Jhonghua Rd. Intersection (Ci)", "RouteId": 8042, "SeqNo": 6, "Terminal": 0, "DistrictId": 1, "Latitude": 22.89278, "Longitude": 120.4833, "IVRNo": 1180, "EXTVoiceNo": 21197, "traveltime": 0, "holidayTraveltime": 0}, {"Id": "9374", "pgp": 0, "GoBack": 1, "SID": 2669, "NameZh": "Cishan Market", "RouteId": 8042, "SeqNo": 7, "Terminal": 0, "DistrictId": 1, "Latitude": 22.8899, "Longitude": 120.48332, "IVRNo": 9953, "EXTVoiceNo": 9374, "traveltime": 0, "holidayTraveltime": 0}, {"Id": "9718", "pgp": 0, "GoBack": 1, "SID": 17278, "NameZh": "Yanping Rd. (Cishan District Office)", "RouteId": 8042, "SeqNo": 8, "Terminal": 0, "DistrictId": 1, "Latitude": 22.88762, "Longitude": 120.48313, "IVRNo": 9718, "EXTVoiceNo": 9718, "traveltime": 0, "holidayTraveltime": 0}, {"Id": "3412", "pgp": 0, "GoBack": 1, "SID": 17279, "NameZh": "Cishan Bus Transfer Station", "RouteId": 8042, "SeqNo": 9, "Terminal": 0, "DistrictId": 1, "Latitude": 22.883651, "Longitude": 120.484555, "IVRNo": 9717, "EXTVoiceNo": 13412, "traveltime": 0, "holidayTraveltime": 0}, {"Id": "2114", "pgp": 0, "GoBack": 1, "SID": 17281, "NameZh": "Dechang Rd. (Jhongsyue Rd. Intersection)", "RouteId": 8042, "SeqNo": 10, "Terminal": 0, "DistrictId": 1, "Latitude": 22.88162, "Longitude": 120.48203, "IVRNo": 2114, "EXTVoiceNo": 2114, "traveltime": 0, "holidayTraveltime": 0}, {"Id": "0168", "pgp": 0, "GoBack": 1, "SID": 17282, "NameZh": "Jhongsyue Rd.", "RouteId": 8042, "SeqNo": 11, "Terminal": 0, "DistrictId": 1, "Latitude": 22.88282, "Longitude": 120.47867, "IVRNo": 10321, "EXTVoiceNo": 20168, "traveltime": 0, "holidayTraveltime": 0}, {"Id": "1840", "pgp": 0, "GoBack": 1, "SID": 17283, "NameZh": "Citing Bridge", "RouteId": 8042, "SeqNo": 12, "Terminal": 0, "DistrictId": 1, "Latitude": 22.8833, "Longitude": 120.47748, "IVRNo": 11840, "EXTVoiceNo": 11840, "traveltime": 0, "holidayTraveltime": 0}, {"Id": "1803", "pgp": 0, "GoBack": 1, "SID": 17284, "NameZh": "Gushan Ciling", "RouteId": 8042, "SeqNo": 13, "Terminal": 0, "DistrictId": 1, "Latitude": 22.88606, "Longitude": 120.46577, "IVRNo": 11803, "EXTVoiceNo": 11803, "traveltime": 0, "holidayTraveltime": 0}, {"Id": "1480", "pgp": 0, "GoBack": 1, "SID": 17285, "NameZh": "Ciaojyue Temple", "RouteId": 8042, "SeqNo": 14, "Terminal": 0, "DistrictId": 1, "Latitude": 22.88866, "Longitude": 120.45932, "IVRNo": 11480, "EXTVoiceNo": 11480, "traveltime": 0, "holidayTraveltime": 0}, {"Id": "1826", "pgp": 0, "GoBack": 1, "SID": 17286, "NameZh": "Cishan Campus", "RouteId": 8042, "SeqNo": 15, "Terminal": 0, "DistrictId": 1, "Latitude": 22.88849, "Longitude": 120.45731, "IVRNo": 11826, "EXTVoiceNo": 11826, "traveltime": 0, "holidayTraveltime": 0}, {"Id": "1270", "pgp": 0, "GoBack": 1, "SID": 17287, "NameZh": "Matou Mountain", "RouteId": 8042, "SeqNo": 16, "Terminal": 0, "DistrictId": 1, "Latitude": 22.88731, "Longitude": 120.44952, "IVRNo": 11270, "EXTVoiceNo": 11270, "traveltime": 0, "holidayTraveltime": 0}, {"Id": "1272", "pgp": 0, "GoBack": 1, "SID": 17288, "NameZh": "Matou Hilltop", "RouteId": 8042, "SeqNo": 17, "Terminal": 0, "DistrictId": 1, "Latitude": 22.88548, "Longitude": 120.44279, "IVRNo": 11272, "EXTVoiceNo": 11272, "traveltime": 0, "holidayTraveltime": 0}, {"Id": "1219", "pgp": 0, "GoBack": 1, "SID": 17289, "NameZh": "Neimen Rd. Intersection", "RouteId": 8042, "SeqNo": 18, "Terminal": 0, "DistrictId": 1, "Latitude": 22.88685, "Longitude": 120.43388, "IVRNo": 10379, "EXTVoiceNo": 21219, "traveltime": 0, "holidayTraveltime": 0}, {"Id": "1472", "pgp": 0, "GoBack": 1, "SID": 17290, "NameZh": "Lupu Campus", "RouteId": 8042, "SeqNo": 19, "Terminal": 0, "DistrictId": 1, "Latitude": 22.88523, "Longitude": 120.42552, "IVRNo": 11472, "EXTVoiceNo": 11472, "traveltime": 0, "holidayTraveltime": 0}, {"Id": "1470", "pgp": 0, "GoBack": 1, "SID": 17291, "NameZh": "Lupu", "RouteId": 8042, "SeqNo": 20, "Terminal": 0, "DistrictId": 1, "Latitude": 22.88867, "Longitude": 120.42185, "IVRNo": 11470, "EXTVoiceNo": 11470, "traveltime": 0, "holidayTraveltime": 0}, {"Id": "0568", "pgp": 0, "GoBack": 1, "SID": 17292, "NameZh": "Guting", "RouteId": 8042, "SeqNo": 21, "Terminal": 0, "DistrictId": 1, "Latitude": 22.89363, "Longitude": 120.40366, "IVRNo": 10568, "EXTVoiceNo": 10568, "traveltime": 0, "holidayTraveltime": 0}, {"Id": "0570", "pgp": 0, "GoBack": 1, "SID": 17293, "NameZh": "Guting Reservoir", "RouteId": 8042, "SeqNo": 22, "Terminal": 0, "DistrictId": 1, "Latitude": 22.89439, "Longitude": 120.39964, "IVRNo": 10570, "EXTVoiceNo": 10570, "traveltime": 0, "holidayTraveltime": 0}, {"Id": "1092", "pgp": 0, "GoBack": 1, "SID": 17294, "NameZh": "Nanshih Ciding", "RouteId": 8042, "SeqNo": 23, "Terminal": 0, "DistrictId": 1, "Latitude": 22.89255, "Longitude": 120.39811, "IVRNo": 11092, "EXTVoiceNo": 11092, "traveltime": 0, "holidayTraveltime": 0}, {"Id": "0572", "pgp": 0, "GoBack": 1, "SID": 17295, "NameZh": "Guting Bridge", "RouteId": 8042, "SeqNo": 24, "Terminal": 0, "DistrictId": 1, "Latitude": 22.88717, "Longitude": 120.39501, "IVRNo": 10572, "EXTVoiceNo": 10572, "traveltime": 0, "holidayTraveltime": 0}, {"Id": "9224", "pgp": 0, "GoBack": 1, "SID": 17296, "NameZh": "Rihyue Buddhist Temple", "RouteId": 8042, "SeqNo": 25, "Terminal": 0, "DistrictId": 1, "Latitude": 22.8859, "Longitude": 120.39042, "IVRNo": 9755, "EXTVoiceNo": 9224, "traveltime": 0, "holidayTraveltime": 0}, {"Id": "9223", "pgp": 0, "GoBack": 1, "SID": 17297, "NameZh": "Moon World", "RouteId": 8042, "SeqNo": 26, "Terminal": 0, "DistrictId": 1, "Latitude": 22.8851, "Longitude": 120.38841, "IVRNo": 9754, "EXTVoiceNo": 9223, "traveltime": 0, "holidayTraveltime": 0}, {"Id": "9290", "pgp": 0, "GoBack": 1, "SID": 17298, "NameZh": "Beishihjhai", "RouteId": 8042, "SeqNo": 27, "Terminal": 0, "DistrictId": 1, "Latitude": 22.8794, "Longitude": 120.38409, "IVRNo": 9890, "EXTVoiceNo": 9290, "traveltime": 0, "holidayTraveltime": 0}, {"Id": "0001", "pgp": 0, "GoBack": 1, "SID": 17299, "NameZh": "Chongde Market (Fire Department)", "RouteId": 8042, "SeqNo": 28, "Terminal": 0, "DistrictId": 1, "Latitude": 22.87725, "Longitude": 120.38123, "IVRNo": 9889, "EXTVoiceNo": 20001, "traveltime": 0, "holidayTraveltime": 0}, {"Id": "9288", "pgp": 0, "GoBack": 1, "SID": 17300, "NameZh": "Chung-Te Elementary School", "RouteId": 8042, "SeqNo": 29, "Terminal": 0, "DistrictId": 1, "Latitude": 22.87833, "Longitude": 120.37971, "IVRNo": 9888, "EXTVoiceNo": 9288, "traveltime": 0, "holidayTraveltime": 0}, {"Id": "9287", "pgp": 0, "GoBack": 1, "SID": 17301, "NameZh": "Yingpanding", "RouteId": 8042, "SeqNo": 30, "Terminal": 0, "DistrictId": 1, "Latitude": 22.87872, "Longitude": 120.37723, "IVRNo": 9887, "EXTVoiceNo": 9287, "traveltime": 0, "holidayTraveltime": 0}, {"Id": "9286", "pgp": 0, "GoBack": 1, "SID": 17302, "NameZh": "Sugar Refinery (Side Community)", "RouteId": 8042, "SeqNo": 31, "Terminal": 0, "DistrictId": 1, "Latitude": 22.87889, "Longitude": 120.37406, "IVRNo": 9886, "EXTVoiceNo": 9286, "traveltime": 0, "holidayTraveltime": 0}, {"Id": "0388", "pgp": 0, "GoBack": 1, "SID": 17303, "NameZh": "Jhushan", "RouteId": 8042, "SeqNo": 32, "Terminal": 0, "DistrictId": 1, "Latitude": 22.87801, "Longitude": 120.36873, "IVRNo": 789, "EXTVoiceNo": 20388, "traveltime": 0, "holidayTraveltime": 0}, {"Id": "0000", "pgp": 0, "GoBack": 1, "SID": 17304, "NameZh": "TianLiau Church (Market)", "RouteId": 8042, "SeqNo": 33, "Terminal": 0, "DistrictId": 1, "Latitude": 22.87371, "Longitude": 120.36033, "IVRNo": 1181, "EXTVoiceNo": 20000, "traveltime": 0, "holidayTraveltime": 0}, {"Id": "9164", "pgp": 0, "GoBack": 1, "SID": 17305, "NameZh": "Gangan Rd.", "RouteId": 8042, "SeqNo": 34, "Terminal": 0, "DistrictId": 1, "Latitude": 22.87285, "Longitude": 120.35893, "IVRNo": 9600, "EXTVoiceNo": 9164, "traveltime": 0, "holidayTraveltime": 0}, {"Id": "9163", "pgp": 0, "GoBack": 1, "SID": 17306, "NameZh": "Gangshantou Hot Spring", "RouteId": 8042, "SeqNo": 35, "Terminal": 0, "DistrictId": 1, "Latitude": 22.87423, "Longitude": 120.35702, "IVRNo": 9599, "EXTVoiceNo": 9163, "traveltime": 0, "holidayTraveltime": 0}, {"Id": "9162", "pgp": 0, "GoBack": 1, "SID": 17307, "NameZh": "Gangshantou", "RouteId": 8042, "SeqNo": 36, "Terminal": 0, "DistrictId": 1, "Latitude": 22.87469, "Longitude": 120.35589, "IVRNo": 9598, "EXTVoiceNo": 9162, "traveltime": 0, "holidayTraveltime": 0}, {"Id": "9161", "pgp": 0, "GoBack": 1, "SID": 16862, "NameZh": "Fongshan Village", "RouteId": 8042, "SeqNo": 37, "Terminal": 0, "DistrictId": 1, "Latitude": 22.87626, "Longitude": 120.35349, "IVRNo": 9597, "EXTVoiceNo": 9161, "traveltime": 0, "holidayTraveltime": 0}, {"Id": "9160", "pgp": 0, "GoBack": 1, "SID": 17309, "NameZh": "Nangangshan", "RouteId": 8042, "SeqNo": 38, "Terminal": 0, "DistrictId": 1, "Latitude": 22.87835, "Longitude": 120.35001, "IVRNo": 9596, "EXTVoiceNo": 9160, "traveltime": 0, "holidayTraveltime": 0}, {"Id": "9159", "pgp": 0, "GoBack": 1, "SID": 17437, "NameZh": "Dabi", "RouteId": 8042, "SeqNo": 39, "Terminal": 0, "DistrictId": 1, "Latitude": 22.88044, "Longitude": 120.34637, "IVRNo": 10219, "EXTVoiceNo": 9159, "traveltime": 0, "holidayTraveltime": 0}, {"Id": "9158", "pgp": 0, "GoBack": 1, "SID": 17311, "NameZh": "Brick Kiln", "RouteId": 8042, "SeqNo": 40, "Terminal": 0, "DistrictId": 1, "Latitude": 22.88185, "Longitude": 120.34181, "IVRNo": 9594, "EXTVoiceNo": 9158, "traveltime": 0, "holidayTraveltime": 0}, {"Id": "9157", "pgp": 0, "GoBack": 1, "SID": 17312, "NameZh": "Yuansheng Community", "RouteId": 8042, "SeqNo": 41, "Terminal": 0, "DistrictId": 1, "Latitude": 22.88169, "Longitude": 120.33921, "IVRNo": 9593, "EXTVoiceNo": 9157, "traveltime": 0, "holidayTraveltime": 0}, {"Id": "1187", "pgp": 0, "GoBack": 1, "SID": 17313, "NameZh": "Industrial Park (Alian)", "RouteId": 8042, "SeqNo": 42, "Terminal": 0, "DistrictId": 1, "Latitude": 22.88138, "Longitude": 120.33721, "IVRNo": 477, "EXTVoiceNo": 21187, "traveltime": 0, "holidayTraveltime": 0}, {"Id": "9155", "pgp": 0, "GoBack": 1, "SID": 16868, "NameZh": "Alian Jhongjheng Rd. (Heping Rd. Intersection)", "RouteId": 8042, "SeqNo": 43, "Terminal": 0, "DistrictId": 1, "Latitude": 22.88087, "Longitude": 120.33293, "IVRNo": 7148, "EXTVoiceNo": 9155, "traveltime": 0, "holidayTraveltime": 0}, {"Id": "9154", "pgp": 0, "GoBack": 1, "SID": 17315, "NameZh": "Alian", "RouteId": 8042, "SeqNo": 44, "Terminal": 0, "DistrictId": 1, "Latitude": 22.87914, "Longitude": 120.33137, "IVRNo": 9590, "EXTVoiceNo": 9154, "traveltime": 0, "holidayTraveltime": 0}, {"Id": "9153", "pgp": 0, "GoBack": 1, "SID": 17316, "NameZh": "Alian Police Station", "RouteId": 8042, "SeqNo": 45, "Terminal": 0, "DistrictId": 1, "Latitude": 22.878948, "Longitude": 120.329406, "IVRNo": 9589, "EXTVoiceNo": 9153, "traveltime": 0, "holidayTraveltime": 0}, {"Id": "0703", "pgp": 0, "GoBack": 1, "SID": 14527, "NameZh": "Lunzihding", "RouteId": 8042, "SeqNo": 46, "Terminal": 0, "DistrictId": 1, "Latitude": 22.879066, "Longitude": 120.312808, "IVRNo": 11370, "EXTVoiceNo": 20703, "traveltime": 0, "holidayTraveltime": 0}, {"Id": "2381", "pgp": 0, "GoBack": 1, "SID": 19052, "NameZh": "THSR Tainan Station", "RouteId": 8042, "SeqNo": 47, "Terminal": 1, "DistrictId": 1, "Latitude": 22.924153, "Longitude": 120.286083, "IVRNo": 32381, "EXTVoiceNo": 32381, "traveltime": 0, "holidayTraveltime": 0}, {"Id": "2381", "pgp": 0, "GoBack": 2, "SID": 19065, "NameZh": "THSR Tainan Station", "RouteId": 8042, "SeqNo": 1, "Terminal": 0, "DistrictId": 1, "Latitude": 22.923506, "Longitude": 120.286568, "IVRNo": 32381, "EXTVoiceNo": 32381, "traveltime": 0, "holidayTraveltime": 0}, {"Id": "0703", "pgp": 0, "GoBack": 2, "SID": 14600, "NameZh": "Lunzihding", "RouteId": 8042, "SeqNo": 2, "Terminal": 0, "DistrictId": 1, "Latitude": 22.878971, "Longitude": 120.312727, "IVRNo": 11370, "EXTVoiceNo": 20703, "traveltime": 0, "holidayTraveltime": 0}, {"Id": "9153", "pgp": 0, "GoBack": 2, "SID": 17431, "NameZh": "Alian Police Station", "RouteId": 8042, "SeqNo": 3, "Terminal": 0, "DistrictId": 1, "Latitude": 22.87877, "Longitude": 120.32931, "IVRNo": 9589, "EXTVoiceNo": 9153, "traveltime": 0, "holidayTraveltime": 0}, {"Id": "9154", "pgp": 0, "GoBack": 2, "SID": 17432, "NameZh": "Alian", "RouteId": 8042, "SeqNo": 4, "Terminal": 0, "DistrictId": 1, "Latitude": 22.879062, "Longitude": 120.33103, "IVRNo": 9590, "EXTVoiceNo": 9154, "traveltime": 0, "holidayTraveltime": 0}, {"Id": "9155", "pgp": 0, "GoBack": 2, "SID": 16985, "NameZh": "Alian Jhongjheng Rd. (Heping Rd. Intersection)", "RouteId": 8042, "SeqNo": 5, "Terminal": 0, "DistrictId": 1, "Latitude": 22.880614, "Longitude": 120.332945, "IVRNo": 7148, "EXTVoiceNo": 9155, "traveltime": 0, "holidayTraveltime": 0}, {"Id": "1187", "pgp": 0, "GoBack": 2, "SID": 17434, "NameZh": "Industrial Park (Alian)", "RouteId": 8042, "SeqNo": 6, "Terminal": 0, "DistrictId": 1, "Latitude": 22.88131, "Longitude": 120.3373, "IVRNo": 477, "EXTVoiceNo": 21187, "traveltime": 0, "holidayTraveltime": 0}, {"Id": "9157", "pgp": 0, "GoBack": 2, "SID": 17435, "NameZh": "Yuansheng Community", "RouteId": 8042, "SeqNo": 7, "Terminal": 0, "DistrictId": 1, "Latitude": 22.88156, "Longitude": 120.33967, "IVRNo": 9593, "EXTVoiceNo": 9157, "traveltime": 0, "holidayTraveltime": 0}, {"Id": "9158", "pgp": 0, "GoBack": 2, "SID": 17436, "NameZh": "Brick Kiln", "RouteId": 8042, "SeqNo": 8, "Terminal": 0, "DistrictId": 1, "Latitude": 22.88165, "Longitude": 120.34215, "IVRNo": 9594, "EXTVoiceNo": 9158, "traveltime": 0, "holidayTraveltime": 0}, {"Id": "9159", "pgp": 0, "GoBack": 2, "SID": 17437, "NameZh": "Dabi", "RouteId": 8042, "SeqNo": 9, "Terminal": 0, "DistrictId": 1, "Latitude": 22.88044, "Longitude": 120.34637, "IVRNo": 10219, "EXTVoiceNo": 9159, "traveltime": 0, "holidayTraveltime": 0}, {"Id": "9160", "pgp": 0, "GoBack": 2, "SID": 17438, "NameZh": "Nangangshan", "RouteId": 8042, "SeqNo": 10, "Terminal": 0, "DistrictId": 1, "Latitude": 22.87821, "Longitude": 120.35001, "IVRNo": 9596, "EXTVoiceNo": 9160, "traveltime": 0, "holidayTraveltime": 0}, {"Id": "9161", "pgp": 0, "GoBack": 2, "SID": 16991, "NameZh": "Fongshan Village", "RouteId": 8042, "SeqNo": 11, "Terminal": 0, "DistrictId": 1, "Latitude": 22.87614, "Longitude": 120.35348, "IVRNo": 9597, "EXTVoiceNo": 9161, "traveltime": 0, "holidayTraveltime": 0}, {"Id": "9162", "pgp": 0, "GoBack": 2, "SID": 17440, "NameZh": "Gangshantou", "RouteId": 8042, "SeqNo": 12, "Terminal": 0, "DistrictId": 1, "Latitude": 22.87457, "Longitude": 120.35587, "IVRNo": 9598, "EXTVoiceNo": 9162, "traveltime": 0, "holidayTraveltime": 0}, {"Id": "9163", "pgp": 0, "GoBack": 2, "SID": 17441, "NameZh": "Gangshantou Hot Spring", "RouteId": 8042, "SeqNo": 13, "Terminal": 0, "DistrictId": 1, "Latitude": 22.87404, "Longitude": 120.356962, "IVRNo": 9599, "EXTVoiceNo": 9163, "traveltime": 0, "holidayTraveltime": 0}, {"Id": "9164", "pgp": 0, "GoBack": 2, "SID": 17442, "NameZh": "Gangan Rd.", "RouteId": 8042, "SeqNo": 14, "Terminal": 0, "DistrictId": 1, "Latitude": 22.872795, "Longitude": 120.358777, "IVRNo": 9600, "EXTVoiceNo": 9164, "traveltime": 0, "holidayTraveltime": 0}, {"Id": "0000", "pgp": 0, "GoBack": 2, "SID": 17443, "NameZh": "TianLiau Church (Market)", "RouteId": 8042, "SeqNo": 15, "Terminal": 0, "DistrictId": 1, "Latitude": 22.87384, "Longitude": 120.36045, "IVRNo": 1181, "EXTVoiceNo": 20000, "traveltime": 0, "holidayTraveltime": 0}, {"Id": "0388", "pgp": 0, "GoBack": 2, "SID": 17444, "NameZh": "Jhushan", "RouteId": 8042, "SeqNo": 16, "Terminal": 0, "DistrictId": 1, "Latitude": 22.87791, "Longitude": 120.36892, "IVRNo": 789, "EXTVoiceNo": 20388, "traveltime": 0, "holidayTraveltime": 0}, {"Id": "9286", "pgp": 0, "GoBack": 2, "SID": 17445, "NameZh": "Sugar Refinery (Side Community)", "RouteId": 8042, "SeqNo": 17, "Terminal": 0, "DistrictId": 1, "Latitude": 22.87881, "Longitude": 120.37411, "IVRNo": 9886, "EXTVoiceNo": 9286, "traveltime": 0, "holidayTraveltime": 0}, {"Id": "9287", "pgp": 0, "GoBack": 2, "SID": 17446, "NameZh": "Yingpanding", "RouteId": 8042, "SeqNo": 18, "Terminal": 0, "DistrictId": 1, "Latitude": 22.878607, "Longitude": 120.377231, "IVRNo": 9887, "EXTVoiceNo": 9287, "traveltime": 0, "holidayTraveltime": 0}, {"Id": "9288", "pgp": 0, "GoBack": 2, "SID": 17447, "NameZh": "Chung-Te Elementary School", "RouteId": 8042, "SeqNo": 19, "Terminal": 0, "DistrictId": 1, "Latitude": 22.87826, "Longitude": 120.37959, "IVRNo": 9888, "EXTVoiceNo": 9288, "traveltime": 0, "holidayTraveltime": 0}, {"Id": "0001", "pgp": 0, "GoBack": 2, "SID": 17448, "NameZh": "Chongde Market (Fire Department)", "RouteId": 8042, "SeqNo": 20, "Terminal": 0, "DistrictId": 1, "Latitude": 22.87708, "Longitude": 120.38164, "IVRNo": 9889, "EXTVoiceNo": 20001, "traveltime": 0, "holidayTraveltime": 0}, {"Id": "9290", "pgp": 0, "GoBack": 2, "SID": 17449, "NameZh": "Beishihjhai", "RouteId": 8042, "SeqNo": 21, "Terminal": 0, "DistrictId": 1, "Latitude": 22.879349, "Longitude": 120.384182, "IVRNo": 9890, "EXTVoiceNo": 9290, "traveltime": 0, "holidayTraveltime": 0}, {"Id": "9223", "pgp": 0, "GoBack": 2, "SID": 17450, "NameZh": "Moon World", "RouteId": 8042, "SeqNo": 22, "Terminal": 0, "DistrictId": 1, "Latitude": 22.88359, "Longitude": 120.38697, "IVRNo": 9754, "EXTVoiceNo": 9223, "traveltime": 0, "holidayTraveltime": 0}, {"Id": "9224", "pgp": 0, "GoBack": 2, "SID": 17451, "NameZh": "Rihyue Buddhist Temple", "RouteId": 8042, "SeqNo": 23, "Terminal": 0, "DistrictId": 1, "Latitude": 22.88577, "Longitude": 120.39041, "IVRNo": 9755, "EXTVoiceNo": 9224, "traveltime": 0, "holidayTraveltime": 0}, {"Id": "0572", "pgp": 0, "GoBack": 2, "SID": 17452, "NameZh": "Guting Bridge", "RouteId": 8042, "SeqNo": 24, "Terminal": 0, "DistrictId": 1, "Latitude": 22.88703, "Longitude": 120.395, "IVRNo": 10572, "EXTVoiceNo": 10572, "traveltime": 0, "holidayTraveltime": 0}, {"Id": "1092", "pgp": 0, "GoBack": 2, "SID": 17453, "NameZh": "Nanshih Ciding", "RouteId": 8042, "SeqNo": 25, "Terminal": 0, "DistrictId": 1, "Latitude": 22.8924, "Longitude": 120.39816, "IVRNo": 11092, "EXTVoiceNo": 11092, "traveltime": 0, "holidayTraveltime": 0}, {"Id": "0570", "pgp": 0, "GoBack": 2, "SID": 17454, "NameZh": "Guting Reservoir", "RouteId": 8042, "SeqNo": 26, "Terminal": 0, "DistrictId": 1, "Latitude": 22.89422, "Longitude": 120.39986, "IVRNo": 10570, "EXTVoiceNo": 10570, "traveltime": 0, "holidayTraveltime": 0}, {"Id": "0568", "pgp": 0, "GoBack": 2, "SID": 17455, "NameZh": "Guting", "RouteId": 8042, "SeqNo": 27, "Terminal": 0, "DistrictId": 1, "Latitude": 22.8935, "Longitude": 120.4035, "IVRNo": 10568, "EXTVoiceNo": 10568, "traveltime": 0, "holidayTraveltime": 0}, {"Id": "1470", "pgp": 0, "GoBack": 2, "SID": 17456, "NameZh": "Lupu", "RouteId": 8042, "SeqNo": 28, "Terminal": 0, "DistrictId": 1, "Latitude": 22.88848, "Longitude": 120.42194, "IVRNo": 11470, "EXTVoiceNo": 11470, "traveltime": 0, "holidayTraveltime": 0}, {"Id": "1472", "pgp": 0, "GoBack": 2, "SID": 17457, "NameZh": "Lupu Campus", "RouteId": 8042, "SeqNo": 29, "Terminal": 0, "DistrictId": 1, "Latitude": 22.88533, "Longitude": 120.42502, "IVRNo": 11472, "EXTVoiceNo": 11472, "traveltime": 0, "holidayTraveltime": 0}, {"Id": "1219", "pgp": 0, "GoBack": 2, "SID": 17458, "NameZh": "Neimen Rd. Intersection", "RouteId": 8042, "SeqNo": 30, "Terminal": 0, "DistrictId": 1, "Latitude": 22.88672, "Longitude": 120.43357, "IVRNo": 10379, "EXTVoiceNo": 21219, "traveltime": 0, "holidayTraveltime": 0}, {"Id": "1272", "pgp": 0, "GoBack": 2, "SID": 17459, "NameZh": "Matou Hilltop", "RouteId": 8042, "SeqNo": 31, "Terminal": 0, "DistrictId": 1, "Latitude": 22.88524, "Longitude": 120.44296, "IVRNo": 11272, "EXTVoiceNo": 11272, "traveltime": 0, "holidayTraveltime": 0}, {"Id": "1270", "pgp": 0, "GoBack": 2, "SID": 17460, "NameZh": "Matou Mountain", "RouteId": 8042, "SeqNo": 32, "Terminal": 0, "DistrictId": 1, "Latitude": 22.8872, "Longitude": 120.44934, "IVRNo": 11270, "EXTVoiceNo": 11270, "traveltime": 0, "holidayTraveltime": 0}, {"Id": "1826", "pgp": 0, "GoBack": 2, "SID": 17461, "NameZh": "Cishan Campus", "RouteId": 8042, "SeqNo": 33, "Terminal": 0, "DistrictId": 1, "Latitude": 22.8883, "Longitude": 120.45732, "IVRNo": 11826, "EXTVoiceNo": 11826, "traveltime": 0, "holidayTraveltime": 0}, {"Id": "1480", "pgp": 0, "GoBack": 2, "SID": 17462, "NameZh": "Ciaojyue Temple", "RouteId": 8042, "SeqNo": 34, "Terminal": 0, "DistrictId": 1, "Latitude": 22.88832, "Longitude": 120.45827, "IVRNo": 11480, "EXTVoiceNo": 11480, "traveltime": 0, "holidayTraveltime": 0}, {"Id": "1803", "pgp": 0, "GoBack": 2, "SID": 17463, "NameZh": "Gushan Ciling", "RouteId": 8042, "SeqNo": 35, "Terminal": 0, "DistrictId": 1, "Latitude": 22.88588, "Longitude": 120.46582, "IVRNo": 11803, "EXTVoiceNo": 11803, "traveltime": 0, "holidayTraveltime": 0}, {"Id": "1840", "pgp": 0, "GoBack": 2, "SID": 17464, "NameZh": "Citing Bridge", "RouteId": 8042, "SeqNo": 36, "Terminal": 0, "DistrictId": 1, "Latitude": 22.88311, "Longitude": 120.47753, "IVRNo": 11840, "EXTVoiceNo": 11840, "traveltime": 0, "holidayTraveltime": 0}, {"Id": "0168", "pgp": 0, "GoBack": 2, "SID": 17465, "NameZh": "Jhongsyue Rd.", "RouteId": 8042, "SeqNo": 37, "Terminal": 0, "DistrictId": 1, "Latitude": 22.882569, "Longitude": 120.479105, "IVRNo": 10321, "EXTVoiceNo": 20168, "traveltime": 0, "holidayTraveltime": 0}, {"Id": "2114", "pgp": 0, "GoBack": 2, "SID": 17466, "NameZh": "Dechang Rd. (Jhongsyue Rd. Intersection)", "RouteId": 8042, "SeqNo": 38, "Terminal": 0, "DistrictId": 1, "Latitude": 22.881665, "Longitude": 120.48212, "IVRNo": 2114, "EXTVoiceNo": 2114, "traveltime": 0, "holidayTraveltime": 0}, {"Id": "3412", "pgp": 0, "GoBack": 2, "SID": 17468, "NameZh": "Cishan Bus Transfer Station", "RouteId": 8042, "SeqNo": 39, "Terminal": 0, "DistrictId": 1, "Latitude": 22.883651, "Longitude": 120.484555, "IVRNo": 9717, "EXTVoiceNo": 13412, "traveltime": 0, "holidayTraveltime": 0}, {"Id": "9718", "pgp": 0, "GoBack": 2, "SID": 17469, "NameZh": "Yanping Rd. (Cishan District Office)", "RouteId": 8042, "SeqNo": 40, "Terminal": 0, "DistrictId": 1, "Latitude": 22.88761, "Longitude": 120.483247, "IVRNo": 9718, "EXTVoiceNo": 9718, "traveltime": 0, "holidayTraveltime": 0}, {"Id": "9374", "pgp": 0, "GoBack": 2, "SID": 2336, "NameZh": "Cishan Market", "RouteId": 8042, "SeqNo": 41, "Terminal": 0, "DistrictId": 1, "Latitude": 22.889889, "Longitude": 120.483465, "IVRNo": 9953, "EXTVoiceNo": 9374, "traveltime": 0, "holidayTraveltime": 0}, {"Id": "1197", "pgp": 0, "GoBack": 2, "SID": 17471, "NameZh": "Jhonghua Rd. Intersection (Ci)", "RouteId": 8042, "SeqNo": 42, "Terminal": 0, "DistrictId": 1, "Latitude": 22.89268, "Longitude": 120.48355, "IVRNo": 1180, "EXTVoiceNo": 21197, "traveltime": 0, "holidayTraveltime": 0}, {"Id": "1828", "pgp": 0, "GoBack": 2, "SID": 17472, "NameZh": "Cishan North Station", "RouteId": 8042, "SeqNo": 43, "Terminal": 0, "DistrictId": 1, "Latitude": 22.896043, "Longitude": 120.483457, "IVRNo": 9142, "EXTVoiceNo": 11828, "traveltime": 0, "holidayTraveltime": 0}, {"Id": "0478", "pgp": 0, "GoBack": 2, "SID": 2448, "NameZh": "Cishan Motor Vehicles Supervision Station", "RouteId": 8042, "SeqNo": 44, "Terminal": 0, "DistrictId": 1, "Latitude": 22.90059, "Longitude": 120.47939, "IVRNo": 2582, "EXTVoiceNo": 478, "traveltime": 0, "holidayTraveltime": 0}, {"Id": "1159", "pgp": 0, "GoBack": 2, "SID": 16715, "NameZh": "Chaotian Temple (Ciwun Rd.)", "RouteId": 8042, "SeqNo": 45, "Terminal": 0, "DistrictId": 1, "Latitude": 22.904329, "Longitude": 120.479228, "IVRNo": 1159, "EXTVoiceNo": 1159, "traveltime": 0, "holidayTraveltime": 0}, {"Id": "2022", "pgp": 0, "GoBack": 2, "SID": 16716, "NameZh": "Lingding", "RouteId": 8042, "SeqNo": 46, "Terminal": 0, "DistrictId": 1, "Latitude": 22.90826, "Longitude": 120.47456, "IVRNo": 9144, "EXTVoiceNo": 12022, "traveltime": 0, "holidayTraveltime": 0}, {"Id": "2033", "pgp": 0, "GoBack": 2, "SID": 2680, "NameZh": "Shih Chien University (Campus)", "RouteId": 8042, "SeqNo": 47, "Terminal": 1, "DistrictId": 1, "Latitude": 22.904664, "Longitude": 120.467705, "IVRNo": 9996, "EXTVoiceNo": 12033, "traveltime": 0, "holidayTraveltime": 0}], "zh": [{"Id": "2033", "pgp": 0, "GoBack": 1, "SID": 2673, "NameZh": "\u5be6\u8e10\u5927\u5b78(\u6821\u5340)", "RouteId": 8042, "SeqNo": 1, "Terminal": 0, "DistrictId": 1, "Latitude": 22.904664, "Longitude": 120.467705, "IVRNo": 9996, "EXTVoiceNo": 12033, "traveltime": 0, "holidayTraveltime": 0}, {"Id": "2022", "pgp": 0, "GoBack": 1, "SID": 16777, "NameZh": "\u5dba\u9802", "RouteId": 8042, "SeqNo": 2, "Terminal": 0, "DistrictId": 1, "Latitude": 22.906832, "Longitude": 120.475079, "IVRNo": 9144, "EXTVoiceNo": 12022, "traveltime": 0, "holidayTraveltime": 0}, {"Id": "1159", "pgp": 0, "GoBack": 1, "SID": 16778, "NameZh": "\u671d\u5929\u5bae(\u65d7\u6587\u8def)", "RouteId": 8042, "SeqNo": 3, "Terminal": 0, "DistrictId": 1, "Latitude": 22.903691, "Longitude": 120.479159, "IVRNo": 1159, "EXTVoiceNo": 1159, "traveltime": 0, "holidayTraveltime": 0}, {"Id": "0478", "pgp": 0, "GoBack": 1, "SID": 2653, "NameZh": "\u65d7\u5c71\u76e3\u7406\u7ad9", "RouteId": 8042, "SeqNo": 4, "Terminal": 0, "DistrictId": 1, "Latitude": 22.90052, "Longitude": 120.4791, "IVRNo": 2582, "EXTVoiceNo": 478, "traveltime": 0, "holidayTraveltime": 0}, {"Id": "1828", "pgp": 0, "GoBack": 1, "SID": 17275, "NameZh": "\u65d7\u5c71\u5317\u7ad9", "RouteId": 8042, "SeqNo": 5, "Terminal": 0, "DistrictId": 1, "Latitude": 22.896043, "Longitude": 120.483457, "IVRNo": 9142, "EXTVoiceNo": 11828, "traveltime": 0, "holidayTraveltime": 0}, {"Id": "1197", "pgp": 0, "GoBack": 1, "SID": 17276, "NameZh": "\u4e2d\u83ef\u8def\u53e3(\u65d7)", "RouteId": 8042, "SeqNo": 6, "Terminal": 0, "DistrictId": 1, "Latitude": 22.89278, "Longitude": 120.4833, "IVRNo": 1180, "EXTVoiceNo": 21197, "traveltime": 0, "holidayTraveltime": 0}, {"Id": "9374", "pgp": 0, "GoBack": 1, "SID": 2669, "NameZh": "\u65d7\u5c71\u5e02\u5834", "RouteId": 8042, "SeqNo": 7, "Terminal": 0, "DistrictId": 1, "Latitude": 22.8899, "Longitude": 120.48332, "IVRNo": 9953, "EXTVoiceNo": 9374, "traveltime": 0, "holidayTraveltime": 0}, {"Id": "9718", "pgp": 0, "GoBack": 1, "SID": 17278, "NameZh": "\u5ef6\u5e73\u8def(\u65d7\u5c71\u5340\u516c\u6240)", "RouteId": 8042, "SeqNo": 8, "Terminal": 0, "DistrictId": 1, "Latitude": 22.88762, "Longitude": 120.48313, "IVRNo": 9718, "EXTVoiceNo": 9718, "traveltime": 0, "holidayTraveltime": 0}, {"Id": "3412", "pgp": 0, "GoBack": 1, "SID": 17279, "NameZh": "\u65d7\u5c71\u8f49\u904b\u7ad9", "RouteId": 8042, "SeqNo": 9, "Terminal": 0, "DistrictId": 1, "Latitude": 22.883651, "Longitude": 120.484555, "IVRNo": 9717, "EXTVoiceNo": 13412, "traveltime": 0, "holidayTraveltime": 0}, {"Id": "2114", "pgp": 0, "GoBack": 1, "SID": 17281, "NameZh": "\u5fb7\u660c\u8def(\u4e2d\u5b78\u8def\u53e3)", "RouteId": 8042, "SeqNo": 10, "Terminal": 0, "DistrictId": 1, "Latitude": 22.88162, "Longitude": 120.48203, "IVRNo": 2114, "EXTVoiceNo": 2114, "traveltime": 0, "holidayTraveltime": 0}, {"Id": "0168", "pgp": 0, "GoBack": 1, "SID": 17282, "NameZh": "\u4e2d\u5b78\u8def", "RouteId": 8042, "SeqNo": 11, "Terminal": 0, "DistrictId": 1, "Latitude": 22.88282, "Longitude": 120.47867, "IVRNo": 10321, "EXTVoiceNo": 20168, "traveltime": 0, "holidayTraveltime": 0}, {"Id": "1840", "pgp": 0, "GoBack": 1, "SID": 17283, "NameZh": "\u65d7\u4ead\u6a4b", "RouteId": 8042, "SeqNo": 12, "Terminal": 0, "DistrictId": 1, "Latitude": 22.8833, "Longitude": 120.47748, "IVRNo": 11840, "EXTVoiceNo": 11840, "traveltime": 0, "holidayTraveltime": 0}, {"Id": "1803", "pgp": 0, "GoBack": 1, "SID": 17284, "NameZh": "\u9f13\u5c71\u5d0e\u5dba", "RouteId": 8042, "SeqNo": 13, "Terminal": 0, "DistrictId": 1, "Latitude": 22.88606, "Longitude": 120.46577, "IVRNo": 11803, "EXTVoiceNo": 11803, "traveltime": 0, "holidayTraveltime": 0}, {"Id": "1480", "pgp": 0, "GoBack": 1, "SID": 17285, "NameZh": "\u55ac\u89ba\u5bfa", "RouteId": 8042, "SeqNo": 14, "Terminal": 0, "DistrictId": 1, "Latitude": 22.88866, "Longitude": 120.45932, "IVRNo": 11480, "EXTVoiceNo": 11480, "traveltime": 0, "holidayTraveltime": 0}, {"Id": "1826", "pgp": 0, "GoBack": 1, "SID": 17286, "NameZh": "\u65d7\u5c71\u5206\u6821", "RouteId": 8042, "SeqNo": 15, "Terminal": 0, "DistrictId": 1, "Latitude": 22.88849, "Longitude": 120.45731, "IVRNo": 11826, "EXTVoiceNo": 11826, "traveltime": 0, "holidayTraveltime": 0}, {"Id": "1270", "pgp": 0, "GoBack": 1, "SID": 17287, "NameZh": "\u99ac\u982d\u5c71", "RouteId": 8042, "SeqNo": 16, "Terminal": 0, "DistrictId": 1, "Latitude": 22.88731, "Longitude": 120.44952, "IVRNo": 11270, "EXTVoiceNo": 11270, "traveltime": 0, "holidayTraveltime": 0}, {"Id": "1272", "pgp": 0, "GoBack": 1, "SID": 17288, "NameZh": "\u99ac\u982d\u5c71\u9802", "RouteId": 8042, "SeqNo": 17, "Terminal": 0, "DistrictId": 1, "Latitude": 22.88548, "Longitude": 120.44279, "IVRNo": 11272, "EXTVoiceNo": 11272, "traveltime": 0, "holidayTraveltime": 0}, {"Id": "1219", "pgp": 0, "GoBack": 1, "SID": 17289, "NameZh": "\u5167\u9580\u8def\u53e3", "RouteId": 8042, "SeqNo": 18, "Terminal": 0, "DistrictId": 1, "Latitude": 22.88685, "Longitude": 120.43388, "IVRNo": 10379, "EXTVoiceNo": 21219, "traveltime": 0, "holidayTraveltime": 0}, {"Id": "1472", "pgp": 0, "GoBack": 1, "SID": 17290, "NameZh": "\u9e7f\u57d4\u5206\u6821", "RouteId": 8042, "SeqNo": 19, "Terminal": 0, "DistrictId": 1, "Latitude": 22.88523, "Longitude": 120.42552, "IVRNo": 11472, "EXTVoiceNo": 11472, "traveltime": 0, "holidayTraveltime": 0}, {"Id": "1470", "pgp": 0, "GoBack": 1, "SID": 17291, "NameZh": "\u9e7f\u57d4", "RouteId": 8042, "SeqNo": 20, "Terminal": 0, "DistrictId": 1, "Latitude": 22.88867, "Longitude": 120.42185, "IVRNo": 11470, "EXTVoiceNo": 11470, "traveltime": 0, "holidayTraveltime": 0}, {"Id": "0568", "pgp": 0, "GoBack": 1, "SID": 17292, "NameZh": "\u53e4\u4ead", "RouteId": 8042, "SeqNo": 21, "Terminal": 0, "DistrictId": 1, "Latitude": 22.89363, "Longitude": 120.40366, "IVRNo": 10568, "EXTVoiceNo": 10568, "traveltime": 0, "holidayTraveltime": 0}, {"Id": "0570", "pgp": 0, "GoBack": 1, "SID": 17293, "NameZh": "\u53e4\u4ead\u6c34\u5eab", "RouteId": 8042, "SeqNo": 22, "Terminal": 0, "DistrictId": 1, "Latitude": 22.89439, "Longitude": 120.39964, "IVRNo": 10570, "EXTVoiceNo": 10570, "traveltime": 0, "holidayTraveltime": 0}, {"Id": "1092", "pgp": 0, "GoBack": 1, "SID": 17294, "NameZh": "\u5357\u52e2\u5d0e\u9802", "RouteId": 8042, "SeqNo": 23, "Terminal": 0, "DistrictId": 1, "Latitude": 22.89255, "Longitude": 120.39811, "IVRNo": 11092, "EXTVoiceNo": 11092, "traveltime": 0, "holidayTraveltime": 0}, {"Id": "0572", "pgp": 0, "GoBack": 1, "SID": 17295, "NameZh": "\u53e4\u4ead\u6a4b", "RouteId": 8042, "SeqNo": 24, "Terminal": 0, "DistrictId": 1, "Latitude": 22.88717, "Longitude": 120.39501, "IVRNo": 10572, "EXTVoiceNo": 10572, "traveltime": 0, "holidayTraveltime": 0}, {"Id": "9224", "pgp": 0, "GoBack": 1, "SID": 17296, "NameZh": "\u65e5\u6708\u79aa\u5bfa", "RouteId": 8042, "SeqNo": 25, "Terminal": 0, "DistrictId": 1, "Latitude": 22.8859, "Longitude": 120.39042, "IVRNo": 9755, "EXTVoiceNo": 9224, "traveltime": 0, "holidayTraveltime": 0}, {"Id": "9223", "pgp": 0, "GoBack": 1, "SID": 17297, "NameZh": "\u6708\u4e16\u754c", "RouteId": 8042, "SeqNo": 26, "Terminal": 0, "DistrictId": 1, "Latitude": 22.8851, "Longitude": 120.38841, "IVRNo": 9754, "EXTVoiceNo": 9223, "traveltime": 0, "holidayTraveltime": 0}, {"Id": "9290", "pgp": 0, "GoBack": 1, "SID": 17298, "NameZh": "\u5317\u52e2\u5b85", "RouteId": 8042, "SeqNo": 27, "Terminal": 0, "DistrictId": 1, "Latitude": 22.8794, "Longitude": 120.38409, "IVRNo": 9890, "EXTVoiceNo": 9290, "traveltime": 0, "holidayTraveltime": 0}, {"Id": "0001", "pgp": 0, "GoBack": 1, "SID": 17299, "NameZh": "\u5d07\u5fb7\u5e02\u5834(\u6d88\u9632\u968a)", "RouteId": 8042, "SeqNo": 28, "Terminal": 0, "DistrictId": 1, "Latitude": 22.87725, "Longitude": 120.38123, "IVRNo": 9889, "EXTVoiceNo": 20001, "traveltime": 0, "holidayTraveltime": 0}, {"Id": "9288", "pgp": 0, "GoBack": 1, "SID": 17300, "NameZh": "\u5d07\u5fb7\u570b\u5c0f", "RouteId": 8042, "SeqNo": 29, "Terminal": 0, "DistrictId": 1, "Latitude": 22.87833, "Longitude": 120.37971, "IVRNo": 9888, "EXTVoiceNo": 9288, "traveltime": 0, "holidayTraveltime": 0}, {"Id": "9287", "pgp": 0, "GoBack": 1, "SID": 17301, "NameZh": "\u71df\u76e4\u9802", "RouteId": 8042, "SeqNo": 30, "Terminal": 0, "DistrictId": 1, "Latitude": 22.87872, "Longitude": 120.37723, "IVRNo": 9887, "EXTVoiceNo": 9287, "traveltime": 0, "holidayTraveltime": 0}, {"Id": "9286", "pgp": 0, "GoBack": 1, "SID": 17302, "NameZh": "\u7cd6\u5ee0(\u897f\u5fb7\u793e\u5340)", "RouteId": 8042, "SeqNo": 31, "Terminal": 0, "DistrictId": 1, "Latitude": 22.87889, "Longitude": 120.37406, "IVRNo": 9886, "EXTVoiceNo": 9286, "traveltime": 0, "holidayTraveltime": 0}, {"Id": "0388", "pgp": 0, "GoBack": 1, "SID": 17303, "NameZh": "\u7af9\u5c71", "RouteId": 8042, "SeqNo": 32, "Terminal": 0, "DistrictId": 1, "Latitude": 22.87801, "Longitude": 120.36873, "IVRNo": 789, "EXTVoiceNo": 20388, "traveltime": 0, "holidayTraveltime": 0}, {"Id": "0000", "pgp": 0, "GoBack": 1, "SID": 17304, "NameZh": "\u7530\u5bee\u6559\u6703(\u5e02\u5834)", "RouteId": 8042, "SeqNo": 33, "Terminal": 0, "DistrictId": 1, "Latitude": 22.87371, "Longitude": 120.36033, "IVRNo": 1181, "EXTVoiceNo": 20000, "traveltime": 0, "holidayTraveltime": 0}, {"Id": "9164", "pgp": 0, "GoBack": 1, "SID": 17305, "NameZh": "\u5d17\u5b89\u8def", "RouteId": 8042, "SeqNo": 34, "Terminal": 0, "DistrictId": 1, "Latitude": 22.87285, "Longitude": 120.35893, "IVRNo": 9600, "EXTVoiceNo": 9164, "traveltime": 0, "holidayTraveltime": 0}, {"Id": "9163", "pgp": 0, "GoBack": 1, "SID": 17306, "NameZh": "\u5d17\u5c71\u982d\u6eab\u6cc9", "RouteId": 8042, "SeqNo": 35, "Terminal": 0, "DistrictId": 1, "Latitude": 22.87423, "Longitude": 120.35702, "IVRNo": 9599, "EXTVoiceNo": 9163, "traveltime": 0, "holidayTraveltime": 0}, {"Id": "9162", "pgp": 0, "GoBack": 1, "SID": 17307, "NameZh": "\u5d17\u5c71\u982d", "RouteId": 8042, "SeqNo": 36, "Terminal": 0, "DistrictId": 1, "Latitude": 22.87469, "Longitude": 120.35589, "IVRNo": 9598, "EXTVoiceNo": 9162, "traveltime": 0, "holidayTraveltime": 0}, {"Id": "9161", "pgp": 0, "GoBack": 1, "SID": 16862, "NameZh": "\u5cf0\u5c71\u91cc", "RouteId": 8042, "SeqNo": 37, "Terminal": 0, "DistrictId": 1, "Latitude": 22.87626, "Longitude": 120.35349, "IVRNo": 9597, "EXTVoiceNo": 9161, "traveltime": 0, "holidayTraveltime": 0}, {"Id": "9160", "pgp": 0, "GoBack": 1, "SID": 17309, "NameZh": "\u5357\u5d17\u5c71", "RouteId": 8042, "SeqNo": 38, "Terminal": 0, "DistrictId": 1, "Latitude": 22.87835, "Longitude": 120.35001, "IVRNo": 9596, "EXTVoiceNo": 9160, "traveltime": 0, "holidayTraveltime": 0}, {"Id": "9159", "pgp": 0, "GoBack": 1, "SID": 17437, "NameZh": "\u5927\u57e4", "RouteId": 8042, "SeqNo": 39, "Terminal": 0, "DistrictId": 1, "Latitude": 22.88044, "Longitude": 120.34637, "IVRNo": 10219, "EXTVoiceNo": 9159, "traveltime": 0, "holidayTraveltime": 0}, {"Id": "9158", "pgp": 0, "GoBack": 1, "SID": 17311, "NameZh": "\u78da\u5b50\u7aaf", "RouteId": 8042, "SeqNo": 40, "Terminal": 0, "DistrictId": 1, "Latitude": 22.88185, "Longitude": 120.34181, "IVRNo": 9594, "EXTVoiceNo": 9158, "traveltime": 0, "holidayTraveltime": 0}, {"Id": "9157", "pgp": 0, "GoBack": 1, "SID": 17312, "NameZh": "\u6e90\u52dd\u793e\u5340", "RouteId": 8042, "SeqNo": 41, "Terminal": 0, "DistrictId": 1, "Latitude": 22.88169, "Longitude": 120.33921, "IVRNo": 9593, "EXTVoiceNo": 9157, "traveltime": 0, "holidayTraveltime": 0}, {"Id": "1187", "pgp": 0, "GoBack": 1, "SID": 17313, "NameZh": "\u5de5\u696d\u5340(\u963f\u84ee)", "RouteId": 8042, "SeqNo": 42, "Terminal": 0, "DistrictId": 1, "Latitude": 22.88138, "Longitude": 120.33721, "IVRNo": 477, "EXTVoiceNo": 21187, "traveltime": 0, "holidayTraveltime": 0}, {"Id": "9155", "pgp": 0, "GoBack": 1, "SID": 16868, "NameZh": "\u963f\u84ee\u4e2d\u6b63\u8def(\u548c\u5e73\u8def\u53e3)", "RouteId": 8042, "SeqNo": 43, "Terminal": 0, "DistrictId": 1, "Latitude": 22.88087, "Longitude": 120.33293, "IVRNo": 7148, "EXTVoiceNo": 9155, "traveltime": 0, "holidayTraveltime": 0}, {"Id": "9154", "pgp": 0, "GoBack": 1, "SID": 17315, "NameZh": "\u963f\u84ee", "RouteId": 8042, "SeqNo": 44, "Terminal": 0, "DistrictId": 1, "Latitude": 22.87914, "Longitude": 120.33137, "IVRNo": 9590, "EXTVoiceNo": 9154, "traveltime": 0, "holidayTraveltime": 0}, {"Id": "9153", "pgp": 0, "GoBack": 1, "SID": 17316, "NameZh": "\u963f\u84ee\u5206\u99d0\u6240", "RouteId": 8042, "SeqNo": 45, "Terminal": 0, "DistrictId": 1, "Latitude": 22.878948, "Longitude": 120.329406, "IVRNo": 9589, "EXTVoiceNo": 9153, "traveltime": 0, "holidayTraveltime": 0}, {"Id": "0703", "pgp": 0, "GoBack": 1, "SID": 14527, "NameZh": "\u5d19\u4ed4\u9802", "RouteId": 8042, "SeqNo": 46, "Terminal": 0, "DistrictId": 1, "Latitude": 22.879066, "Longitude": 120.312808, "IVRNo": 11370, "EXTVoiceNo": 20703, "traveltime": 0, "holidayTraveltime": 0}, {"Id": "2381", "pgp": 0, "GoBack": 1, "SID": 19052, "NameZh": "\u9ad8\u9435\u53f0\u5357\u7ad9", "RouteId": 8042, "SeqNo": 47, "Terminal": 1, "DistrictId": 1, "Latitude": 22.924153, "Longitude": 120.286083, "IVRNo": 32381, "EXTVoiceNo": 32381, "traveltime": 0, "holidayTraveltime": 0}, {"Id": "2381", "pgp": 0, "GoBack": 2, "SID": 19065, "NameZh": "\u9ad8\u9435\u53f0\u5357\u7ad9", "RouteId": 8042, "SeqNo": 1, "Terminal": 0, "DistrictId": 1, "Latitude": 22.923506, "Longitude": 120.286568, "IVRNo": 32381, "EXTVoiceNo": 32381, "traveltime": 0, "holidayTraveltime": 0}, {"Id": "0703", "pgp": 0, "GoBack": 2, "SID": 14600, "NameZh": "\u5d19\u4ed4\u9802", "RouteId": 8042, "SeqNo": 2, "Terminal": 0, "DistrictId": 1, "Latitude": 22.878971, "Longitude": 120.312727, "IVRNo": 11370, "EXTVoiceNo": 20703, "traveltime": 0, "holidayTraveltime": 0}, {"Id": "9153", "pgp": 0, "GoBack": 2, "SID": 17431, "NameZh": "\u963f\u84ee\u5206\u99d0\u6240", "RouteId": 8042, "SeqNo": 3, "Terminal": 0, "DistrictId": 1, "Latitude": 22.87877, "Longitude": 120.32931, "IVRNo": 9589, "EXTVoiceNo": 9153, "traveltime": 0, "holidayTraveltime": 0}, {"Id": "9154", "pgp": 0, "GoBack": 2, "SID": 17432, "NameZh": "\u963f\u84ee", "RouteId": 8042, "SeqNo": 4, "Terminal": 0, "DistrictId": 1, "Latitude": 22.879062, "Longitude": 120.33103, "IVRNo": 9590, "EXTVoiceNo": 9154, "traveltime": 0, "holidayTraveltime": 0}, {"Id": "9155", "pgp": 0, "GoBack": 2, "SID": 16985, "NameZh": "\u963f\u84ee\u4e2d\u6b63\u8def(\u548c\u5e73\u8def\u53e3)", "RouteId": 8042, "SeqNo": 5, "Terminal": 0, "DistrictId": 1, "Latitude": 22.880614, "Longitude": 120.332945, "IVRNo": 7148, "EXTVoiceNo": 9155, "traveltime": 0, "holidayTraveltime": 0}, {"Id": "1187", "pgp": 0, "GoBack": 2, "SID": 17434, "NameZh": "\u5de5\u696d\u5340(\u963f\u84ee)", "RouteId": 8042, "SeqNo": 6, "Terminal": 0, "DistrictId": 1, "Latitude": 22.88131, "Longitude": 120.3373, "IVRNo": 477, "EXTVoiceNo": 21187, "traveltime": 0, "holidayTraveltime": 0}, {"Id": "9157", "pgp": 0, "GoBack": 2, "SID": 17435, "NameZh": "\u6e90\u52dd\u793e\u5340", "RouteId": 8042, "SeqNo": 7, "Terminal": 0, "DistrictId": 1, "Latitude": 22.88156, "Longitude": 120.33967, "IVRNo": 9593, "EXTVoiceNo": 9157, "traveltime": 0, "holidayTraveltime": 0}, {"Id": "9158", "pgp": 0, "GoBack": 2, "SID": 17436, "NameZh": "\u78da\u5b50\u7aaf", "RouteId": 8042, "SeqNo": 8, "Terminal": 0, "DistrictId": 1, "Latitude": 22.88165, "Longitude": 120.34215, "IVRNo": 9594, "EXTVoiceNo": 9158, "traveltime": 0, "holidayTraveltime": 0}, {"Id": "9159", "pgp": 0, "GoBack": 2, "SID": 17437, "NameZh": "\u5927\u57e4", "RouteId": 8042, "SeqNo": 9, "Terminal": 0, "DistrictId": 1, "Latitude": 22.88044, "Longitude": 120.34637, "IVRNo": 10219, "EXTVoiceNo": 9159, "traveltime": 0, "holidayTraveltime": 0}, {"Id": "9160", "pgp": 0, "GoBack": 2, "SID": 17438, "NameZh": "\u5357\u5d17\u5c71", "RouteId": 8042, "SeqNo": 10, "Terminal": 0, "DistrictId": 1, "Latitude": 22.87821, "Longitude": 120.35001, "IVRNo": 9596, "EXTVoiceNo": 9160, "traveltime": 0, "holidayTraveltime": 0}, {"Id": "9161", "pgp": 0, "GoBack": 2, "SID": 16991, "NameZh": "\u5cf0\u5c71\u91cc", "RouteId": 8042, "SeqNo": 11, "Terminal": 0, "DistrictId": 1, "Latitude": 22.87614, "Longitude": 120.35348, "IVRNo": 9597, "EXTVoiceNo": 9161, "traveltime": 0, "holidayTraveltime": 0}, {"Id": "9162", "pgp": 0, "GoBack": 2, "SID": 17440, "NameZh": "\u5d17\u5c71\u982d", "RouteId": 8042, "SeqNo": 12, "Terminal": 0, "DistrictId": 1, "Latitude": 22.87457, "Longitude": 120.35587, "IVRNo": 9598, "EXTVoiceNo": 9162, "traveltime": 0, "holidayTraveltime": 0}, {"Id": "9163", "pgp": 0, "GoBack": 2, "SID": 17441, "NameZh": "\u5d17\u5c71\u982d\u6eab\u6cc9", "RouteId": 8042, "SeqNo": 13, "Terminal": 0, "DistrictId": 1, "Latitude": 22.87404, "Longitude": 120.356962, "IVRNo": 9599, "EXTVoiceNo": 9163, "traveltime": 0, "holidayTraveltime": 0}, {"Id": "9164", "pgp": 0, "GoBack": 2, "SID": 17442, "NameZh": "\u5d17\u5b89\u8def", "RouteId": 8042, "SeqNo": 14, "Terminal": 0, "DistrictId": 1, "Latitude": 22.872795, "Longitude": 120.358777, "IVRNo": 9600, "EXTVoiceNo": 9164, "traveltime": 0, "holidayTraveltime": 0}, {"Id": "0000", "pgp": 0, "GoBack": 2, "SID": 17443, "NameZh": "\u7530\u5bee\u6559\u6703(\u5e02\u5834)", "RouteId": 8042, "SeqNo": 15, "Terminal": 0, "DistrictId": 1, "Latitude": 22.87384, "Longitude": 120.36045, "IVRNo": 1181, "EXTVoiceNo": 20000, "traveltime": 0, "holidayTraveltime": 0}, {"Id": "0388", "pgp": 0, "GoBack": 2, "SID": 17444, "NameZh": "\u7af9\u5c71", "RouteId": 8042, "SeqNo": 16, "Terminal": 0, "DistrictId": 1, "Latitude": 22.87791, "Longitude": 120.36892, "IVRNo": 789, "EXTVoiceNo": 20388, "traveltime": 0, "holidayTraveltime": 0}, {"Id": "9286", "pgp": 0, "GoBack": 2, "SID": 17445, "NameZh": "\u7cd6\u5ee0(\u897f\u5fb7\u793e\u5340)", "RouteId": 8042, "SeqNo": 17, "Terminal": 0, "DistrictId": 1, "Latitude": 22.87881, "Longitude": 120.37411, "IVRNo": 9886, "EXTVoiceNo": 9286, "traveltime": 0, "holidayTraveltime": 0}, {"Id": "9287", "pgp": 0, "GoBack": 2, "SID": 17446, "NameZh": "\u71df\u76e4\u9802", "RouteId": 8042, "SeqNo": 18, "Terminal": 0, "DistrictId": 1, "Latitude": 22.878607, "Longitude": 120.377231, "IVRNo": 9887, "EXTVoiceNo": 9287, "traveltime": 0, "holidayTraveltime": 0}, {"Id": "9288", "pgp": 0, "GoBack": 2, "SID": 17447, "NameZh": "\u5d07\u5fb7\u570b\u5c0f", "RouteId": 8042, "SeqNo": 19, "Terminal": 0, "DistrictId": 1, "Latitude": 22.87826, "Longitude": 120.37959, "IVRNo": 9888, "EXTVoiceNo": 9288, "traveltime": 0, "holidayTraveltime": 0}, {"Id": "0001", "pgp": 0, "GoBack": 2, "SID": 17448, "NameZh": "\u5d07\u5fb7\u5e02\u5834(\u6d88\u9632\u968a)", "RouteId": 8042, "SeqNo": 20, "Terminal": 0, "DistrictId": 1, "Latitude": 22.87708, "Longitude": 120.38164, "IVRNo": 9889, "EXTVoiceNo": 20001, "traveltime": 0, "holidayTraveltime": 0}, {"Id": "9290", "pgp": 0, "GoBack": 2, "SID": 17449, "NameZh": "\u5317\u52e2\u5b85", "RouteId": 8042, "SeqNo": 21, "Terminal": 0, "DistrictId": 1, "Latitude": 22.879349, "Longitude": 120.384182, "IVRNo": 9890, "EXTVoiceNo": 9290, "traveltime": 0, "holidayTraveltime": 0}, {"Id": "9223", "pgp": 0, "GoBack": 2, "SID": 17450, "NameZh": "\u6708\u4e16\u754c", "RouteId": 8042, "SeqNo": 22, "Terminal": 0, "DistrictId": 1, "Latitude": 22.88359, "Longitude": 120.38697, "IVRNo": 9754, "EXTVoiceNo": 9223, "traveltime": 0, "holidayTraveltime": 0}, {"Id": "9224", "pgp": 0, "GoBack": 2, "SID": 17451, "NameZh": "\u65e5\u6708\u79aa\u5bfa", "RouteId": 8042, "SeqNo": 23, "Terminal": 0, "DistrictId": 1, "Latitude": 22.88577, "Longitude": 120.39041, "IVRNo": 9755, "EXTVoiceNo": 9224, "traveltime": 0, "holidayTraveltime": 0}, {"Id": "0572", "pgp": 0, "GoBack": 2, "SID": 17452, "NameZh": "\u53e4\u4ead\u6a4b", "RouteId": 8042, "SeqNo": 24, "Terminal": 0, "DistrictId": 1, "Latitude": 22.88703, "Longitude": 120.395, "IVRNo": 10572, "EXTVoiceNo": 10572, "traveltime": 0, "holidayTraveltime": 0}, {"Id": "1092", "pgp": 0, "GoBack": 2, "SID": 17453, "NameZh": "\u5357\u52e2\u5d0e\u9802", "RouteId": 8042, "SeqNo": 25, "Terminal": 0, "DistrictId": 1, "Latitude": 22.8924, "Longitude": 120.39816, "IVRNo": 11092, "EXTVoiceNo": 11092, "traveltime": 0, "holidayTraveltime": 0}, {"Id": "0570", "pgp": 0, "GoBack": 2, "SID": 17454, "NameZh": "\u53e4\u4ead\u6c34\u5eab", "RouteId": 8042, "SeqNo": 26, "Terminal": 0, "DistrictId": 1, "Latitude": 22.89422, "Longitude": 120.39986, "IVRNo": 10570, "EXTVoiceNo": 10570, "traveltime": 0, "holidayTraveltime": 0}, {"Id": "0568", "pgp": 0, "GoBack": 2, "SID": 17455, "NameZh": "\u53e4\u4ead", "RouteId": 8042, "SeqNo": 27, "Terminal": 0, "DistrictId": 1, "Latitude": 22.8935, "Longitude": 120.4035, "IVRNo": 10568, "EXTVoiceNo": 10568, "traveltime": 0, "holidayTraveltime": 0}, {"Id": "1470", "pgp": 0, "GoBack": 2, "SID": 17456, "NameZh": "\u9e7f\u57d4", "RouteId": 8042, "SeqNo": 28, "Terminal": 0, "DistrictId": 1, "Latitude": 22.88848, "Longitude": 120.42194, "IVRNo": 11470, "EXTVoiceNo": 11470, "traveltime": 0, "holidayTraveltime": 0}, {"Id": "1472", "pgp": 0, "GoBack": 2, "SID": 17457, "NameZh": "\u9e7f\u57d4\u5206\u6821", "RouteId": 8042, "SeqNo": 29, "Terminal": 0, "DistrictId": 1, "Latitude": 22.88533, "Longitude": 120.42502, "IVRNo": 11472, "EXTVoiceNo": 11472, "traveltime": 0, "holidayTraveltime": 0}, {"Id": "1219", "pgp": 0, "GoBack": 2, "SID": 17458, "NameZh": "\u5167\u9580\u8def\u53e3", "RouteId": 8042, "SeqNo": 30, "Terminal": 0, "DistrictId": 1, "Latitude": 22.88672, "Longitude": 120.43357, "IVRNo": 10379, "EXTVoiceNo": 21219, "traveltime": 0, "holidayTraveltime": 0}, {"Id": "1272", "pgp": 0, "GoBack": 2, "SID": 17459, "NameZh": "\u99ac\u982d\u5c71\u9802", "RouteId": 8042, "SeqNo": 31, "Terminal": 0, "DistrictId": 1, "Latitude": 22.88524, "Longitude": 120.44296, "IVRNo": 11272, "EXTVoiceNo": 11272, "traveltime": 0, "holidayTraveltime": 0}, {"Id": "1270", "pgp": 0, "GoBack": 2, "SID": 17460, "NameZh": "\u99ac\u982d\u5c71", "RouteId": 8042, "SeqNo": 32, "Terminal": 0, "DistrictId": 1, "Latitude": 22.8872, "Longitude": 120.44934, "IVRNo": 11270, "EXTVoiceNo": 11270, "traveltime": 0, "holidayTraveltime": 0}, {"Id": "1826", "pgp": 0, "GoBack": 2, "SID": 17461, "NameZh": "\u65d7\u5c71\u5206\u6821", "RouteId": 8042, "SeqNo": 33, "Terminal": 0, "DistrictId": 1, "Latitude": 22.8883, "Longitude": 120.45732, "IVRNo": 11826, "EXTVoiceNo": 11826, "traveltime": 0, "holidayTraveltime": 0}, {"Id": "1480", "pgp": 0, "GoBack": 2, "SID": 17462, "NameZh": "\u55ac\u89ba\u5bfa", "RouteId": 8042, "SeqNo": 34, "Terminal": 0, "DistrictId": 1, "Latitude": 22.88832, "Longitude": 120.45827, "IVRNo": 11480, "EXTVoiceNo": 11480, "traveltime": 0, "holidayTraveltime": 0}, {"Id": "1803", "pgp": 0, "GoBack": 2, "SID": 17463, "NameZh": "\u9f13\u5c71\u5d0e\u5dba", "RouteId": 8042, "SeqNo": 35, "Terminal": 0, "DistrictId": 1, "Latitude": 22.88588, "Longitude": 120.46582, "IVRNo": 11803, "EXTVoiceNo": 11803, "traveltime": 0, "holidayTraveltime": 0}, {"Id": "1840", "pgp": 0, "GoBack": 2, "SID": 17464, "NameZh": "\u65d7\u4ead\u6a4b", "RouteId": 8042, "SeqNo": 36, "Terminal": 0, "DistrictId": 1, "Latitude": 22.88311, "Longitude": 120.47753, "IVRNo": 11840, "EXTVoiceNo": 11840, "traveltime": 0, "holidayTraveltime": 0}, {"Id": "0168", "pgp": 0, "GoBack": 2, "SID": 17465, "NameZh": "\u4e2d\u5b78\u8def", "RouteId": 8042, "SeqNo": 37, "Terminal": 0, "DistrictId": 1, "Latitude": 22.882569, "Longitude": 120.479105, "IVRNo": 10321, "EXTVoiceNo": 20168, "traveltime": 0, "holidayTraveltime": 0}, {"Id": "2114", "pgp": 0, "GoBack": 2, "SID": 17466, "NameZh": "\u5fb7\u660c\u8def(\u4e2d\u5b78\u8def\u53e3)", "RouteId": 8042, "SeqNo": 38, "Terminal": 0, "DistrictId": 1, "Latitude": 22.881665, "Longitude": 120.48212, "IVRNo": 2114, "EXTVoiceNo": 2114, "traveltime": 0, "holidayTraveltime": 0}, {"Id": "3412", "pgp": 0, "GoBack": 2, "SID": 17468, "NameZh": "\u65d7\u5c71\u8f49\u904b\u7ad9", "RouteId": 8042, "SeqNo": 39, "Terminal": 0, "DistrictId": 1, "Latitude": 22.883651, "Longitude": 120.484555, "IVRNo": 9717, "EXTVoiceNo": 13412, "traveltime": 0, "holidayTraveltime": 0}, {"Id": "9718", "pgp": 0, "GoBack": 2, "SID": 17469, "NameZh": "\u5ef6\u5e73\u8def(\u65d7\u5c71\u5340\u516c\u6240)", "RouteId": 8042, "SeqNo": 40, "Terminal": 0, "DistrictId": 1, "Latitude": 22.88761, "Longitude": 120.483247, "IVRNo": 9718, "EXTVoiceNo": 9718, "traveltime": 0, "holidayTraveltime": 0}, {"Id": "9374", "pgp": 0, "GoBack": 2, "SID": 2336, "NameZh": "\u65d7\u5c71\u5e02\u5834", "RouteId": 8042, "SeqNo": 41, "Terminal": 0, "DistrictId": 1, "Latitude": 22.889889, "Longitude": 120.483465, "IVRNo": 9953, "EXTVoiceNo": 9374, "traveltime": 0, "holidayTraveltime": 0}, {"Id": "1197", "pgp": 0, "GoBack": 2, "SID": 17471, "NameZh": "\u4e2d\u83ef\u8def\u53e3(\u65d7)", "RouteId": 8042, "SeqNo": 42, "Terminal": 0, "DistrictId": 1, "Latitude": 22.89268, "Longitude": 120.48355, "IVRNo": 1180, "EXTVoiceNo": 21197, "traveltime": 0, "holidayTraveltime": 0}, {"Id": "1828", "pgp": 0, "GoBack": 2, "SID": 17472, "NameZh": "\u65d7\u5c71\u5317\u7ad9", "RouteId": 8042, "SeqNo": 43, "Terminal": 0, "DistrictId": 1, "Latitude": 22.896043, "Longitude": 120.483457, "IVRNo": 9142, "EXTVoiceNo": 11828, "traveltime": 0, "holidayTraveltime": 0}, {"Id": "0478", "pgp": 0, "GoBack": 2, "SID": 2448, "NameZh": "\u65d7\u5c71\u76e3\u7406\u7ad9", "RouteId": 8042, "SeqNo": 44, "Terminal": 0, "DistrictId": 1, "Latitude": 22.90059, "Longitude": 120.47939, "IVRNo": 2582, "EXTVoiceNo": 478, "traveltime": 0, "holidayTraveltime": 0}, {"Id": "1159", "pgp": 0, "GoBack": 2, "SID": 16715, "NameZh": "\u671d\u5929\u5bae(\u65d7\u6587\u8def)", "RouteId": 8042, "SeqNo": 45, "Terminal": 0, "DistrictId": 1, "Latitude": 22.904329, "Longitude": 120.479228, "IVRNo": 1159, "EXTVoiceNo": 1159, "traveltime": 0, "holidayTraveltime": 0}, {"Id": "2022", "pgp": 0, "GoBack": 2, "SID": 16716, "NameZh": "\u5dba\u9802", "RouteId": 8042, "SeqNo": 46, "Terminal": 0, "DistrictId": 1, "Latitude": 22.90826, "Longitude": 120.47456, "IVRNo": 9144, "EXTVoiceNo": 12022, "traveltime": 0, "holidayTraveltime": 0}, {"Id": "2033", "pgp": 0, "GoBack": 2, "SID": 2680, "NameZh": "\u5be6\u8e10\u5927\u5b78(\u6821\u5340)", "RouteId": 8042, "SeqNo": 47, "Terminal": 1, "DistrictId": 1, "Latitude": 22.904664, "Longitude": 120.467705, "IVRNo": 9996, "EXTVoiceNo": 12033, "traveltime": 0, "holidayTraveltime": 0}]}